~V
VERS. 2.00: Ver 2.00
~W
STRT.M 20.0000:
STOP.M 286.0000:
STEP.M 0.1250:
NULL. -999.2500:
UWI. FD11156:
~C
DEPT.M :
TVD. :
DX. :
DY. :
DEN.GM/CC :
GR.API :
RML.OHMM :
RI. :
RXO.OHMM :
CALI.CM :
SP.MV :
~A
# ...
   36.5000    36.5000     0.0000     0.0000     2.0990    63.2050    16.3060    10.3670    14.5940    23.7350   -40.8700 
   36.6250    36.6250     0.0000     0.0000     2.0980    63.5700    16.3070    10.0620    14.4130    23.7620   -40.5390 
   36.7500    36.7500     0.0000     0.0000     2.1010    61.6880    15.9960     9.7360    14.3720    23.9860   -40.1770 
   36.8750    36.8750     0.0000     0.0000     2.1050    57.7540    15.3950     9.3500    13.8510    24.3350   -39.7780 
   37.0000    37.0000     0.0000     0.0000     2.1070    54.9990    14.6590     8.9310    12.7450    24.6950   -39.3610 
   37.1250    37.1250     0.0000     0.0000     2.1040    54.7450    14.0280     8.5850    11.7810    25.0590   -38.9720 
   37.2500    37.2500     0.0000     0.0000     2.1010    54.5030    13.6550     8.3730    11.3640    25.7040   -38.6220 
   37.3750    37.3750     0.0000     0.0000     2.1020    53.7340    13.5550     8.2830    11.5340    26.3740   -38.3050 
   37.5000    37.5000     0.0000     0.0000     2.1090    54.1310    13.6030     8.2570    12.0120    27.0800   -38.0060 
   37.6250    37.6250     0.0000     0.0000     2.1230    54.2590    13.5710     8.1950    12.2370    27.7620   -37.7980 
   37.7500    37.7500     0.0000     0.0000     2.1370    55.0780    13.4110     8.0350    11.9800    28.1490   -37.6480 
   37.8750    37.8750     0.0000     0.0000     2.1490    59.7790    13.2060     7.7740    11.4120    28.0090   -37.5490 
   38.0000    38.0000     0.0000     0.0000     2.1580    65.7390    13.0610     7.4700    11.0140    26.8690   -37.5530 
   38.1250    38.1250     0.0000     0.0000     2.1630    67.0780    13.1150     7.2420    10.9590    25.8920   -37.6700 
   38.2500    38.2500     0.0000     0.0000     2.1620    64.6060    13.3830     7.1760    11.0620    25.6000   -37.8610 
   38.3750    38.3750     0.0000     0.0000     2.1540    62.8020    13.8960     7.3290    11.3500    25.5240   -38.1980 
   38.5000    38.5000     0.0000     0.0000     2.1350    63.7420    14.7230     7.7330    12.1980    25.3470   -38.7060 
   38.6250    38.6250     0.0000     0.0000     2.1060    64.2910    15.9840     8.4150    14.3370    25.1210   -39.3540 
   38.7500    38.7500     0.0000     0.0000     2.0740    61.7750    17.5000     9.2430    17.6580    25.0430   -40.1430 
   38.8750    38.8750     0.0000     0.0000     2.0450    57.5110    18.9300    10.0620    20.1290    25.0810   -41.0500 
   39.0000    39.0000     0.0000     0.0000     2.0230    56.3930    19.8680    10.6960    20.1660    25.3540   -41.9820 
   39.1250    39.1250     0.0000     0.0000     2.0150    59.0660    19.9790    10.9870    18.3740    26.0750   -42.8760 
   39.2500    39.2500     0.0000     0.0000     2.0210    59.2110    19.5630    11.0350    16.7850    26.4510   -43.7090 
   39.3750    39.3750     0.0000     0.0000     2.0370    57.3790    19.0060    10.9660    15.8230    26.4540   -44.4190 
   39.5000    39.5000     0.0000     0.0000     2.0600    57.6520    18.6470    10.8820    15.3460    26.2390   -44.9840 
   39.6250    39.6250     0.0000     0.0000     2.0800    59.6830    18.6160    10.8180    15.4000    25.9870   -45.3980 
   39.7500    39.7500     0.0000     0.0000     2.0920    58.8130    18.6610    10.7330    16.0230    25.8210   -45.6160 
   39.8750    39.8750     0.0000     0.0000     2.0950    54.9070    18.5700    10.5980    16.6970    25.6970   -45.6690 
   40.0000    40.0000     0.0000     0.0000     2.0930    52.8500    18.3050    10.4270    17.1430    25.6490   -45.6550 
   40.1250    40.1250     0.0000     0.0000     2.0920    55.6920    18.0600    10.2750    17.0980    25.6340   -45.5680 
   40.2500    40.2500     0.0000     0.0000     2.0930    59.9050    18.0300    10.1860    17.2160    25.6250   -45.4260 
   40.3750    40.3750     0.0000     0.0000     2.0970    62.3040    18.2240    10.1580    17.6040    25.5780   -45.2700 
   40.5000    40.5000     0.0000     0.0000     2.1000    60.9820    18.4600    10.1480    17.9410    25.3130   -45.0680 
   40.6250    40.6250     0.0000     0.0000     2.1020    56.3740    18.3960    10.0820    17.9160    24.9990   -44.7840 
   40.7500    40.7500     0.0000     0.0000     2.1000    52.3130    18.0150     9.9370    17.4830    24.9610   -44.5030 
   40.8750    40.8750     0.0000     0.0000     2.0960    52.4770    17.5540     9.7420    17.0920    25.0410   -44.2310 
   41.0000    41.0000     0.0000     0.0000     2.0920    56.9560    17.2800     9.5510    16.9370    25.1780   -43.8890 
   41.1250    41.1250     0.0000     0.0000     2.0900    58.7420    17.2630     9.4240    16.6620    25.2910   -43.5030 
   41.2500    41.2500     0.0000     0.0000     2.0900    54.1470    17.2910     9.3720    16.3850    25.3860   -43.1050 
   41.3750    41.3750     0.0000     0.0000     2.0920    47.5360    17.2740     9.3880    16.3960    25.3680   -42.6370 
   41.5000    41.5000     0.0000     0.0000     2.0910    46.9610    17.3380     9.4690    16.4660    25.2380   -42.1430 
   41.6250    41.6250     0.0000     0.0000     2.0850    53.7490    17.8170     9.6310    16.4450    25.0570   -41.6860 
   41.7500    41.7500     0.0000     0.0000     2.0760    58.3250    18.7010     9.8710    16.5540    25.0280   -41.1570 
   41.8750    41.8750     0.0000     0.0000     2.0680    56.5420    19.7560    10.1960    16.7470    25.0220   -40.5310 
   42.0000    42.0000     0.0000     0.0000     2.0670    52.4420    20.5990    10.6130    16.9800    25.0220   -39.8650 
   42.1250    42.1250     0.0000     0.0000     2.0810    52.0650    20.7870    11.0770    16.9960    25.0160   -39.0660 
   42.2500    42.2500     0.0000     0.0000     2.1130    53.4460    20.3200    11.4070    16.6070    24.9620   -38.1010 
   42.3750    42.3750     0.0000     0.0000     2.1650    53.9610    19.2680    11.3830    16.2010    24.7410   -36.9900 
   42.5000    42.5000     0.0000     0.0000     2.2350    53.9810    17.6880    10.8410    17.2350    24.1930   -35.6590 
   42.6250    42.6250     0.0000     0.0000     2.3080    55.2760    15.5300     9.7150    18.2180    23.8180   -34.0870 
   42.7500    42.7500     0.0000     0.0000     2.3660    58.3960    13.1340     8.3390    15.2530    23.7390   -32.4420 
   42.8750    42.8750     0.0000     0.0000     2.3960    62.5240    10.9760     7.0030    10.5590    23.8100   -30.8060 
   43.0000    43.0000     0.0000     0.0000     2.3990    66.4490     9.4600     5.9120     8.4940    23.8870   -29.2680 
   43.1250    43.1250     0.0000     0.0000     2.3840    69.7330     8.8900     5.2210     6.9410    23.5840   -27.9480 
   43.2500    43.2500     0.0000     0.0000     2.3650    73.5980     8.9940     4.8850     6.2810    23.5490   -26.8500 
   43.3750    43.3750     0.0000     0.0000     2.3500    75.9140     9.4600     4.8620     6.0800    23.5950   -26.0190 
   43.5000    43.5000     0.0000     0.0000     2.3400    74.1880     9.9330     5.0690     6.7410    23.9070   -25.5440 
   43.6250    43.6250     0.0000     0.0000     2.3340    68.3200    10.0990     5.4060     7.7490    24.3880   -25.4280 
   43.7500    43.7500     0.0000     0.0000     2.3270    64.2310     9.9260     5.7220     8.5270    24.6970   -25.4490 
   43.8750    43.8750     0.0000     0.0000     2.3140    66.3400     9.4720     5.9030     8.7790    24.5250   -25.5250 
   44.0000    44.0000     0.0000     0.0000     2.2950    73.8120     8.9160     5.8790     8.8710    24.1680   -25.5430 
   44.1250    44.1250     0.0000     0.0000     2.2800    78.2240     8.5370     5.6700     8.6460    23.9730   -25.3670 
   44.2500    44.2500     0.0000     0.0000     2.2740    77.7260     8.3820     5.4050     8.1960    23.9630   -25.0600 
   44.3750    44.3750     0.0000     0.0000     2.2760    78.3940     8.3250     5.1550     7.1460    23.9120   -24.6440 
   44.5000    44.5000     0.0000     0.0000     2.2810    82.7700     8.2110     4.9520     5.9000    23.6520   -24.0900 
   44.6250    44.6250     0.0000     0.0000     2.2800    84.0050     7.9710     4.8040     5.8530    23.5950   -23.4580 
