~V
VERS. 2.00: Ver 2.00
~W
STRT.M 11.0000:
STOP.M 273.0000:
STEP.M 0.1250:
NULL. -999.2500:
UWI. FD11023:
~C
DEPT.M :
TVD. :
DX. :
DY. :
GR.API :
RML.OHMM :
RI. :
RXO.OHMM :
CALI.CM :
DEN.GM/CC :
SP.MV :
~A
# ...
  101.7500   101.7010    -1.6060     0.2400    49.0880    11.9920    10.2800    10.3730    24.9760     2.1610   -27.5530 
  101.8750   101.8260    -1.6180     0.2460    45.4430    10.4880     9.2500     9.3610    24.9200     2.1170   -27.8260 
  102.0000   101.9500    -1.6290     0.2510    43.4890     9.1060     8.1430     8.3600    24.9080     2.0960   -28.0720 
  102.1250   102.0740    -1.6410     0.2570    43.4840     8.3130     7.3610     7.0290    24.9080     2.0910   -28.2370 
  102.2500   102.1990    -1.6530     0.2620    46.7000     8.0390     6.9440     7.0100    24.9080     2.0950   -28.3200 
  102.3750   102.3230    -1.6650     0.2670    50.8680     8.1380     6.8380     6.9830    24.9080     2.1040   -28.3060 
  102.5000   102.4470    -1.6770     0.2730    51.4700     8.4400     6.9440     6.9560    24.9080     2.1150   -28.2080 
  102.6250   102.5710    -1.6890     0.2780    49.2800     8.7860     7.1620     6.9890    24.9080     2.1280   -28.0660 
  102.7500   102.6960    -1.7010     0.2830    49.5220     9.0670     7.3870     7.0540    24.9080     2.1380   -27.9150 
  102.8750   102.8200    -1.7130     0.2890    52.0880     9.2430     7.5700     7.1860    24.9080     2.1360   -27.7720 
  103.0000   102.9440    -1.7240     0.2940    53.4960     9.3090     7.6900     7.2860    24.9080     2.1290   -27.6430 
  103.1250   103.0690    -1.7360     0.2990    52.5790     9.2670     7.7300     7.5350    24.9080     2.1300   -27.5130 
  103.2500   103.1930    -1.7480     0.3050    52.3130     9.1690     7.7140     7.8620    24.9080     2.1390   -27.3820 
  103.3750   103.3170    -1.7600     0.3100    52.8790     9.0590     7.6650     8.1730    24.9080     2.1450   -27.2650 
  103.5000   103.4420    -1.7720     0.3160    52.3550     8.9770     7.6080     8.6500    24.9040     2.1470   -27.1650 
  103.6250   103.5660    -1.7840     0.3210    50.2550     8.9580     7.5690     8.6900    24.8810     2.1470   -27.0630 
  103.7500   103.6900    -1.7960     0.3260    48.7070     8.9860     7.5530     8.7300    24.8410     2.1440   -26.9440 
  103.8750   103.8150    -1.8080     0.3320    49.5520     9.0370     7.5550     8.7300    24.8010     2.1380   -26.8130 
  104.0000   103.9390    -1.8190     0.3370    51.9490     9.0830     7.5620     8.7300    24.7630     2.1330   -26.6810 
  104.1250   104.0630    -1.8310     0.3420    52.0680     9.1020     7.5620     8.7370    24.7150     2.1390   -26.5560 
  104.2500   104.1880    -1.8430     0.3480    51.2360     9.1150     7.5650     8.7850    24.6940     2.1510   -26.4450 
  104.3750   104.3120    -1.8550     0.3530    51.3950     9.1760     7.6050     8.8750    24.6890     2.1670   -26.3450 
  104.5000   104.4360    -1.8670     0.3580    52.6180     9.3740     7.7430     9.2280    24.6890     2.1910   -26.2450 
  104.6250   104.5610    -1.8790     0.3640    54.4350     9.8450     8.0820     9.8970    24.6890     2.2250   -26.1430 
  104.7500   104.6850    -1.8910     0.3690    57.3580    10.5540     8.6180    10.5770    24.6900     2.2710   -26.0420 
  104.8750   104.8090    -1.9020     0.3740    61.1900    11.3780     9.2760    11.4210    24.6910     2.3160   -25.9420 
  105.0000   104.9340    -1.9140     0.3800    62.4710    12.0940     9.9030    11.7090    24.6900     2.3310   -25.8720 
  105.1250   105.0580    -1.9260     0.3850    59.1130    12.3640    10.2420    10.8190    24.6880     2.2860   -25.8600 
  105.2500   105.1820    -1.9380     0.3910    56.6790    12.1130    10.1910    10.4270    24.6870     2.2190   -25.8890 
  105.3750   105.3060    -1.9500     0.3960    57.9230    11.4380     9.7770    10.3260    24.6880     2.1670   -25.9610 
  105.5000   105.4310    -1.9620     0.4010    60.7660    10.5980     9.1670    10.3280    24.6890     2.1450   -26.0510 
  105.6250   105.5550    -1.9740     0.4070    59.7460     9.9210     8.5970    10.3770    24.6890     2.1460   -26.1190 
  105.7500   105.6790    -1.9860     0.4120    56.7810     9.5150     8.1920    10.3990    24.6890     2.1510   -26.1590 
  105.8750   105.8040    -1.9970     0.4170    55.1860     9.3290     7.9520    10.3660    24.6890     2.1560   -26.1630 
  106.0000   105.9280    -2.0090     0.4230    55.0600     9.2360     7.8180    10.2250    24.6890     2.1670   -26.1290 
  106.1250   106.0520    -2.0210     0.4280    55.4500     9.0990     7.7060     9.8860    24.6890     2.1830   -26.0740 
  106.2500   106.1770    -2.0330     0.4330    55.6260     8.8880     7.5680     9.4430    24.6890     2.1870   -26.0140 
  106.3750   106.3010    -2.0450     0.4390    55.1000     8.6610     7.4200     9.0250    24.6890     2.1750   -25.9470 
  106.5000   106.4250    -2.0570     0.4440    54.6380     8.5070     7.3070     8.7720    24.6900     2.1520   -25.8760 
  106.6250   106.5500    -2.0690     0.4490    56.3420     8.5180     7.2910     8.8710    24.7050     2.1270   -25.8080 
  106.7500   106.6740    -2.0800     0.4550    58.7700     8.6690     7.3690     9.2480    24.7500     2.1110   -25.7440 
  106.8750   106.7980    -2.0920     0.4600    59.4180     8.9020     7.5170     9.7170    24.8110     2.1120   -25.6860 
  107.0000   106.9230    -2.1040     0.4660    57.1230     9.1380     7.6910    10.1020    24.8480     2.1360   -25.6410 
  107.1250   107.0470    -2.1160     0.4710    52.8510     9.2850     7.8280    10.2450    24.8560     2.1600   -25.6180 
  107.2500   107.1710    -2.1280     0.4760    49.2270     9.3180     7.8950    10.2960    24.8560     2.1620   -25.5960 
  107.3750   107.2960    -2.1400     0.4820    48.6480     9.2520     7.8870    10.2770    24.8560     2.1400   -25.5540 
  107.5000   107.4200    -2.1520     0.4870    51.4260     9.1310     7.8220    10.1990    24.8560     2.1100   -25.4850 
  107.6250   107.5440    -2.1640     0.4920    54.3410     9.0120     7.7290    10.1260    24.8560     2.0920   -25.3570 
  107.7500   107.6690    -2.1750     0.4980    55.9110     8.9260     7.6420    10.1350    24.8560     2.0850   -25.1720 
  107.8750   107.7930    -2.1870     0.5030    56.4820     8.8700     7.5690    10.2270    24.8560     2.0870   -24.9410 
  108.0000   107.9170    -2.1990     0.5080    55.8300     8.8250     7.5040    10.2940    24.8560     2.0940   -24.6720 
  108.1250   108.0420    -2.2110     0.5140    55.3340     8.7580     7.4300    10.2580    24.8680     2.1080   -24.4030 
  108.2500   108.1660    -2.2230     0.5190    55.3960     8.6630     7.3400    10.1520    24.8990     2.1220   -24.1480 
  108.3750   108.2900    -2.2350     0.5250    54.9490     8.5500     7.2410    10.0070    24.9460     2.1290   -23.9180 
  108.5000   108.4140    -2.2470     0.5300    54.7290     8.4460     7.1480     9.8110    24.9880     2.1210   -23.7200 
  108.6250   108.5390    -2.2590     0.5350    56.4950     8.3810     7.0820     9.6600    25.0160     2.1080   -23.5290 
  108.7500   108.6630    -2.2700     0.5410    59.5420     8.3580     7.0470     9.5410    25.0410     2.1030   -23.3370 
  108.8750   108.7870    -2.2820     0.5460    61.3770     8.3710     7.0410     9.4650    25.0610     2.1120   -23.1430 
  109.0000   108.9120    -2.2940     0.5510    59.8020     8.4120     7.0580     9.4370    25.0690     2.1250   -22.9300 
  109.1250   109.0360    -2.3060     0.5570    57.3580     8.4730     7.0950     9.2510    25.0690     2.1300   -22.7070 
  109.2500   109.1600    -2.3180     0.5620    55.4180     8.5530     7.1470     9.0880    25.0690     2.1290   -22.4850 
  109.3750   109.2850    -2.3300     0.5670    54.1360     8.6540     7.2170     8.8890    25.0690     2.1290   -22.2600 
  109.5000   109.4090    -2.3420     0.5730    53.5730     8.7770     7.3040     8.7590    25.0690     2.1330   -22.0370 
  109.6250   109.5330    -2.3530     0.5780    52.3260     8.9090     7.4030     8.5970    25.0910     2.1410   -21.8230 
  109.7500   109.6580    -2.3670     0.5840    52.2240     9.0190     7.4910     8.5970    25.1660     2.1460   -21.6080 
  109.8750   109.7820    -2.3800     0.5900    54.1420     9.0720     7.5410     8.5970    25.2750     2.1470   -21.3640 
