~V
VERS. 2.00: Ver 2.00
~W
STRT.M 35.0000:
STOP.M 279.0000:
STEP.M 0.1250:
NULL. -999.2500:
UWI. FD11183:
~C
DEPT.M :
TVD. :
DX. :
DY. :
SP.MV :
GR.API :
RI. :
RML.OHMM :
RXO.OHMM :
DEN.GM/CC :
~A
# ...
  254.0000   240.9840   -64.8270    10.7470  -113.5720    64.2010    17.6960    18.1500    17.5560     2.2280 
  254.1250   241.0970   -64.8810    10.7550  -113.4440    67.3840    18.0440    18.7300    17.9100     2.2180 
  254.2500   241.2090   -64.9350    10.7640  -113.2600    68.4790    18.1250    19.0080    18.1490     2.2040 
  254.3750   241.3220   -64.9890    10.7720  -113.0170    67.6610    18.0100    19.0100    18.4920     2.2010 
  254.5000   241.4340   -65.0430    10.7810  -112.7990    66.7370    17.7940    18.7730    18.7220     2.2090 
  254.6250   241.5470   -65.0970    10.7900  -112.7510    66.2230    17.6160    18.5140    18.3930     2.2150 
  254.7500   241.6590   -65.1500    10.7980  -112.6900    65.9690    17.5560    18.4060    17.7660     2.2130 
  254.8750   241.7720   -65.2040    10.8060  -112.4810    66.3810    17.6620    18.5230    17.5830     2.2080 
  255.0000   241.8840   -65.2580    10.8140  -112.2320    65.8060    17.7970    18.6960    17.9240     2.2080 
  255.1250   241.9970   -65.3120    10.8220  -111.9070    63.3480    17.7670    18.6860    18.4470     2.2150 
  255.2500   242.1090   -65.3660    10.8300  -111.5170    61.2240    17.4900    18.4050    19.1580     2.2260 
  255.3750   242.2220   -65.4200    10.8390  -111.0980    60.8120    17.0570    17.9490    19.5250     2.2330 
  255.5000   242.3350   -65.4730    10.8470  -110.8010    60.9320    16.5960    17.4850    18.8280     2.2370 
  255.6250   242.4470   -65.5270    10.8550  -110.5980    61.0380    16.3330    17.2370    17.6260     2.2340 
  255.7500   242.5600   -65.5810    10.8630  -110.3770    59.6500    16.3090    17.2560    17.0790     2.2230 
  255.8750   242.6720   -65.6350    10.8710  -110.2720    57.6120    16.5660    17.5830    17.2830     2.2090 
  256.0000   242.7850   -65.6890    10.8790  -110.3600    57.4950    17.0620    18.1280    17.5190     2.2040 
  256.1250   242.8970   -65.7430    10.8870  -110.6300    60.0680    17.8200    18.8340    18.2910     2.2140 
  256.2500   243.0100   -65.7970    10.8950  -110.9570    63.1720    18.7760    19.7180    20.1040     2.2380 
  256.3750   243.1220   -65.8510    10.9030  -111.2490    67.0860    20.0230    20.9660    21.3610     2.2700 
  256.5000   243.2340   -65.9050    10.9120  -111.4390    71.6820    21.5470    22.6770    21.8760     2.3040 
  256.6250   243.3470   -65.9590    10.9200  -111.5640    73.9540    23.0510    24.5310    24.0840     2.3280 
  256.7500   243.4590   -66.0130    10.9280  -111.5780    73.7510    24.1920    25.9690    27.6050     2.3420 
  256.8750   243.5720   -66.0670    10.9360  -111.5540    74.6080    24.3390    26.1980    28.9120     2.3460 
  257.0000   243.6840   -66.1210    10.9450  -111.5000    77.2740    23.1350    24.8150    28.2040     2.3410 
  257.1250   243.7960   -66.1750    10.9540  -111.4240    79.6440    20.9400    22.3410    27.4520     2.3260 
  257.2500   243.9090   -66.2290    10.9620  -111.3200    80.5040    18.5230    19.6680    25.2830     2.3000 
  257.3750   244.0210   -66.2830    10.9710  -111.1810    80.6520    16.6180    17.6050    21.2820     2.2690 
  257.5000   244.1340   -66.3370    10.9800  -111.0220    79.7750    15.5240    16.4250    17.7530     2.2380 
  257.6250   244.2460   -66.3910    10.9880  -110.8470    76.3190    15.1840    16.0260    16.3170     2.2130 
  257.7500   244.3580   -66.4450    10.9970  -110.6890    71.9690    15.4770    16.2430    16.6610     2.1940 
  257.8750   244.4710   -66.4990    11.0050  -110.6100    69.0430    16.4270    17.1610    17.6850     2.1840 
  258.0000   244.5830   -66.5540    11.0140  -110.5470    67.6590    17.7260    18.4200    18.3390     2.1810 
  258.1250   244.6950   -66.6080    11.0220  -110.4520    65.7680    19.0220    19.6850    18.2910     2.1820 
  258.2500   244.8080   -66.6620    11.0300  -110.4150    63.3780    20.1180    20.7610    18.0390     2.1830 
  258.3750   244.9200   -66.7160    11.0390  -110.4930    63.0060    20.2960    20.8360    17.9380     2.1850 
  258.5000   245.0320   -66.7700    11.0470  -110.5330    64.4160    18.9620    19.3380    18.2220     2.1880 
  258.6250   245.1450   -66.8240    11.0550  -110.4200    64.7390    16.5410    16.7340    18.9700     2.1960 
  258.7500   245.2570   -66.8780    11.0630  -110.1400    65.6150    13.6130    13.6380    18.3360     2.2110 
  258.8750   245.3690   -66.9330    11.0710  -109.5550    71.4100    11.0130    10.9090    14.9630     2.2300 
  259.0000   245.4820   -66.9870    11.0800  -108.5870    80.7930     9.4470     9.2930    10.6590     2.2460 
  259.1250   245.5940   -67.0410    11.0880  -107.3340    89.0210     8.6170     8.4860     9.6500     2.2590 
  259.2500   245.7070   -67.0950    11.0960  -106.1080    94.8080     8.4670     8.4080     9.3900     2.2730 
  259.3750   245.8190   -67.1490    11.1040  -105.1270    98.2850     8.9810     9.0440     9.2080     2.2770 
  259.5000   245.9310   -67.2030    11.1120  -104.3820    96.6080     9.9500    10.1150     9.9830     2.2650 
  259.6250   246.0440   -67.2580    11.1200  -103.9030    88.3600    11.4620    11.6530    12.5710     2.2380 
  259.7500   246.1560   -67.3120    11.1280  -103.7820    77.9760    13.0590    13.2300    15.2140     2.2110 
  259.8750   246.2680   -67.3660    11.1370  -104.1480    71.1970    14.4470    14.5560    15.9650     2.1960 
  260.0000   246.3810   -67.4200    11.1450  -104.9380    67.4530    15.3920    15.3790    15.8250     2.1970 
  260.1250   246.4930   -67.4740    11.1530  -105.7790    65.3280    15.7910    15.6600    16.0620     2.1990 
  260.2500   246.6050   -67.5290    11.1610  -106.4240    64.4800    16.0710    15.8280    16.4920     2.1930 
  260.3750   246.7180   -67.5830    11.1700  -106.8410    65.2060    16.3760    16.1310    16.9970     2.1860 
  260.5000   246.8300   -67.6370    11.1780  -107.1290    66.1230    16.7960    16.7020    17.7460     2.1870 
  260.6250   246.9420   -67.6910    11.1870  -107.2020    65.8650    17.1120    17.1970    18.5120     2.1950 
  260.7500   247.0540   -67.7460    11.1950  -107.0750    64.2400    17.2740    17.5090    20.9620     2.2130 
  260.8750   247.1670   -67.8000    11.2040  -106.8410    62.2410    17.1470    17.4080    43.2710     2.2400 
  261.0000   247.2790   -67.8540    11.2120  -106.6200    62.5300    16.7600    16.9450    74.1340     2.2560 
  261.1250   247.3910   -67.9090    11.2210  -106.4340    65.5240    16.1800    16.2410    64.5010     2.2420 
  261.2500   247.5040   -67.9630    11.2290  -106.3630    68.1900    15.5590    15.4950    30.6760     2.2130 
  261.3750   247.6160   -68.0170    11.2380  -106.2250    69.6010    14.9930    14.8110    16.4880     2.1900 
  261.5000   247.7280   -68.0720    11.2460  -105.9490    70.6830    14.7080    14.4530    15.9860     2.1820 
  261.6250   247.8400   -68.1260    11.2550  -105.4740    71.9780    14.8610    14.5650    16.2350     2.1840 
  261.7500   247.9520   -68.1800    11.2630  -104.9250    73.0360    15.3750    15.0340    16.1730     2.1890 
  261.8750   248.0650   -68.2350    11.2720  -104.2060    74.0120    16.2660    15.9220    16.1490     2.1950 
  262.0000   248.1770   -68.2890    11.2800  -103.6360    74.1150    17.3670    17.0630    16.9510     2.1960 
  262.1250   248.2890   -68.3440    11.2890  -103.4920    73.8620    18.4470    18.2110    18.8480     2.1910 
  262.2500   248.4010   -68.3980    11.2980  -103.4970    73.4270    19.3310    19.1670    20.7900     2.1870 
  262.3750   248.5130   -68.4530    11.3060  -103.6720    73.1970    19.9180    19.8830    21.7910     2.1870 
  262.5000   248.6260   -68.5070    11.3150  -103.8400    71.7720    20.3640    20.5260    22.2280     2.1870 
  262.6250   248.7380   -68.5620    11.3240  -103.7960    68.9090    20.8540    21.2320    22.7500     2.1890 
  262.7500   248.8500   -68.6160    11.3330  -103.8470    67.5400    21.4950    22.1240    23.0430     2.1960 
  262.8750   248.9620   -68.6710    11.3410  -103.9470    66.8480    22.2720    23.0610    23.8330     2.2070 
  263.0000   249.0740   -68.7250    11.3500  -103.9350    65.3550    22.8750    23.7660    26.9200     2.2070 
