~V
VERS. 2.00: Ver 2.00
~W
STRT.M 20.0000:
STOP.M 277.0000:
STEP.M 0.1250:
NULL. -999.2500:
UWI. FD11024:
~C
DEPT.M :
TVD. :
DX. :
DY. :
DEN.GM/CC :
GR.API :
RML.OHMM :
RI. :
RXO.OHMM :
CALI.CM :
SP.MV :
~A
   20.0000    20.0000     0.0000     0.0000  -999.2500  -999.2500  -999.2500  -999.2500  -999.2500  -999.2500    41.5680 
   20.1250    20.1250     0.0000     0.0000  -999.2500  -999.2500  -999.2500  -999.2500  -999.2500  -999.2500    40.9900 
   20.2500    20.2500     0.0000     0.0000  -999.2500  -999.2500  -999.2500  -999.2500  -999.2500  -999.2500    40.4070 
   20.3750    20.3750     0.0000     0.0000  -999.2500  -999.2500  -999.2500  -999.2500  -999.2500  -999.2500    39.8370 
   20.5000    20.5000     0.0000     0.0000  -999.2500  -999.2500  -999.2500  -999.2500  -999.2500  -999.2500    39.2520 
   20.6250    20.6250     0.0000     0.0000  -999.2500  -999.2500  -999.2500  -999.2500  -999.2500  -999.2500    38.5660 
   20.7500    20.7500     0.0000     0.0000  -999.2500  -999.2500  -999.2500  -999.2500  -999.2500  -999.2500    37.6610 
   20.8750    20.8750     0.0000     0.0000  -999.2500  -999.2500  -999.2500  -999.2500  -999.2500  -999.2500    36.5860 
   21.0000    21.0000     0.0000     0.0000  -999.2500    42.5590    44.0060     1.0370     1.1620    25.2230    35.4840 
   21.1250    21.1250     0.0000     0.0000  -999.2500    42.5590    44.0060     1.0370     1.1620    25.2230    34.4280 
   21.2500    21.2500     0.0000     0.0000  -999.2500    42.5370    44.2560     1.0350     1.1690    25.2400    33.4200 
   21.3750    21.3750     0.0000     0.0000     0.0000    42.2340    44.4330     1.0300     1.1780    25.2610    32.5180 
   21.5000    21.5000     0.0000     0.0000     0.0000    41.5230    43.4910     1.0230     1.1670    25.2650    31.7950 
   21.6250    21.6250     0.0000     0.0000     0.0000    41.4700    41.7860     1.0170     1.1620    25.2650    31.3780 
   21.7500    21.7500     0.0000     0.0000     0.8750    42.8320    40.3570     1.0160     1.1550    25.2640    31.3180 
   21.8750    21.8750     0.0000     0.0000     1.7370    43.4620    39.4090     1.0210     1.1500    25.2630    31.5740 
   22.0000    22.0000     0.0000     0.0000     1.7150    41.7740    38.8110     1.0310     1.1610    25.2540    32.0500 
   22.1250    22.1250     0.0000     0.0000     1.6980    40.1600    38.5790     1.0400     1.1590    25.2470    32.7050 
   22.2500    22.2500     0.0000     0.0000     1.6930    41.5160    38.6080     1.0430     1.1330    25.2330    33.4980 
   22.3750    22.3750     0.0000     0.0000     1.6990    43.9600    38.7720     1.0390     1.1340    25.2510    34.3780 
   22.5000    22.5000     0.0000     0.0000     1.7100    45.1490    39.1630     1.0300     1.4600    25.2610    35.3310 
   22.6250    22.6250     0.0000     0.0000     1.7190    45.9870    40.3190     1.0230     1.6190    25.2550    36.3310 
   22.7500    22.7500     0.0000     0.0000     1.7200    46.4030    42.5420     1.0230     1.7940    25.2530    37.3560 
   22.8750    22.8750     0.0000     0.0000     1.7140    46.3000    45.5820     1.0320     1.7390    25.2460    38.3990 
   23.0000    23.0000     0.0000     0.0000     1.7030    45.5040    48.0760     1.0430     1.4570    25.2060    39.4240 
   23.1250    23.1250     0.0000     0.0000     1.6920    44.2910    48.4950     1.0470     1.3690    25.1910    40.3880 
   23.2500    23.2500     0.0000     0.0000     1.6830    42.4670    48.0510     1.0400     0.8000    25.1850    41.2420 
   23.3750    23.3750     0.0000     0.0000     1.6760    40.6670    47.4310     1.0290     0.3060    25.1890    41.9910 
   23.5000    23.5000     0.0000     0.0000     1.6730    41.4180    44.1450     1.0140     0.2110    25.2500    42.5840 
   23.6250    23.6250     0.0000     0.0000     1.6740    45.0990    33.5570     0.9720     0.4960    25.2560    42.9260 
   23.7500    23.7500     0.0000     0.0000     1.6760    48.4370    20.9830     0.8780     0.9100    25.2640    43.1140 
   23.8750    23.8750     0.0000     0.0000     1.6770    49.0280    11.5130     0.7280     0.9400    25.2640    43.2320 
   24.0000    24.0000     0.0000     0.0000     1.6780    47.6320     5.8190     0.5500     0.9960    25.2570    43.3750 
   24.1250    24.1250     0.0000     0.0000     1.6750    47.7770     3.0450     0.4030     0.8860    25.2610    43.6370 
   24.2500    24.2500     0.0000     0.0000     1.6690    48.7140     1.7540     0.3130     0.9060    25.2590    44.0450 
   24.3750    24.3750     0.0000     0.0000     1.6600    48.3990     1.3440     0.2700     1.1200    25.2570    44.5500 
   24.5000    24.5000     0.0000     0.0000     1.6480    46.5320     1.2790     0.2460     1.2030    25.2580    45.1180 
   24.6250    24.6250     0.0000     0.0000     1.6350    44.8100     1.1890     0.2210     1.5290    25.2360    45.7800 
   24.7500    24.7500     0.0000     0.0000     1.6270    43.8800     1.0150     0.2010     1.9260    25.2440    46.5180 
   24.8750    24.8750     0.0000     0.0000     1.6250    43.1010     0.8190     0.1930     1.5220    25.2550    47.2830 
   25.0000    25.0000     0.0000     0.0000     1.6320    42.3530     0.6470     0.1940     0.9580    25.2560    48.0580 
   25.1250    25.1250     0.0000     0.0000     1.6450    41.2880     0.5250     0.1940     0.6200    25.2600    48.8430 
   25.2500    25.2500     0.0000     0.0000     1.6620    41.6360     0.4550     0.1880     0.8920    25.2560    49.6470 
   25.3750    25.3750     0.0000     0.0000     1.6800    43.1750     0.4370     0.1770     1.1740    25.2610    50.4280 
   25.5000    25.5000     0.0000     0.0000     1.6960    43.3230     0.4530     0.1650     1.2120    25.2640    51.1140 
   25.6250    25.6250     0.0000     0.0000     1.7080    40.9120     0.4750     0.1560     1.0200    25.2620    51.7020 
   25.7500    25.7500     0.0000     0.0000     1.7150    39.3130     0.4840     0.1530     0.8680    25.2600    52.1960 
   25.8750    25.8750     0.0000     0.0000     1.7170    40.1660     0.4810     0.1580     0.9450    25.2630    52.6850 
   26.0000    26.0000     0.0000     0.0000     1.7140    41.5140     0.4960     0.1720     1.1800    25.2570    53.1870 
   26.1250    26.1250     0.0000     0.0000     1.7090    40.9230     0.5710     0.1910     1.3970    25.2600    53.6060 
   26.2500    26.2500     0.0000     0.0000     1.7060    40.1200     0.6890     0.2040     1.2100    25.2550    53.9520 
   26.3750    26.3750     0.0000     0.0000     1.7090    40.6820     0.8000     0.2070     0.9150    25.2550    54.3110 
   26.5000    26.5000     0.0000     0.0000     1.7200    42.7910     0.8470     0.2020     0.7150    25.2630    54.8260 
   26.6250    26.6250     0.0000     0.0000     1.7390    44.1550     0.7900     0.1940     0.7040    25.2640    55.5570 
   26.7500    26.7500     0.0000     0.0000     1.7570    44.8750     0.6840     0.1890     0.6020    25.2640    56.3570 
   26.8750    26.8750     0.0000     0.0000     1.7690    44.8780     0.5880     0.1870     0.5550    25.2640    57.0200 
   27.0000    27.0000     0.0000     0.0000     1.7680    44.2630     0.5300     0.1900     0.5320    25.2610    57.4430 
   27.1250    27.1250     0.0000     0.0000     1.7510    42.5920     0.4950     0.1940     0.6120    25.2950    57.5110 
   27.2500    27.2500     0.0000     0.0000     1.7250    40.8120     0.4460     0.1980     0.7540    25.3700    57.2060 
   27.3750    27.3750     0.0000     0.0000     1.6990    40.3510     0.3790     0.1950     0.9330    25.4030    56.4630 
   27.5000    27.5000     0.0000     0.0000     1.6830    43.0730     0.3210     0.1800     1.1510    25.4070    55.1700 
   27.6250    27.6250     0.0000     0.0000     1.7010    45.8590     0.2970     0.1450     1.4010    25.4070    53.1180 
   27.7500    27.7500     0.0000     0.0000     1.7630    44.1110     0.2700     0.1010     1.6700    25.4070    50.4510 
   27.8750    27.8750     0.0000     0.0000     1.8750    39.7090     0.2140     0.0600     1.8940    25.4070    47.1150 
   28.0000    28.0000     0.0000     0.0000     2.0270    37.8470     0.1450     0.0340     1.9760    25.4070    42.9790 
   28.1250    28.1250     0.0000     0.0000     2.1810    38.3980     0.0970     0.0280     1.9440    25.4130    37.7690 
