~V
VERS. 2.00: Ver 2.00
~W
STRT.M 25.0000:
STOP.M 287.0000:
STEP.M 0.1250:
NULL. -999.2500:
UWI. FD11174:
~C
DEPT.M :
TVD. :
DX. :
DY. :
SP.MV :
GR.API :
RI. :
RML.OHMM :
RXO.OHMM :
DEN.GM/CC :
~A
# ...
  262.2500   246.1500   -28.5140   -70.5180   -24.6300    69.3970    18.5620    18.8230    19.6120     2.1780 
  262.3750   246.2600   -28.5370   -70.5720   -24.7610    69.7800    17.8520    18.1810    20.5670     2.1840 
  262.5000   246.3700   -28.5610   -70.6270   -24.8070    69.9920    17.2280    17.6040    21.1310     2.1810 
  262.6250   246.4800   -28.5840   -70.6810   -24.8320    70.6290    16.5750    16.9650    20.2960     2.1770 
  262.7500   246.5900   -28.6080   -70.7360   -24.7460    71.5300    15.9760    16.3670    18.7440     2.1810 
  262.8750   246.7000   -28.6310   -70.7900   -24.5270    71.8350    15.7250    16.1450    17.4040     2.1880 
  263.0000   246.8100   -28.6550   -70.8450   -24.3050    73.0120    15.9300    16.4410    16.7190     2.1940 
  263.1250   246.9200   -28.6780   -70.8990   -24.1470    74.9630    16.6910    17.3630    16.5940     2.1900 
  263.2500   247.0300   -28.7010   -70.9530   -23.9420    74.7110    17.9030    18.7610    17.1170     2.1740 
  263.3750   247.1400   -28.7250   -71.0080   -23.7640    71.0650    19.0680    20.0440    18.5380     2.1550 
  263.5000   247.2500   -28.7490   -71.0620   -23.6840    68.3470    19.9240    20.9470    20.0450     2.1460 
  263.6250   247.3600   -28.7720   -71.1160   -23.6540    69.7910    20.1460    21.1140    20.7010     2.1560 
  263.7500   247.4700   -28.7960   -71.1710   -23.6330    70.9060    19.4900    20.3700    20.7270     2.1820 
  263.8750   247.5810   -28.8190   -71.2250   -23.6280    70.3510    18.4940    19.3370    20.2090     2.2180 
  264.0000   247.6910   -28.8430   -71.2790   -23.6330    70.9430    17.6090    18.5000    18.8620     2.2470 
  264.1250   247.8010   -28.8660   -71.3340   -23.6100    73.3710    17.1780    18.1810    17.3520     2.2420 
  264.2500   247.9110   -28.8890   -71.3880   -23.5150    74.1300    17.3450    18.4920    16.9720     2.2050 
  264.3750   248.0210   -28.9130   -71.4420   -23.4540    71.0390    17.8540    19.1010    18.2890     2.1670 
  264.5000   248.1310   -28.9360   -71.4970   -23.3050    66.6490    18.3460    19.6230    20.4110     2.1560 
  264.6250   248.2410   -28.9600   -71.5510   -23.0400    65.6500    18.7330    20.0020    21.5610     2.1630 
  264.7500   248.3510   -28.9840   -71.6050   -22.6740    68.7690    18.8470    20.0030    20.8190     2.1690 
  264.8750   248.4610   -29.0070   -71.6590   -22.3180    71.8590    18.4020    19.4070    19.3310     2.1700 
  265.0000   248.5720   -29.0310   -71.7130   -22.0360    71.8920    17.7290    18.6240    18.9600     2.1770 
  265.1250   248.6820   -29.0550   -71.7680   -21.8630    68.7890    16.9940    17.7980    19.4640     2.1900 
  265.2500   248.7920   -29.0780   -71.8220   -21.6600    66.9940    16.3680    17.1350    18.8940     2.1960 
  265.3750   248.9020   -29.1010   -71.8760   -21.4190    67.9310    15.9930    16.7260    17.1200     2.1890 
  265.5000   249.0120   -29.1250   -71.9300   -21.1620    69.8370    15.7620    16.4680    16.3640     2.1810 
  265.6250   249.1220   -29.1480   -71.9850   -20.9700    69.2040    15.6450    16.3500    17.2820     2.1800 
  265.7500   249.2330   -29.1720   -72.0390   -20.7890    65.9490    15.6460    16.3450    18.0020     2.1840 
  265.8750   249.3430   -29.1950   -72.0930   -20.4850    65.4450    15.4460    16.0760    17.7200     2.1920 
  266.0000   249.4530   -29.2180   -72.1470   -20.0700    69.3670    15.2900    15.8740    17.3940     2.2150 
  266.1250   249.5630   -29.2410   -72.2020   -19.5660    75.5650    15.3340    15.8960    17.0620     2.2530 
  266.2500   249.6730   -29.2650   -72.2560   -19.0050    80.9340    15.7350    16.3620    16.0770     2.2880 
  266.3750   249.7830   -29.2880   -72.3100   -18.4150    84.2320    16.3740    17.1110    16.9190     2.3000 
  266.5000   249.8940   -29.3110   -72.3650   -17.8720    85.6830    16.8560    17.6920    22.0360     2.2820 
  266.6250   250.0040   -29.3340   -72.4190   -17.6320    84.6090    16.7990    17.5930    27.3290     2.2440 
  266.7500   250.1140   -29.3570   -72.4730   -17.6660    81.8580    15.9480    16.5710    27.1500     2.2070 
  266.8750   250.2240   -29.3800   -72.5270   -17.7250    78.7020    14.6410    15.0860    22.1920     2.1860 
  267.0000   250.3340   -29.4040   -72.5810   -17.5600    77.3300    13.4750    13.8190    18.1870     2.1830 
  267.1250   250.4450   -29.4270   -72.6360   -17.0760    78.6140    13.1670    13.6040    18.1800     2.2020 
  267.2500   250.5550   -29.4500   -72.6900   -16.5770    81.5080    13.9270    14.5680    20.2420     2.2420 
  267.3750   250.6650   -29.4740   -72.7440   -16.2190    83.8190    16.1560    17.1370    23.6450     2.2940 
  267.5000   250.7750   -29.4970   -72.7980   -15.9800    83.2910    19.5200    20.9310    28.2950     2.3360 
  267.6250   250.8860   -29.5210   -72.8520   -16.0040    82.5750    23.0730    24.7800    33.3820     2.3510 
  267.7500   250.9960   -29.5450   -72.9060   -16.2850    83.2280    25.6960    27.4850    38.5350     2.3400 
  267.8750   251.1060   -29.5680   -72.9600   -16.6160    83.0990    26.0380    27.5220    40.5850     2.3140 
  268.0000   251.2160   -29.5920   -73.0140   -16.7640    83.5000    24.6130    25.6920    36.8170     2.2860 
  268.1250   251.3270   -29.6160   -73.0680   -16.7060    84.7370    22.6910    23.4670    30.8460     2.2700 
  268.2500   251.4370   -29.6390   -73.1220   -16.5190    85.6250    21.1470    21.7890    28.0200     2.2790 
  268.3750   251.5470   -29.6630   -73.1760   -16.1430    85.5780    20.6910    21.4040    26.9570     2.3280 
  268.5000   251.6570   -29.6860   -73.2300   -15.6450    84.3760    21.2270    22.1240    24.1540     2.3930 
  268.6250   251.7670   -29.7100   -73.2840   -15.1450    81.6780    22.2890    23.3440    21.9390     2.4340 
  268.7500   251.8780   -29.7330   -73.3380   -14.5930    77.2210    23.1370    24.2550    22.7050     2.4450 
  268.8750   251.9880   -29.7570   -73.3920   -14.0260    76.4950    23.3080    24.3180    25.0390     2.4500 
  269.0000   252.0980   -29.7810   -73.4460   -13.5220    79.6910    22.3870    23.1480    29.4890     2.4660 
  269.1250   252.2080   -29.8040   -73.5000   -13.1780    79.3950    20.6410    21.1600    35.1100     2.4860 
  269.2500   252.3190   -29.8280   -73.5540   -13.1290    74.5320    18.6930    19.0590    36.2810     2.5040 
  269.3750   252.4290   -29.8510   -73.6080   -13.3070    70.0180    17.1380    17.5120    33.4890     2.5160 
  269.5000   252.5390   -29.8750   -73.6620   -13.4710    69.6550    16.4960    17.0290    32.8880     2.5150 
  269.6250   252.6490   -29.8980   -73.7160   -13.6660    71.1740    16.9980    17.7910    37.8710     2.5070 
  269.7500   252.7600   -29.9220   -73.7700   -13.8580    70.6810    18.5470    19.6510    44.3050     2.5060 
  269.8750   252.8700   -29.9450   -73.8240   -13.9190    68.7750    21.5200    22.9280    44.0340     2.5090 
  270.0000   252.9800   -29.9680   -73.8780   -13.9460    68.0180    24.9190    26.5610    37.5970     2.5090 
  270.1250   253.0900   -29.9920   -73.9320   -13.9870    72.4300    28.5340    30.3870    30.8670     2.5090 
  270.2500   253.2010   -30.0160   -73.9860   -14.0440    78.6580    32.1160    34.1550    29.2300     2.5160 
  270.3750   253.3110   -30.0400   -74.0400   -14.1260    81.9870    35.1600    37.2980    40.9160     2.5300 
  270.5000   253.4210   -30.0630   -74.0940   -14.1700    81.3100    37.7850    39.9700    65.5830     2.5430 
  270.6250   253.5310   -30.0870   -74.1470   -14.2020    78.2030    39.0920    41.2190    94.5280     2.5320 
  270.7500   253.6420   -30.1110   -74.2010   -14.2100    75.3360    39.0900    41.1570   148.2630     2.4920 
  270.8750   253.7520   -30.1350   -74.2550   -14.1710    74.6130    38.0930    40.1320   217.2960     2.4460 
  271.0000   253.8620   -30.1580   -74.3090   -14.1190    75.7340    36.6420    38.6380   206.9130     2.4340 
  271.1250   253.9730   -30.1820   -74.3630   -14.1260    76.3850    35.1410    37.1590   121.1190     2.4530 
  271.2500   254.0830   -30.2060   -74.4160   -14.1590    75.8940    33.8210    35.8920    67.8530     2.4660 
