~V
VERS. 2.00: Ver 2.00
~W
STRT.M 25.0000:
STOP.M 287.0000:
STEP.M 0.1250:
NULL. -999.2500:
UWI. FD11174:
~C
DEPT.M :
TVD. :
DX. :
DY. :
SP.MV :
GR.API :
RI. :
RML.OHMM :
RXO.OHMM :
DEN.GM/CC :
~A
# ...
  225.7500   213.9210   -21.8300   -54.7430   -11.0060    94.6240     2.0400     2.4890     2.7960     2.3210 
  225.8750   214.0320   -21.8520   -54.7960   -10.9110    90.6140     2.0580     2.5310     3.0280     2.3310 
  226.0000   214.1430   -21.8740   -54.8490   -10.8770    86.7690     2.0360     2.5230     3.2080     2.3410 
  226.1250   214.2540   -21.8960   -54.9020   -10.9940    85.1020     1.9780     2.4610     3.0550     2.3450 
  226.2500   214.3650   -21.9180   -54.9560   -11.1280    84.4200     1.8940     2.3640     2.7850     2.3420 
  226.3750   214.4760   -21.9400   -55.0090   -11.1570    83.2240     1.8250     2.2850     2.6880     2.3330 
  226.5000   214.5870   -21.9620   -55.0620   -11.1350    82.0090     1.7980     2.2620     2.7470     2.3200 
  226.6250   214.6980   -21.9840   -55.1150   -11.1550    81.5540     1.8340     2.3170     2.8810     2.3070 
  226.7500   214.8090   -22.0060   -55.1680   -11.2300    82.7700     1.9300     2.4450     3.0310     2.2970 
  226.8750   214.9190   -22.0280   -55.2210   -11.2940    85.7270     2.0910     2.6350     3.2010     2.2970 
  227.0000   215.0300   -22.0500   -55.2750   -11.3520    89.3330     2.3050     2.8750     3.4210     2.3070 
  227.1250   215.1410   -22.0720   -55.3280   -11.4810    91.7730     2.6310     3.2520     3.6100     2.3190 
  227.2500   215.2520   -22.0940   -55.3820   -11.6600    91.6620     3.1100     3.8030     3.7260     2.3200 
  227.3750   215.3630   -22.1160   -55.4350   -11.8660    89.1470     3.6130     4.3870     4.3920     2.3060 
  227.5000   215.4740   -22.1380   -55.4890   -12.1050    86.3290     4.0880     4.9430     6.1640     2.2830 
  227.6250   215.5850   -22.1600   -55.5420   -12.3740    84.3810     4.4090     5.3000     8.0760     2.2600 
  227.7500   215.6950   -22.1820   -55.5960   -12.6910    82.7850     4.5420     5.4300     8.5310     2.2430 
  227.8750   215.8060   -22.2040   -55.6490   -13.0130    82.4690     4.5190     5.3510     7.7040     2.2380 
  228.0000   215.9170   -22.2260   -55.7030   -13.3320    83.5640     4.3940     5.1270     7.0970     2.2440 
  228.1250   216.0270   -22.2490   -55.7570   -13.5690    83.9380     4.2030     4.8160     6.9700     2.2530 
  228.2500   216.1380   -22.2710   -55.8100   -13.7080    82.3530     4.0470     4.5510     6.7510     2.2610 
  228.3750   216.2490   -22.2930   -55.8640   -13.8800    82.0340     4.0820     4.5370     6.4620     2.2710 
  228.5000   216.3600   -22.3150   -55.9180   -14.0650    83.7510     4.4960     5.0060     6.3200     2.2970 
  228.6250   216.4700   -22.3370   -55.9710   -14.3440    84.5280     5.3140     5.9870     6.4600     2.3540 
  228.7500   216.5810   -22.3600   -56.0250   -14.6990    82.0600     6.4530     7.3560     7.6770     2.4250 
  228.8750   216.6910   -22.3820   -56.0790   -15.1830    77.6850     7.6180     8.7320    11.3950     2.4660 
  229.0000   216.8020   -22.4040   -56.1330   -15.8140    73.6590     8.2700     9.3840    16.1700     2.4480 
  229.1250   216.9130   -22.4270   -56.1870   -16.6110    71.8320     8.2860     9.2320    18.1770     2.3890 
  229.2500   217.0230   -22.4490   -56.2400   -17.4990    72.1700     7.7230     8.3940    16.4620     2.3380 
  229.3750   217.1340   -22.4720   -56.2940   -18.3400    74.6710     6.9230     7.3550    12.9770     2.3140 
  229.5000   217.2440   -22.4950   -56.3480   -19.2080    77.1560     6.4560     6.8200    10.0300     2.3040 
  229.6250   217.3550   -22.5180   -56.4010   -20.1050    78.4790     6.4250     6.8190     8.5230     2.2960 
  229.7500   217.4650   -22.5410   -56.4550   -21.0500    79.2760     6.8900     7.4050     8.4380     2.2850 
  229.8750   217.5760   -22.5640   -56.5090   -22.0700    77.5330     7.7260     8.3760     9.8430     2.2670 
  230.0000   217.6860   -22.5870   -56.5620   -23.0770    73.2910     8.7400     9.4940    11.7020     2.2410 
  230.1250   217.7970   -22.6100   -56.6160   -23.9840    71.8270     9.7830    10.5590    12.7850     2.2160 
  230.2500   217.9070   -22.6340   -56.6700   -24.7250    74.2050    10.5600    11.2840    13.2640     2.2000 
  230.3750   218.0180   -22.6560   -56.7240   -25.3150    75.3540    11.0860    11.7200    13.8600     2.1920 
  230.5000   218.1280   -22.6790   -56.7770   -25.6480    73.0260    11.4330    12.0130    14.5740     2.1860 
  230.6250   218.2390   -22.7020   -56.8310   -25.7750    71.3760    11.6910    12.3170    15.0670     2.1820 
  230.7500   218.3490   -22.7250   -56.8850   -25.7970    70.3750    11.9090    12.6630    15.2190     2.1800 
  230.8750   218.4600   -22.7470   -56.9390   -25.7930    67.4670    12.0660    13.0300    14.9810     2.1800 
  231.0000   218.5700   -22.7700   -56.9930   -25.7830    63.9200    12.1060    13.2250    14.6890     2.1780 
  231.1250   218.6800   -22.7930   -57.0470   -25.7040    62.8150    11.9500    13.0670    14.5940     2.1740 
  231.2500   218.7910   -22.8150   -57.1010   -25.5430    63.7730    11.5910    12.6040    14.4330     2.1730 
  231.3750   218.9010   -22.8380   -57.1550   -25.3560    66.6210    11.1350    12.0000    13.9060     2.1810 
  231.5000   219.0120   -22.8600   -57.2090   -25.1320    68.8170    10.7030    11.4620    13.0480     2.1970 
  231.6250   219.1220   -22.8830   -57.2630   -24.9030    69.2530    10.3980    11.1220    12.1540     2.2130 
  231.7500   219.2330   -22.9060   -57.3170   -24.7220    70.5520    10.2480    10.9550    11.6200     2.2200 
  231.8750   219.3430   -22.9280   -57.3710   -24.5320    73.5610    10.1860    10.9190    11.5720     2.2140 
  232.0000   219.4530   -22.9510   -57.4260   -24.4000    74.8750    10.1570    10.9420    11.7220     2.2000 
  232.1250   219.5640   -22.9740   -57.4800   -24.4290    72.9030    10.0250    10.7880    11.8160     2.1870 
  232.2500   219.6740   -22.9960   -57.5340   -24.5690    70.4930     9.8090    10.4590    11.7770     2.1780 
  232.3750   219.7850   -23.0190   -57.5880   -24.7830    69.4900     9.5380    10.0460    11.5480     2.1760 
  232.5000   219.8950   -23.0420   -57.6420   -25.0140    69.1640     9.2660     9.6260    11.1040     2.1790 
  232.6250   220.0050   -23.0640   -57.6960   -25.2760    69.3930     9.0320     9.3010    10.5850     2.1790 
  232.7500   220.1160   -23.0870   -57.7500   -25.4980    69.8590     8.8130     9.0290    10.2260     2.1720 
  232.8750   220.2260   -23.1100   -57.8040   -25.7020    70.3330     8.6420     8.8280    10.0180     2.1640 
  233.0000   220.3370   -23.1330   -57.8580   -25.9090    70.4790     8.5510     8.7320     9.8750     2.1610 
  233.1250   220.4470   -23.1560   -57.9120   -26.0000    69.3320     8.5350     8.7320     9.8820     2.1630 
  233.2500   220.5570   -23.1780   -57.9660   -25.9900    69.0990     8.5630     8.7770     9.9540     2.1660 
  233.3750   220.6680   -23.2010   -58.0200   -25.9220    72.7410     8.5990     8.8210     9.9060     2.1710 
  233.5000   220.7780   -23.2240   -58.0740   -25.8680    76.2940     8.6320     8.8530     9.7840     2.1750 
  233.6250   220.8890   -23.2470   -58.1280   -25.8240    75.6170     8.6420     8.8460     9.7460     2.1770 
  233.7500   220.9990   -23.2700   -58.1820   -25.8310    72.5260     8.6220     8.8000     9.7770     2.1770 
  233.8750   221.1090   -23.2930   -58.2360   -25.8320    71.8480     8.5760     8.7450     9.7250     2.1760 
  234.0000   221.2200   -23.3150   -58.2900   -25.8440    71.7800     8.5350     8.7140     9.5670     2.1730 
  234.1250   221.3300   -23.3380   -58.3440   -25.9040    69.9910     8.4970     8.6800     9.4200     2.1660 
  234.2500   221.4410   -23.3600   -58.3980   -25.9630    67.2020     8.4980     8.6940     9.3620     2.1620 
  234.3750   221.5510   -23.3830   -58.4520   -25.9260    66.1860     8.5690     8.7760     9.4250     2.1650 
  234.5000   221.6610   -23.4060   -58.5060   -25.8310    67.4600     8.6450     8.8590     9.6210     2.1720 
  234.6250   221.7720   -23.4290   -58.5600   -25.6820    69.5150     8.6990     8.9240     9.8420     2.1760 
  234.7500   221.8820   -23.4520   -58.6140   -25.4680    70.7190     8.6620     8.8840     9.8870     2.1730 
