~V
VERS. 2.00: Ver 2.00
~W
STRT.M 40.0000:
STOP.M 259.0000:
STEP.M 0.1250:
NULL. -999.2500:
UWI. FD11192:
~C
DEPT.M :
TVD. :
DX. :
DY. :
SP.MV :
GR.API :
RI. :
RML.OHMM :
RXO.OHMM :
DEN.GM/CC :
~A
# ...
  222.5000   211.4770    36.9300    39.5560  -202.5740    60.1770     4.2370     4.6320     4.7730     2.3510 
  222.6250   211.5850    36.9720    39.6010  -202.5450    61.0590     4.4370     4.8670     4.5840     2.3530 
  222.7500   211.6940    37.0150    39.6450  -202.4550    59.0940     4.5500     4.9940     4.7430     2.3540 
  222.8750   211.8020    37.0580    39.6900  -202.1550    57.3050     4.5700     5.0100     5.0500     2.3450 
  223.0000   211.9110    37.1000    39.7350  -201.7910    57.1420     4.4820     4.9560     5.1110     2.3330 
  223.1250   212.0200    37.1430    39.7800  -201.4500    57.8140     4.2940     4.7250     4.9320     2.3250 
  223.2500   212.1280    37.1860    39.8250  -201.2010    58.5360     4.0550     4.4690     4.7390     2.3190 
  223.3750   212.2370    37.2290    39.8700  -201.0450    58.3890     3.8310     4.2210     4.5340     2.3070 
  223.5000   212.3450    37.2710    39.9150  -200.9500    57.4530     3.6420     4.0090     4.2230     2.2890 
  223.6250   212.4540    37.3140    39.9600  -200.8900    58.0680     3.5600     3.9500     3.9720     2.2750 
  223.7500   212.5620    37.3570    40.0050  -200.8990    63.0010     3.7050     4.2060     3.9040     2.2690 
  223.8750   212.6710    37.4000    40.0500  -201.0430    70.9410     4.0930     4.8060     3.9900     2.2710 
  224.0000   212.7790    37.4430    40.0950  -201.1230    81.4260     4.7540     5.7570     4.3650     2.2720 
  224.1250   212.8870    37.4850    40.1400  -201.1180    93.7530     5.4800     6.7680     5.2880     2.2770 
  224.2500   212.9960    37.5280    40.1860  -201.0750   104.2010     6.0890     7.5790     6.6620     2.2870 
  224.3750   213.1040    37.5710    40.2310  -201.0060   108.9340     6.3010     7.7820     7.7200     2.3000 
  224.5000   213.2120    37.6140    40.2760  -200.9330   109.4100     6.0950     7.4140     7.7140     2.3210 
  224.6250   213.3210    37.6570    40.3210  -200.8360   107.5180     5.6130     6.7010     6.9490     2.3460 
  224.7500   213.4290    37.7000    40.3670  -200.6750   105.9280     5.1160     6.0350     6.2890     2.3560 
  224.8750   213.5370    37.7430    40.4120  -200.5460   106.1400     4.8030     5.6870     5.9540     2.3400 
  225.0000   213.6450    37.7860    40.4570  -200.4310   109.7540     4.6850     5.6000     5.8120     2.3190 
  225.1250   213.7540    37.8290    40.5030  -200.4460   116.1290     4.6900     5.6580     5.7210     2.3120 
  225.2500   213.8620    37.8720    40.5480  -200.4920   121.2020     4.7420     5.7500     5.6360     2.3160 
  225.3750   213.9700    37.9150    40.5940  -200.5290   120.4620     4.7930     5.8140     5.6360     2.3250 
  225.5000   214.0780    37.9580    40.6390  -200.7020   115.3670     4.8220     5.8310     5.5480     2.3350 
  225.6250   214.1860    38.0020    40.6850  -201.0840   109.5000     4.8260     5.8190     5.4150     2.3420 
  225.7500   214.2940    38.0450    40.7300  -201.5190   106.4880     4.8220     5.7960     5.4480     2.3460 
  225.8750   214.4030    38.0880    40.7750  -201.9650   108.6090     4.8190     5.7790     5.5640     2.3440 
  226.0000   214.5110    38.1310    40.8210  -202.3570   112.6610     4.8130     5.7490     5.5710     2.3370 
  226.1250   214.6190    38.1740    40.8660  -202.7400   114.9860     4.8040     5.7080     5.3890     2.3350 
  226.2500   214.7270    38.2170    40.9120  -203.0830   116.4590     4.7960     5.6700     5.2250     2.3360 
  226.3750   214.8350    38.2600    40.9570  -203.3950   120.1380     4.8020     5.6480     5.2150     2.3360 
  226.5000   214.9440    38.3030    41.0030  -203.6730   123.5220     4.8410     5.6720     5.2610     2.3310 
  226.6250   215.0520    38.3460    41.0480  -203.7980   120.6470     4.9220     5.7600     5.2450     2.3270 
  226.7500   215.1600    38.3890    41.0940  -203.8010   113.3600     5.0130     5.8430     5.1280     2.3280 
  226.8750   215.2680    38.4320    41.1390  -203.7880   107.0780     5.0730     5.8920     5.2240     2.3350 
  227.0000   215.3770    38.4740    41.1850  -203.8120   105.3280     5.0860     5.8750     5.9640     2.3430 
  227.1250   215.4850    38.5170    41.2300  -203.7340   106.2280     5.0460     5.7870     6.9090     2.3380 
  227.2500   215.5930    38.5600    41.2760  -203.5840   107.4630     4.9870     5.6800     6.9440     2.3210 
  227.3750   215.7010    38.6030    41.3210  -203.4930   108.7920     4.9630     5.6170     6.0770     2.3090 
  227.5000   215.8100    38.6460    41.3660  -203.5100   110.7300     5.0010     5.6470     5.4940     2.3110 
  227.6250   215.9180    38.6890    41.4110  -203.6680   111.2610     5.1520     5.8000     5.5800     2.3190 
  227.7500   216.0270    38.7320    41.4570  -203.8520   111.4480     5.3910     6.0500     6.0180     2.3100 
  227.8750   216.1350    38.7740    41.5020  -203.9370   111.5600     5.7470     6.4660     6.6090     2.2860 
  228.0000   216.2430    38.8170    41.5470  -203.9640   111.1770     6.1840     7.2620     6.9070     2.2650 
  228.1250   216.3520    38.8600    41.5920  -204.0120   109.3840     6.6380     7.9510     7.1440     2.2650 
  228.2500   216.4600    38.9020    41.6380  -204.0590   108.7130     7.1260     8.4120     8.1150     2.2790 
  228.3750   216.5690    38.9450    41.6830  -204.0320   108.8920     7.5660     8.8110     9.5930     2.2870 
  228.5000   216.6770    38.9880    41.7280  -203.9240   109.0590     8.0030     9.1680     9.9980     2.2790 
  228.6250   216.7850    39.0300    41.7730  -203.8420   107.9230     8.3940     9.4720     9.2170     2.2580 
  228.7500   216.8940    39.0730    41.8190  -203.8420   106.7830     8.7470     9.6840     9.1980     2.2450 
  228.8750   217.0020    39.1160    41.8640  -203.9860   106.3750     8.8820     9.7000    10.1880     2.2480 
  229.0000   217.1110    39.1590    41.9090  -204.1470   107.6890     8.8270     9.5940    11.0540     2.2560 
  229.1250   217.2190    39.2020    41.9540  -204.2490   109.6270     8.6850     9.2950    11.1790     2.2630 
  229.2500   217.3280    39.2450    41.9980  -204.3980   109.5390     8.5530     9.1040    10.2890     2.2650 
  229.3750   217.4360    39.2880    42.0430  -204.6200   106.6230     8.6250     9.1770     9.0490     2.2640 
  229.5000   217.5450    39.3300    42.0890  -204.9340   103.1700     8.9680     9.5690     9.1600     2.2630 
  229.6250   217.6530    39.3720    42.1340  -205.2870   100.8110     9.5670    10.2240    11.4190     2.2610 
  229.7500   217.7620    39.4150    42.1800  -205.6560    98.6890    10.4450    11.1110    13.4910     2.2590 
  229.8750   217.8700    39.4570    42.2250  -205.9850    96.2350    11.7950    12.4880    13.5200     2.2610 
  230.0000   217.9790    39.4990    42.2700  -206.3990    95.5050    13.9780    14.6450    14.0270     2.2690 
  230.1250   218.0870    39.5420    42.3160  -206.9060    96.2290    17.4930    18.1210    18.3570     2.2810 
  230.2500   218.1960    39.5840    42.3610  -207.3380    94.8670    23.2250    24.1800    24.4400     2.2850 
  230.3750   218.3040    39.6270    42.4060  -207.6470    87.3360    31.2020    32.8130    28.8100     2.2650 
  230.5000   218.4130    39.6690    42.4520  -207.8640    77.3550    40.2240    42.6880    37.4570     2.2320 
  230.6250   218.5210    39.7120    42.4970  -208.1180    70.1010    48.8990    51.9230    52.0360     2.2080 
  230.7500   218.6300    39.7540    42.5420  -208.4470    64.9020    55.9530    59.1160    57.8490     2.2040 
  230.8750   218.7380    39.7960    42.5870  -208.7110    60.5300    62.7550    65.9010    56.2740     2.2050 
  231.0000   218.8470    39.8390    42.6320  -208.9390    57.6140    71.8930    75.5400    66.5840     2.1910 
  231.1250   218.9550    39.8810    42.6780  -209.0930    56.6780    84.4800    89.1460    85.5650     2.1690 
  231.2500   219.0640    39.9230    42.7230  -209.2570    56.4600    97.8340   103.4020    96.4730     2.1570 
  231.3750   219.1730    39.9650    42.7690  -209.5100    54.6680   108.0240   114.0700   100.0880     2.1620 
  231.5000   219.2810    40.0080    42.8140  -209.8570    53.4930   113.6790   119.4740   102.7310     2.1740 
