~V
VERS. 2.00: Ver 2.00
~W
STRT.M 50.0000:
STOP.M 286.0000:
STEP.M 0.1250:
NULL. -999.2500:
UWI. FD11181:
~C
DEPT.M :
TVD. :
DX. :
DY. :
SP.MV :
GR.API :
RI. :
RML.OHMM :
RXO.OHMM :
DEN.GM/CC :
~A
# ...
  159.5000   157.8340   -15.1010     2.2610   -14.1680    47.2860     8.1830     8.8990    14.2440     2.4230 
  159.6250   157.9520   -15.1430     2.2630   -14.2610    48.8060     6.8810     7.3550     9.6110     2.3630 
  159.7500   158.0690   -15.1850     2.2640   -14.4380    54.6270     5.6430     5.9450     5.4560     2.3040 
  159.8750   158.1870   -15.2270     2.2660   -14.6510    61.6700     4.8180     5.1180     4.4680     2.2620 
  160.0000   158.3050   -15.2700     2.2680   -14.8680    66.8370     4.5160     4.8490     4.5690     2.2360 
  160.1250   158.4220   -15.3120     2.2690   -15.1490    69.9950     4.5710     4.9260     4.6100     2.2200 
  160.2500   158.5400   -15.3540     2.2710   -15.5380    72.2260     4.6700     5.0420     4.5290     2.2120 
  160.3750   158.6580   -15.3970     2.2730   -15.8620    73.6990     4.6860     5.0620     4.5910     2.2150 
  160.5000   158.7750   -15.4390     2.2740   -16.0800    72.3790     4.6310     5.0190     4.7630     2.2310 
  160.6250   158.8930   -15.4820     2.2760   -16.3010    70.0350     4.5950     5.0050     4.6410     2.2530 
  160.7500   159.0100   -15.5250     2.2770   -16.5470    70.1380     4.6170     5.0530     4.4590     2.2650 
  160.8750   159.1280   -15.5670     2.2790   -16.9290    73.4180     4.7170     5.1760     4.6020     2.2700 
  161.0000   159.2450   -15.6100     2.2800   -17.2920    74.0530     4.9140     5.4110     5.0710     2.2850 
  161.1250   159.3620   -15.6530     2.2820   -17.5250    69.8950     5.3320     5.9520     6.3350     2.3230 
  161.2500   159.4800   -15.6960     2.2830   -17.7520    65.7420     6.1930     6.9270     7.5820     2.3710 
  161.3750   159.5970   -15.7390     2.2850   -17.9700    62.2080     7.2260     8.1700     8.7340     2.4230 
  161.5000   159.7140   -15.7820     2.2860   -18.1440    59.3890     8.2210     9.3060    13.3250     2.4780 
  161.6250   159.8320   -15.8260     2.2880   -18.2440    56.4040     8.6620     9.7220    17.8630     2.5160 
  161.7500   159.9490   -15.8690     2.2890   -18.3640    55.3660     8.2880     9.2750    16.0110     2.5090 
  161.8750   160.0660   -15.9120     2.2900   -18.5650    57.2500     7.5880     8.3770    11.6200     2.4490 
  162.0000   160.1830   -15.9560     2.2920   -18.7870    60.7780     6.8860     7.6030     8.7000     2.3620 
  162.1250   160.3000   -16.0000     2.2930   -18.9860    65.0820     6.7550     7.4900     6.8350     2.2760 
  162.2500   160.4170   -16.0430     2.2950   -19.1250    68.9380     7.1670     7.9960     7.0910     2.2040 
  162.3750   160.5350   -16.0870     2.2970   -19.1000    70.4030     7.7830     8.6360    10.1320     2.1630 
  162.5000   160.6520   -16.1310     2.2980   -19.0490    69.0990     8.1220     8.8370    12.2740     2.1630 
  162.6250   160.7690   -16.1750     2.3000   -18.9820    65.1300     7.7550     8.2530    10.6360     2.1930 
  162.7500   160.8860   -16.2190     2.3010   -18.8340    61.1510     6.8450     7.1450     7.7180     2.2210 
  162.8750   161.0030   -16.2630     2.3030   -18.5510    59.9950     5.8110     5.9990     5.8760     2.2330 
  163.0000   161.1190   -16.3070     2.3050   -18.1110    62.9310     5.0510     5.2460     5.1650     2.2400 
  163.1250   161.2360   -16.3510     2.3060   -17.6360    67.7510     4.8360     5.0440     4.9240     2.2480 
  163.2500   161.3530   -16.3950     2.3080   -17.2490    71.7340     4.9040     5.1570     4.7030     2.2450 
  163.3750   161.4700   -16.4400     2.3100   -17.0260    75.3900     5.0520     5.3570     4.7490     2.2290 
  163.5000   161.5870   -16.4840     2.3120   -16.9560    77.2500     5.1190     5.4740     4.9420     2.2140 
  163.6250   161.7040   -16.5290     2.3140   -16.9800    73.5390     5.0360     5.4050     4.9310     2.2160 
  163.7500   161.8210   -16.5730     2.3170   -17.0440    69.4890     4.7620     5.1270     4.8560     2.2290 
  163.8750   161.9370   -16.6180     2.3190   -17.0670    70.6790     4.3780     4.7240     4.7780     2.2450 
  164.0000   162.0540   -16.6620     2.3210   -17.0430    73.1740     4.1000     4.4320     4.4650     2.2600 
  164.1250   162.1710   -16.7070     2.3240   -16.9170    73.8460     4.1680     4.5490     4.0570     2.2800 
  164.2500   162.2870   -16.7520     2.3260   -16.7160    74.8040     4.8200     5.4400     3.9760     2.3140 
  164.3750   162.4040   -16.7970     2.3290   -16.4920    76.3090     6.5510     7.6010     7.2160     2.3770 
  164.5000   162.5210   -16.8420     2.3310   -16.2400    74.3800     9.3680    11.0940    14.3590     2.4590 
  164.6250   162.6370   -16.8860     2.3330   -16.0350    67.1540    13.4100    15.5580    20.9530     2.5280 
  164.7500   162.7540   -16.9310     2.3360   -15.8390    57.9020    17.1170    19.5810    24.3830     2.5630 
  164.8750   162.8710   -16.9770     2.3380   -15.5340    50.2470    19.3380    21.8280    23.2740     2.5700 
  165.0000   162.9870   -17.0220     2.3400   -15.1670    47.8300    19.6770    21.9640    20.6160     2.5660 
  165.1250   163.1040   -17.0670     2.3420   -14.7920    48.0990    18.2250    20.4230    20.1030     2.5630 
  165.2500   163.2200   -17.1120     2.3450   -14.4540    46.3400    16.5520    18.5340    19.6600     2.5580 
  165.3750   163.3370   -17.1570     2.3470   -14.1140    44.0600    15.0470    16.9060    16.9350     2.5440 
  165.5000   163.4530   -17.2030     2.3500   -13.7480    44.0130    13.8630    15.6630    13.3640     2.5220 
  165.6250   163.5690   -17.2480     2.3520   -13.4490    45.8350    13.0540    14.8820    12.6550     2.5040 
  165.7500   163.6860   -17.2940     2.3550   -13.1800    48.1640    12.6340    14.5650    13.9460     2.4950 
  165.8750   163.8020   -17.3390     2.3570   -13.0290    49.7910    12.7300    14.8160    13.8620     2.4900 
  166.0000   163.9190   -17.3850     2.3600   -12.9280    50.1730    13.2680    15.5460    14.1790     2.4900 
  166.1250   164.0350   -17.4300     2.3620   -12.7110    50.0890    14.0950    16.5240    16.7910     2.4960 
  166.2500   164.1510   -17.4760     2.3650   -12.2730    50.4800    14.7070    17.1680    19.1110     2.5010 
  166.3750   164.2680   -17.5220     2.3670   -11.7440    49.3380    14.6460    17.0410    19.0220     2.4990 
  166.5000   164.3840   -17.5680     2.3690   -11.2310    46.0360    14.1330    16.2830    16.9010     2.4900 
  166.6250   164.5000   -17.6140     2.3720   -10.8000    44.2560    13.2410    15.1810    13.9330     2.4740 
  166.7500   164.6160   -17.6590     2.3740   -10.4430    45.2640    12.4800    14.2490    10.9590     2.4590 
  166.8750   164.7330   -17.7050     2.3770   -10.2210    47.2930    12.0160    13.7540    10.6120     2.4620 
  167.0000   164.8490   -17.7510     2.3790   -10.1710    49.0340    11.8090    13.5400    13.1450     2.4880 
  167.1250   164.9650   -17.7970     2.3820   -10.2740    47.7930    11.6590    13.3940    13.5520     2.5170 
  167.2500   165.0810   -17.8440     2.3850   -10.4820    43.9710    11.4750    13.1600    11.2430     2.5240 
  167.3750   165.1970   -17.8900     2.3870   -10.6490    40.5240    11.2010    12.8240     9.8940     2.5030 
  167.5000   165.3130   -17.9360     2.3890   -10.7290    40.7010    10.9570    12.5800     9.8280     2.4760 
  167.6250   165.4300   -17.9820     2.3920   -10.7370    43.3630    11.0300    12.7140    10.0400     2.4650 
  167.7500   165.5460   -18.0280     2.3940   -10.7240    45.4840    11.4610    13.2430    10.9170     2.4720 
  167.8750   165.6620   -18.0750     2.3970   -10.7140    45.1170    12.0890    13.9260    11.8140     2.4870 
  168.0000   165.7780   -18.1210     2.3990   -10.7030    43.8040    12.5400    14.3820    12.1030     2.5030 
  168.1250   165.8940   -18.1670     2.4010   -10.7330    43.5390    12.5990    14.3630    12.2610     2.5100 
  168.2500   166.0100   -18.2140     2.4040   -10.8480    44.5820    12.2830    13.9060    12.3360     2.5070 
  168.3750   166.1260   -18.2600     2.4070   -10.9910    47.1620    11.6660    13.1700    12.8220     2.4950 
  168.5000   166.2420   -18.3070     2.4090   -11.1320    50.9660    11.0020    12.4360    13.1920     2.4780 
