~V
VERS. 2.00: Ver 2.00
~W
STRT.M 15.0000:
STOP.M 219.0000:
STEP.M 0.1250:
NULL. -999.2500:
UWI. FD11101:
~C
DEPT.M :
TVD. :
DX. :
DY. :
GR.API :
RML.OHMM :
RI. :
RXO.OHMM :
CALI.CM :
SP.MV :
DEN.GM/CC :
~A
# ...
  147.0000   141.5100     5.6560    29.0690    74.5530    15.6430    14.2280     8.7740    20.5470   -30.0950     2.4940 
  147.1250   141.6190     5.6650    29.1290    74.1150    15.6760    14.1500     8.9320    20.6590   -30.2130     2.5100 
  147.2500   141.7280     5.6740    29.1890    70.9270    15.8240    14.1920     9.1320    20.7200   -30.3700     2.5240 
  147.3750   141.8380     5.6830    29.2490    67.4930    15.9890    14.3000     9.2810    20.7490   -30.5550     2.5320 
  147.5000   141.9470     5.6920    29.3100    65.8580    16.1080    14.4070     9.3430    20.7560   -30.7310     2.5330 
  147.6250   142.0560     5.7010    29.3700    66.3850    16.1570    14.4560     9.5480    20.7670   -30.8970     2.5300 
  147.7500   142.1650     5.7100    29.4300    67.3240    16.1550    14.4530    10.0780    20.7910   -31.0180     2.5300 
  147.8750   142.2740     5.7190    29.4900    67.5580    16.1250    14.4250    10.4140    20.8140   -31.1160     2.5350 
  148.0000   142.3830     5.7280    29.5500    67.3950    16.1070    14.4080    10.0430    20.8240   -31.2560     2.5430 
  148.1250   142.4930     5.7370    29.6100    66.7930    16.1690    14.4660     9.2060    20.8380   -31.4170     2.5480 
  148.2500   142.6020     5.7460    29.6710    66.0450    16.3600    14.6430     8.5450    20.9160   -31.5500     2.5480 
  148.3750   142.7110     5.7550    29.7310    65.1030    16.7170    14.9740     8.1930    21.0890   -31.6780     2.5440 
  148.5000   142.8200     5.7650    29.7910    65.1140    17.2300    15.4520     8.0260    21.1820   -31.8550     2.5400 
  148.6250   142.9290     5.7740    29.8510    67.2170    17.8050    15.9850     8.4910    21.1270   -32.1040     2.5430 
  148.7500   143.0390     5.7830    29.9110    68.5640    18.2600    16.4070     9.4190    21.0040   -32.3950     2.5520 
  148.8750   143.1480     5.7920    29.9710    67.0400    18.4540    16.5870     9.8410    20.9660   -32.7240     2.5650 
  149.0000   143.2570     5.8010    30.0310    62.7690    18.3180    16.4610     9.5600    20.9850   -33.1010     2.5770 
  149.1250   143.3660     5.8100    30.0920    57.4560    17.8160    15.9950     9.2540    21.0050   -33.5010     2.5820 
  149.2500   143.4750     5.8190    30.1520    54.9420    17.0810    15.3130     8.9190    20.9790   -33.8940     2.5800 
  149.3750   143.5850     5.8280    30.2120    55.4620    16.2140    14.5080     8.9340    20.8640   -34.2880     2.5730 
  149.5000   143.6940     5.8370    30.2720    56.5570    15.3270    13.6840     9.1560    20.6370   -34.6700     2.5630 
  149.6250   143.8030     5.8460    30.3320    56.2730    14.5620    12.9740     9.7220    20.3510   -34.9890     2.5560 
  149.7500   143.9120     5.8550    30.3920    56.2340    14.0010    12.4530     9.9590    20.1510   -35.2190     2.5500 
  149.8750   144.0210     5.8640    30.4530    57.7710    13.6870    12.1620     9.8910    20.1040   -35.3310     2.5470 
  150.0000   144.1310     5.8730    30.5130    59.2030    13.6160    12.0950     9.8760    20.1760   -35.2690     2.5470 
  150.1250   144.2400     5.8820    30.5730    58.8030    13.7630    12.2330     9.7670    20.2550   -34.9420     2.5520 
  150.2500   144.3490     5.8910    30.6330    58.8250    14.0180    12.4730     9.6480    20.3330   -34.2740     2.5590 
  150.3750   144.4580     5.9010    30.6930    59.2740    14.3030    12.7460     9.9150    20.4320   -33.1160     2.5650 
  150.5000   144.5670     5.9100    30.7530    59.8090    14.5540    12.9900    10.4590    20.5340   -31.4360     2.5630 
  150.6250   144.6770     5.9190    30.8140    60.1170    14.7320    13.1590    10.4040    20.6110   -29.4210     2.5480 
  150.7500   144.7860     5.9280    30.8740    61.5880    14.8620    13.2640     9.9560    20.7160   -27.3960     2.5270 
  150.8750   144.8950     5.9370    30.9340    63.6330    14.9640    13.3260     9.6370    20.8990   -25.4310     2.5090 
  151.0000   145.0040     5.9460    30.9940    63.8040    15.0390    13.3590     9.5950    21.0550   -23.6000     2.5020 
  151.1250   145.1130     5.9550    31.0540    60.8180    15.0560    13.3570    10.0300    21.1290   -22.0210     2.5100 
  151.2500   145.2230     5.9640    31.1140    57.2680    15.0090    13.3140    10.2060    21.1640   -20.7890     2.5260 
  151.3750   145.3320     5.9730    31.1750    55.9660    14.9180    13.2320    10.0770    21.1710   -20.0710     2.5430 
  151.5000   145.4410     5.9820    31.2350    57.0050    14.8410    13.1430     9.8770    21.1830   -19.9080     2.5590 
  151.6250   145.5500     5.9910    31.2950    58.1590    14.8740    13.1140     9.8170    21.2470   -20.1030     2.5710 
  151.7500   145.6590     6.0000    31.3550    59.3700    15.0580    13.1920     9.9760    21.3920   -20.3440     2.5780 
  151.8750   145.7690     6.0090    31.4150    61.0260    15.4040    13.4020    10.1700    21.4880   -20.6540     2.5780 
  152.0000   145.8780     6.0180    31.4750    63.1130    15.8920    13.7450    10.3910    21.5180   -20.9950     2.5680 
  152.1250   145.9870     6.0270    31.5350    65.6240    16.4890    14.2080    10.8280    21.5220   -21.3120     2.5510 
  152.2500   146.0960     6.0370    31.5960    68.0700    17.1130    14.7230    10.8100    21.5250   -21.6300     2.5310 
  152.3750   146.2050     6.0460    31.6560    70.0190    17.7000    15.2340    10.4740    21.4900   -21.9520     2.5110 
  152.5000   146.3140     6.0550    31.7160    69.4970    18.1930    15.6870    10.3810    21.4080   -22.2890     2.4920 
  152.6250   146.4240     6.0640    31.7760    66.1330    18.5350    16.0270    10.5230    21.3480   -22.6500     2.4750 
  152.7500   146.5330     6.0730    31.8360    65.6570    18.7490    16.2580    10.5200    21.3650   -23.0250     2.4630 
  152.8750   146.6420     6.0820    31.8960    70.1190    18.8670    16.3920    10.5260    21.2950   -23.3590     2.4610 
  153.0000   146.7510     6.0910    31.9570    74.9840    18.9370    16.4610    10.8390    21.1830   -23.6080     2.4700 
  153.1250   146.8600     6.1000    32.0170    75.2800    19.0380    16.5230    11.0370    21.0880   -23.7500     2.4870 
  153.2500   146.9700     6.1090    32.0770    72.6540    19.2270    16.6520    10.9990    21.0030   -23.7340     2.5020 
  153.3750   147.0790     6.1180    32.1380    70.0810    19.5070    16.8770    10.7460    20.9010   -23.5160     2.5100 
  153.5000   147.1870     6.1280    32.1990    68.2130    19.8090    17.1610    11.1300    20.8380   -23.1330     2.5120 
  153.6250   147.2960     6.1380    32.2600    67.4580    19.9360    17.3550    11.5700    20.8280   -22.6750     2.5140 
  153.7500   147.4050     6.1470    32.3210    67.7960    19.7310    17.2950    12.1580    20.8670   -22.1780     2.5190 
  153.8750   147.5130     6.1570    32.3820    67.6830    19.1260    16.8830    12.5900    20.9540   -21.6440     2.5280 
  154.0000   147.6220     6.1660    32.4430    67.2360    18.1920    16.1400    12.4040    21.0170   -21.1680     2.5350 
  154.1250   147.7310     6.1760    32.5040    68.0950    17.1430    15.2110    11.6130    21.0340   -20.7580     2.5380 
  154.2500   147.8390     6.1860    32.5650    69.2120    16.2550    14.3480    10.6630    21.0210   -20.4630     2.5390 
  154.3750   147.9480     6.1950    32.6260    68.9300    15.6740    13.7050    10.0140    20.9750   -20.3660     2.5400 
  154.5000   148.0570     6.2050    32.6870    67.1730    15.4380    13.3510     9.8540    20.8820   -20.3870     2.5400 
  154.6250   148.1650     6.2150    32.7480    66.1790    15.5190    13.3110    10.1580    20.8740   -20.3910     2.5380 
  154.7500   148.2740     6.2240    32.8090    66.3280    15.7480    13.4550    10.8940    20.9610   -20.3690     2.5350 
  154.8750   148.3830     6.2340    32.8700    65.8720    16.0190    13.6890    11.4380    21.0910   -20.3800     2.5320 
  155.0000   148.4910     6.2430    32.9310    65.3450    16.2450    13.9250    11.2650    21.1700   -20.3640     2.5310 
  155.1250   148.6000     6.2530    32.9920    64.5430    16.3340    14.0710    11.4640    21.2100   -20.3100     2.5360 
