~V
VERS. 2.00: Ver 2.00
~W
STRT.M 25.0000:
STOP.M 287.0000:
STEP.M 0.1250:
NULL. -999.2500:
UWI. FD11174:
~C
DEPT.M :
TVD. :
DX. :
DY. :
SP.MV :
GR.API :
RI. :
RML.OHMM :
RXO.OHMM :
DEN.GM/CC :
~A
# ...
  161.8750   156.7890   -11.7730   -28.0150   -23.8970    70.0580     9.6000    11.1270    13.4340     2.4730 
  162.0000   156.9020   -11.7920   -28.0650   -24.0220    65.5800    10.7260    12.6500    12.4700     2.4640 
  162.1250   157.0150   -11.8110   -28.1160   -24.1060    62.1910    11.8980    14.1720    12.4120     2.4770 
  162.2500   157.1280   -11.8290   -28.1660   -24.1390    59.8980    12.3200    14.6030    10.5430     2.4820 
  162.3750   157.2410   -11.8480   -28.2170   -24.1000    58.1610    11.7120    13.6900     9.2460     2.4660 
  162.5000   157.3530   -11.8670   -28.2670   -24.0760    56.9410    10.4310    11.9430     9.6220     2.4440 
  162.6250   157.4660   -11.8860   -28.3180   -24.0750    55.8450     8.9050     9.9490    10.1940     2.4120 
  162.7500   157.5790   -11.9050   -28.3680   -24.0300    55.0110     7.9950     8.8620     9.3300     2.3670 
  162.8750   157.6920   -11.9240   -28.4190   -23.9170    56.4740     7.9260     8.9210     8.0040     2.3360 
  163.0000   157.8050   -11.9420   -28.4690   -23.8140    59.5100     8.5130     9.8120     8.7620     2.3480 
  163.1250   157.9170   -11.9610   -28.5200   -23.7980    59.3330     9.1670    10.6970    10.9940     2.3950 
  163.2500   158.0300   -11.9800   -28.5700   -23.8360    57.1950     9.1940    10.6900    13.3830     2.4310 
  163.3750   158.1430   -11.9990   -28.6210   -23.8930    59.0740     8.3320     9.5120    14.8630     2.4180 
  163.5000   158.2560   -12.0170   -28.6720   -23.8780    65.3450     6.9290     7.6760    15.0020     2.3630 
  163.6250   158.3680   -12.0360   -28.7220   -23.8330    71.6740     5.5380     5.9980    10.6130     2.3000 
  163.7500   158.4810   -12.0540   -28.7730   -23.7920    77.0480     4.6850     5.0440     8.7440     2.2550 
  163.8750   158.5940   -12.0730   -28.8240   -23.8110    84.2560     4.2500     4.6070     7.9340     2.2250 
  164.0000   158.7060   -12.0910   -28.8750   -23.8580    90.5070     4.0980     4.4800     6.6940     2.2050 
  164.1250   158.8190   -12.1100   -28.9250   -23.9450    91.3350     4.2250     4.6470     6.2970     2.2080 
  164.2500   158.9320   -12.1290   -28.9760   -24.0190    88.5110     4.4900     4.9530     6.8790     2.2400 
  164.3750   159.0450   -12.1470   -29.0270   -24.1310    85.7470     4.8170     5.3390     7.4380     2.2910 
  164.5000   159.1570   -12.1660   -29.0780   -24.1760    84.9630     5.1110     5.6950     8.0420     2.3330 
  164.6250   159.2700   -12.1850   -29.1280   -24.1730    85.5420     5.1830     5.7780     7.3910     2.3330 
  164.7500   159.3820   -12.2050   -29.1790   -24.0690    85.4680     5.0650     5.6290     5.7620     2.2930 
  164.8750   159.4950   -12.2240   -29.2300   -23.9160    84.9660     4.7920     5.2960     4.2560     2.2410 
  165.0000   159.6080   -12.2430   -29.2800   -23.8100    84.9530     4.5040     4.9540     3.6910     2.2080 
  165.1250   159.7200   -12.2630   -29.3310   -23.7530    87.1770     4.3570     4.7970     3.3750     2.2050 
  165.2500   159.8330   -12.2820   -29.3820   -23.5980    90.1400     4.4520     4.9390     3.0860     2.2180 
  165.3750   159.9460   -12.3010   -29.4320   -23.3410    91.5500     4.9610     5.6040     2.9530     2.2380 
  165.5000   160.0580   -12.3200   -29.4830   -23.1070    90.8570     5.8920     6.8110     3.1800     2.2710 
  165.6250   160.1710   -12.3390   -29.5340   -22.9790    87.7420     7.0880     8.3170     3.6190     2.3330 
  165.7500   160.2840   -12.3580   -29.5850   -22.9700    82.2950     8.0350     9.4700     5.1970     2.4230 
  165.8750   160.3960   -12.3780   -29.6350   -22.9940    74.6190     8.2860     9.6740     8.6530     2.4940 
  166.0000   160.5090   -12.3970   -29.6860   -22.9480    69.9630     7.6450     8.7300    11.7490     2.4910 
  166.1250   160.6210   -12.4160   -29.7370   -22.8210    74.2000     6.4360     7.1330    10.7420     2.4080 
  166.2500   160.7340   -12.4360   -29.7870   -22.6540    84.1050     5.1090     5.4810     6.5560     2.3140 
  166.3750   160.8470   -12.4550   -29.8380   -22.3820    93.9550     4.1290     4.3530     3.9620     2.2710 
  166.5000   160.9590   -12.4750   -29.8880   -22.1300   101.8570     3.6460     3.8680     3.7580     2.2720 
  166.6250   161.0720   -12.4940   -29.9390   -21.9630   106.8480     3.6020     3.8690     4.0130     2.2860 
  166.7500   161.1850   -12.5140   -29.9890   -21.8950   109.2080     3.8110     4.1260     3.9130     2.2960 
  166.8750   161.2970   -12.5340   -30.0400   -21.9440   108.4440     4.0850     4.4290     3.5970     2.3010 
  167.0000   161.4100   -12.5540   -30.0900   -22.1160   107.4700     4.3500     4.7110     3.5780     2.2980 
  167.1250   161.5230   -12.5730   -30.1410   -22.3950   105.1140     4.5320     4.8970     3.8510     2.2840 
  167.2500   161.6350   -12.5920   -30.1920   -22.5960   102.1850     4.6170     4.9770     4.3560     2.2650 
  167.3750   161.7480   -12.6110   -30.2420   -22.6240   100.2860     4.5940     4.9580     4.6980     2.2540 
  167.5000   161.8600   -12.6300   -30.2930   -22.5600    99.5120     4.5080     4.8720     4.6020     2.2560 
  167.6250   161.9730   -12.6490   -30.3440   -22.4930    99.2980     4.3730     4.7260     4.3260     2.2670 
  167.7500   162.0860   -12.6680   -30.3950   -22.4190    99.4080     4.2960     4.6480     4.1510     2.2760 
  167.8750   162.1980   -12.6870   -30.4460   -22.2400    97.7170     4.4370     4.8410     3.9480     2.2860 
  168.0000   162.3110   -12.7050   -30.4970   -22.0580    93.2670     4.9110     5.4550     4.6790     2.3080 
  168.1250   162.4240   -12.7240   -30.5480   -21.9080    88.0420     5.9540     6.7890    12.6900     2.3560 
  168.2500   162.5360   -12.7420   -30.5990   -21.8050    83.1040     7.6120     8.9140    38.0880     2.4220 
  168.3750   162.6490   -12.7610   -30.6500   -21.7710    77.8080    10.3540    12.3570    77.3210     2.4860 
  168.5000   162.7610   -12.7790   -30.7010   -21.6850    73.1750    13.5580    16.3070    93.5320     2.5340 
  168.6250   162.8740   -12.7980   -30.7520   -21.4910    70.6440    16.3450    19.6150    73.9610     2.5600 
  168.7500   162.9860   -12.8170   -30.8030   -21.2790    70.0670    18.0060    21.4140    41.4520     2.5640 
  168.8750   163.0990   -12.8360   -30.8540   -21.0920    68.4170    18.0850    21.2860    18.2980     2.5520 
  169.0000   163.2110   -12.8550   -30.9050   -20.8670    64.9760    17.5240    20.4570    15.0260     2.5360 
  169.1250   163.3240   -12.8740   -30.9560   -20.6360    61.0080    16.9140    19.7140    16.9980     2.5290 
  169.2500   163.4370   -12.8920   -31.0070   -20.3710    58.4870    16.5660    19.3770    22.3850     2.5320 
  169.3750   163.5490   -12.9110   -31.0580   -20.1220    58.6470    16.3860    19.2450    29.4260     2.5400 
  169.5000   163.6620   -12.9300   -31.1090   -19.9350    59.6450    16.1890    19.0430    34.1250     2.5450 
  169.6250   163.7740   -12.9490   -31.1610   -19.8060    60.7600    15.8670    18.6370    35.2230     2.5400 
  169.7500   163.8860   -12.9670   -31.2120   -19.6510    62.0680    15.3640    18.0050    31.2120     2.5310 
  169.8750   163.9990   -12.9850   -31.2630   -19.3930    63.7200    14.6930    17.1520    22.5480     2.5260 
  170.0000   164.1110   -13.0040   -31.3150   -19.0900    65.1200    13.8960    16.1810    17.4250     2.5210 
  170.1250   164.2240   -13.0220   -31.3660   -18.7770    63.9670    12.9600    15.0480    16.3500     2.5130 
  170.2500   164.3360   -13.0400   -31.4170   -18.5250    62.6530    11.9610    13.8440    15.4590     2.5000 
  170.3750   164.4490   -13.0590   -31.4690   -18.2820    63.9340    11.0140    12.7380    15.4300     2.4830 
  170.5000   164.5610   -13.0780   -31.5200   -18.1400    67.7540    10.2730    11.8900    15.0920     2.4650 
  170.6250   164.6740   -13.0970   -31.5710   -18.0900    71.0730     9.8930    11.4730    13.4310     2.4550 
  170.7500   164.7860   -13.1160   -31.6230   -18.1450    71.7120     9.8110    11.4120    12.2390     2.4620 
  170.8750   164.8980   -13.1350   -31.6740   -18.3680    68.5770    10.0920    11.7900    12.7130     2.4800 
