~V
VERS. 2.00: Ver 2.00
~W
STRT.M 40.0000:
STOP.M 259.0000:
STEP.M 0.1250:
NULL. -999.2500:
UWI. FD11192:
~C
DEPT.M :
TVD. :
DX. :
DY. :
SP.MV :
GR.API :
RI. :
RML.OHMM :
RXO.OHMM :
DEN.GM/CC :
~A
# ...
  122.1250   120.5470     8.8860     8.0900  -215.4610    70.7110     6.5700     7.6820     7.3780     2.1620 
  122.2500   120.6630     8.9150     8.1260  -215.1880    70.9170     6.7870     7.9660     7.4870     2.1550 
  122.3750   120.7790     8.9440     8.1610  -214.7750    68.3880     6.9820     8.1910     7.4860     2.1400 
  122.5000   120.8950     8.9740     8.1970  -214.3110    64.0600     7.1140     8.3100     7.4390     2.1260 
  122.6250   121.0120     9.0030     8.2320  -213.8510    63.1880     7.1800     8.3180     7.3800     2.1200 
  122.7500   121.1280     9.0320     8.2680  -213.4680    64.9040     7.2460     8.3230     7.3890     2.1200 
  122.8750   121.2440     9.0610     8.3040  -213.1480    64.5300     7.3840     8.4360     7.3390     2.1210 
  123.0000   121.3600     9.0900     8.3390  -212.9090    61.1670     7.6510     8.7460     7.2760     2.1250 
  123.1250   121.4760     9.1190     8.3750  -212.7540    58.8940     7.9900     9.1740     7.7070     2.1300 
  123.2500   121.5930     9.1490     8.4110  -212.6730    60.5400     8.2570     9.4940     8.7980     2.1350 
  123.3750   121.7090     9.1780     8.4470  -212.6020    62.1220     8.1740     9.3550     9.9180     2.1340 
  123.5000   121.8250     9.2070     8.4830  -212.6030    61.5980     7.6170     8.6260     9.8730     2.1290 
  123.6250   121.9410     9.2360     8.5180  -212.6290    62.8170     6.7180     7.5130     8.5810     2.1300 
  123.7500   122.0570     9.2650     8.5540  -212.6860    67.9940     5.7370     6.3400     7.3170     2.1510 
  123.8750   122.1740     9.2940     8.5900  -212.8010    74.0250     4.9070     5.3830     6.4820     2.1960 
  124.0000   122.2900     9.3230     8.6260  -212.9140    78.0860     4.3830     4.8070     5.9630     2.2380 
  124.1250   122.4060     9.3510     8.6620  -213.0360    81.4380     4.1280     4.5500     5.7500     2.2530 
  124.2500   122.5220     9.3800     8.6980  -213.2270    84.6340     4.1760     4.6520     5.6690     2.2460 
  124.3750   122.6380     9.4090     8.7340  -213.4800    84.4870     4.4360     4.9870     5.7750     2.2320 
  124.5000   122.7550     9.4380     8.7690  -213.8350    81.9920     4.7680     5.3670     6.0600     2.2140 
  124.6250   122.8710     9.4670     8.8050  -214.3220    79.5950     4.9970     5.5820     6.4360     2.1900 
  124.7500   122.9870     9.4960     8.8410  -214.8840    79.1130     5.0870     5.6220     6.7280     2.1730 
  124.8750   123.1030     9.5240     8.8770  -215.1780    79.9560     5.0820     5.5530     6.6270     2.1820 
  125.0000   123.2190     9.5530     8.9140  -215.2440    81.0100     5.0280     5.4680     6.0490     2.2140 
  125.1250   123.3360     9.5820     8.9500  -215.3210    82.7840     5.0550     5.5290     5.5300     2.2400 
  125.2500   123.4520     9.6100     8.9860  -215.5610    85.1840     5.1840     5.7340     5.9530     2.2340 
  125.3750   123.5680     9.6390     9.0220  -215.9840    86.6840     5.4500     6.0920     6.9810     2.2070 
  125.5000   123.6840     9.6670     9.0580  -216.4060    85.3390     5.7210     6.4320     7.3750     2.1870 
  125.6250   123.8010     9.6960     9.0940  -216.6850    81.5210     5.9330     6.6830     7.2010     2.1830 
  125.7500   123.9170     9.7240     9.1300  -216.8410    78.6050     6.1490     6.9330     7.1780     2.1790 
  125.8750   124.0330     9.7530     9.1660  -216.8520    75.7380     6.4750     7.3340     7.3620     2.1720 
  126.0000   124.1490     9.7810     9.2020  -216.8050    71.9850     6.9480     7.9210     7.7030     2.1660 
  126.1250   124.2660     9.8100     9.2380  -216.6700    70.4870     7.7350     8.8720     8.3200     2.1710 
  126.2500   124.3820     9.8380     9.2740  -216.4810    73.0630     8.6710     9.9700     9.1190     2.1950 
  126.3750   124.4980     9.8660     9.3100  -216.2910    75.7080     9.5950    11.0220    10.1340     2.2410 
  126.5000   124.6140     9.8950     9.3460  -216.0510    75.8660    10.4840    12.0040    11.7390     2.2900 
  126.6250   124.7310     9.9230     9.3820  -215.7630    73.5580    11.1040    12.6620    13.4540     2.3090 
  126.7500   124.8470     9.9520     9.4180  -215.5060    70.6450    11.4400    13.0020    14.8930     2.2890 
  126.8750   124.9630     9.9800     9.4550  -215.3270    68.7220    11.4850    13.0490    18.2190     2.2590 
  127.0000   125.0790    10.0090     9.4910  -215.1310    70.1830    11.3000    12.8430    23.6370     2.2390 
  127.1250   125.1950    10.0370     9.5270  -214.8790    71.6050    10.9430    12.4160    25.4150     2.2210 
  127.2500   125.3120    10.0660     9.5630  -214.7020    69.0500    10.4580    11.8260    20.3140     2.1970 
  127.3750   125.4280    10.0940     9.6000  -214.6870    64.8340     9.9570    11.2180    13.3900     2.1740 
  127.5000   125.5440    10.1230     9.6360  -214.6720    63.6500     9.4960    10.6890     9.8310     2.1580 
  127.6250   125.6600    10.1510     9.6720  -214.6660    65.6310     9.2350    10.4330     8.8900     2.1520 
  127.7500   125.7760    10.1800     9.7090  -214.6730    66.6440     9.1380    10.3450     8.7420     2.1540 
  127.8750   125.8920    10.2080     9.7460  -214.6250    65.7230     9.0540    10.2370     9.1290     2.1600 
  128.0000   126.0080    10.2370     9.7820  -214.4370    62.5040     8.8920    10.0270     9.4440     2.1620 
  128.1250   126.1240    10.2650     9.8190  -214.2310    60.4670     8.6890     9.7830     9.1590     2.1630 
  128.2500   126.2400    10.2940     9.8560  -214.1260    62.6580     8.4730     9.5530     8.6360     2.1600 
  128.3750   126.3560    10.3220     9.8930  -214.0830    67.1150     8.2920     9.3780     8.4100     2.1580 
  128.5000   126.4720    10.3510     9.9290  -214.0800    69.9240     8.1450     9.2420     8.5930     2.1660 
  128.6250   126.5880    10.3790     9.9660  -214.1090    70.0140     8.0210     9.1190     8.8320     2.1770 
  128.7500   126.7040    10.4080    10.0030  -214.1380    69.2610     7.9260     9.0100     8.6780     2.1730 
  128.8750   126.8200    10.4360    10.0400  -214.1150    68.5280     7.8690     8.9620     8.1510     2.1630 
  129.0000   126.9360    10.4640    10.0770  -213.9870    67.5880     7.8780     9.0030     7.7370     2.1620 
  129.1250   127.0520    10.4930    10.1140  -213.8670    66.7390     8.0370     9.2510     7.9480     2.1670 
  129.2500   127.1680    10.5210    10.1510  -213.8320    68.0170     8.3620     9.6710     8.5840     2.1700 
  129.3750   127.2840    10.5490    10.1880  -213.7490    72.4270     8.7250    10.0730     9.0540     2.1710 
  129.5000   127.4000    10.5770    10.2250  -213.6300    76.6620     9.0300    10.3650     9.2780     2.1650 
  129.6250   127.5160    10.6060    10.2620  -213.5610    77.7610     9.1650    10.4330     9.4240     2.1530 
  129.7500   127.6320    10.6340    10.2990  -213.6170    76.4760     9.1630    10.3790     9.5050     2.1450 
  129.8750   127.7480    10.6620    10.3360  -213.7870    74.6990     9.1310    10.3480     9.5210     2.1470 
  130.0000   127.8640    10.6900    10.3730  -213.9340    74.3200     9.1030    10.3650     9.5890     2.1560 
  130.1250   127.9800    10.7180    10.4100  -213.9770    74.9830     9.0650    10.3800     9.9300     2.1660 
  130.2500   128.0960    10.7460    10.4470  -213.8870    74.4400     8.9960    10.3580    10.4100     2.1710 
  130.3750   128.2120    10.7750    10.4840  -213.6450    72.0980     8.8940    10.2630    10.3720     2.1590 
  130.5000   128.3290    10.8030    10.5210  -213.3460    69.1800     8.7860    10.1520     9.7050     2.1410 
  130.6250   128.4450    10.8310    10.5580  -213.0360    67.1910     8.7260    10.1000     9.0310     2.1320 
  130.7500   128.5610    10.8590    10.5950  -212.7360    67.6350     8.7420    10.1570     8.6370     2.1340 
  130.8750   128.6770    10.8870    10.6320  -212.3810    68.0900     8.8360    10.3210     8.5290     2.1370 
  131.0000   128.7930    10.9150    10.6690  -212.0020    64.1460     8.9970    10.5400     8.7190     2.1370 
  131.1250   128.9090    10.9430    10.7060  -211.6670    58.1440     9.1380    10.7060     9.0820     2.1380 
