~V
VERS. 2.00: Ver 2.00
~W
STRT.M 50.0000:
STOP.M 268.0000:
STEP.M 0.1250:
NULL. -999.2500:
UWI. FD11187:
~C
DEPT.M :
TVD. :
DX. :
DY. :
SP.MV :
GR.API :
RI. :
RML.OHMM :
RXO.OHMM :
DEN.GM/CC :
~A
# ...
  186.8750   182.1770    26.4160    -8.8410   -18.8090    64.0030    16.1110    20.5190    25.4060     2.1510 
  187.0000   182.2880    26.4720    -8.8520   -18.7860    63.7150    15.6560    19.8990    26.2260     2.1520 
  187.1250   182.4000    26.5270    -8.8620   -18.7230    62.7930    14.9000    18.8820    26.9160     2.1690 
  187.2500   182.5120    26.5820    -8.8730   -18.6680    62.7020    14.4440    18.2730    26.1470     2.1860 
  187.3750   182.6230    26.6380    -8.8830   -18.5870    62.7860    13.9870    17.6820    24.3230     2.1990 
  187.5000   182.7350    26.6930    -8.8930   -18.5410    62.2090    13.9460    17.6460    23.7210     2.1980 
  187.6250   182.8460    26.7480    -8.9040   -18.4880    61.1000    14.1780    18.0000    23.9060     2.1880 
  187.7500   182.9580    26.8040    -8.9140   -18.4600    60.6580    14.5690    18.5470    24.7470     2.1790 
  187.8750   183.0700    26.8590    -8.9240   -18.4160    60.3770    15.3750    19.6190    26.0090     2.1610 
  188.0000   183.1810    26.9140    -8.9340   -18.3820    60.3420    15.9400    20.3560    26.2460     2.1490 
  188.1250   183.2930    26.9690    -8.9450   -18.3190    62.2800    16.7040    21.3160    26.4250     2.1390 
  188.2500   183.4050    27.0240    -8.9550   -18.2710    64.1150    17.0450    21.7270    26.9500     2.1430 
  188.3750   183.5160    27.0790    -8.9660   -18.2000    64.3060    17.3940    22.1360    27.7460     2.1610 
  188.5000   183.6280    27.1350    -8.9770   -18.1630    62.3910    17.5900    22.3620    27.0520     2.1700 
  188.6250   183.7400    27.1900    -8.9870   -18.1370    60.7070    17.8970    22.7190    24.6360     2.1670 
  188.7500   183.8510    27.2450    -8.9980   -18.1380    60.8880    18.1290    23.0150    24.5810     2.1630 
  188.8750   183.9630    27.3000    -9.0090   -18.1480    59.6660    18.6240    23.6440    28.1000     2.1650 
  189.0000   184.0750    27.3550    -9.0200   -18.1430    57.4890    18.9870    24.0770    30.2550     2.1680 
  189.1250   184.1860    27.4100    -9.0300   -18.1020    56.9370    19.4480    24.6040    30.6180     2.1620 
  189.2500   184.2980    27.4650    -9.0410   -18.0550    59.5080    19.6700    24.8520    29.9710     2.1600 
  189.3750   184.4100    27.5210    -9.0520   -17.9780    62.0490    19.8990    25.0850    29.5370     2.1670 
  189.5000   184.5210    27.5760    -9.0620   -17.9330    61.6410    20.0150    25.2150    29.7170     2.1670 
  189.6250   184.6330    27.6320    -9.0720   -17.8780    59.8830    20.2260    25.4570    29.9110     2.1540 
  189.7500   184.7440    27.6870    -9.0830   -17.8370    59.5470    20.3820    25.6440    30.6880     2.1450 
  189.8750   184.8560    27.7420    -9.0930   -17.7390    61.0570    20.6820    26.0160    32.0400     2.1460 
  190.0000   184.9670    27.7980    -9.1030   -17.6360    63.2900    20.9400    26.3390    31.6340     2.1500 
  190.1250   185.0790    27.8540    -9.1130   -17.4240    66.0070    21.4130    26.9260    30.3970     2.1500 
  190.2500   185.1900    27.9090    -9.1230   -17.2540    65.5380    21.7720    27.3620    29.9910     2.1470 
  190.3750   185.3020    27.9650    -9.1330   -16.9820    64.3620    22.5030    28.2630    30.3680     2.1470 
  190.5000   185.4130    28.0210    -9.1440   -16.8010    65.2450    23.1240    29.0080    30.8710     2.1480 
  190.6250   185.5250    28.0760    -9.1540   -16.5370    66.8290    24.1900    30.2530    31.6490     2.1460 
  190.7500   185.6360    28.1320    -9.1640   -16.3650    66.0090    24.9850    31.1550    32.4620     2.1440 
  190.8750   185.7480    28.1880    -9.1750   -16.1190    62.1930    26.3170    32.6670    32.5920     2.1440 
  191.0000   185.8590    28.2430    -9.1850   -15.9740    60.7770    27.4100    33.9350    32.3110     2.1520 
  191.1250   185.9710    28.2990    -9.1960   -15.8240    61.6260    29.3220    36.2770    32.7240     2.1620 
  191.2500   186.0820    28.3540    -9.2060   -15.7920    62.2630    30.7120    38.0210    33.1490     2.1640 
  191.3750   186.1940    28.4100    -9.2170   -15.8640    59.4870    31.9310    39.4460    33.2210     2.1600 
  191.5000   186.3050    28.4650    -9.2270   -15.9850    57.2950    31.7120    39.0630    32.9390     2.1600 
  191.6250   186.4160    28.5210    -9.2380   -16.2340    59.4650    30.1360    36.8580    32.6190     2.1720 
  191.7500   186.5280    28.5760    -9.2490   -16.4160    63.1030    28.5170    34.6900    32.3560     2.1800 
  191.8750   186.6390    28.6320    -9.2600   -16.6820    65.6610    26.3830    31.9080    30.5290     2.1740 
  192.0000   186.7510    28.6870    -9.2710   -16.8460    65.5170    25.5540    30.8020    26.0640     2.1620 
  192.1250   186.8630    28.7430    -9.2810   -17.0770    65.1290    24.8480    29.7510    16.9330     2.1510 
  192.2500   186.9740    28.7980    -9.2910   -17.2250    65.4280    24.9930    29.8000    14.0360     2.1530 
  192.3750   187.0860    28.8530    -9.3020   -17.4360    66.8610    26.1030    30.8920    17.9250     2.1610 
  192.5000   187.1970    28.9090    -9.3120   -17.5600    68.2970    27.0290    31.8300    24.1450     2.1650 
  192.6250   187.3090    28.9640    -9.3220   -17.6980    67.7040    27.8930    32.5970    29.8600     2.1650 
  192.7500   187.4210    29.0200    -9.3320   -17.7410    65.3420    27.3550    31.7090    29.2030     2.1620 
  192.8750   187.5320    29.0750    -9.3420   -17.7170    64.4850    24.4610    27.8980    25.8700     2.1720 
  193.0000   187.6440    29.1300    -9.3520   -17.6420    66.4690    21.9690    24.7630    24.1300     2.1950 
  193.1250   187.7560    29.1850    -9.3620   -17.4620    70.1340    18.6890    20.7510    20.7410     2.2270 
  193.2500   187.8670    29.2400    -9.3730   -17.3210    72.1050    17.5680    19.4800    18.2610     2.2290 
  193.3750   187.9790    29.2950    -9.3830   -17.1150    73.1150    18.0360    20.1880    21.7200     2.2010 
  193.5000   188.0910    29.3500    -9.3940   -17.0000    71.8060    20.1550    22.8040    28.5810     2.1750 
  193.6250   188.2030    29.4050    -9.4040   -16.8750    68.4780    25.5690    29.2210    35.4030     2.1520 
  193.7500   188.3150    29.4600    -9.4140   -16.8220    66.3650    29.3800    33.4710    35.5580     2.1520 
  193.8750   188.4270    29.5150    -9.4240   -16.7870    63.9000    33.1310    37.3100    35.3810     2.1620 
  194.0000   188.5380    29.5700    -9.4330   -16.7870    62.6420    33.3600    37.1960    36.2350     2.1640 
  194.1250   188.6500    29.6250    -9.4430   -16.8030    60.9760    31.2040    34.1920    35.5300     2.1610 
  194.2500   188.7620    29.6800    -9.4530   -16.8090    58.4790    28.9250    31.4520    33.7010     2.1620 
  194.3750   188.8740    29.7350    -9.4630   -16.7860    55.3780    25.8310    27.8470    30.9850     2.1690 
  194.5000   188.9860    29.7900    -9.4730   -16.7440    56.3230    24.3010    26.0910    30.5690     2.1720 
  194.6250   189.0970    29.8450    -9.4840   -16.6460    59.6310    23.2800    24.9960    28.9680     2.1690 
  194.7500   189.2090    29.9000    -9.4940   -16.5670    60.3530    23.5050    25.2590    27.0950     2.1570 
  194.8750   189.3210    29.9550    -9.5040   -16.4390    58.3950    24.6370    26.5520    30.8100     2.1250 
  195.0000   189.4330    30.0100    -9.5140   -16.3530    56.0280    25.5650    27.5310    36.5290     2.1060 
  195.1250   189.5440    30.0650    -9.5240   -16.2280    51.5790    26.3720    28.2730    41.4430     2.0920 
  195.2500   189.6560    30.1200    -9.5350   -16.1540    49.1740    26.3860    28.1610    39.8820     2.0920 
  195.3750   189.7680    30.1750    -9.5450   -16.0720    49.0960    25.3440    26.8210    34.6190     2.1040 
  195.5000   189.8800    30.2300    -9.5550   -16.0460    50.3200    24.4580    25.8380    32.4260     2.1170 
  195.6250   189.9910    30.2850    -9.5660   -16.0610    52.0030    23.5720    24.9290    30.4430     2.1320 
  195.7500   190.1030    30.3410    -9.5760   -16.1090    52.9060    23.4440    24.8660    29.6050     2.1360 
  195.8750   190.2150    30.3960    -9.5860   -16.2270    54.3820    24.0820    25.6760    29.6480     2.1390 
