~V
VERS. 2.00: Ver 2.00
~W
STRT.M 44.0000:
STOP.M 275.0000:
STEP.M 0.1250:
NULL. -999.2500:
UWI. FD11190:
~C
DEPT.M :
TVD. :
DX. :
DY. :
SP.MV :
GR.API :
RI. :
RML.OHMM :
RXO.OHMM :
DEN.GM/CC :
~A
# ...
  117.0000   115.7050   -10.0690    -4.7250   -15.3870    60.3980     5.7240     6.3070     7.2310     2.1280 
  117.1250   115.8220   -10.1070    -4.7480   -14.5140    61.2000     5.5190     6.0100     7.3430     2.1470 
  117.2500   115.9380   -10.1450    -4.7720   -13.4480    65.4850     5.1480     5.5720     7.0240     2.1980 
  117.3750   116.0550   -10.1840    -4.7950   -12.1520    72.0360     4.6810     5.0610     6.0230     2.2760 
  117.5000   116.1720   -10.2220    -4.8180   -10.5880    81.8580     4.2090     4.5740     4.7120     2.3430 
  117.6250   116.2880   -10.2600    -4.8420    -8.8300    93.9520     3.8040     4.1660     4.2170     2.3690 
  117.7500   116.4050   -10.2980    -4.8650    -7.1130   100.7690     3.4850     3.8790     4.0390     2.3590 
  117.8750   116.5220   -10.3370    -4.8890    -5.8310   100.4250     3.2920     3.7780     3.7010     2.3280 
  118.0000   116.6380   -10.3750    -4.9130    -5.1210    99.5570     3.3050     3.8930     3.5960     2.2930 
  118.1250   116.7550   -10.4130    -4.9360    -4.8440   100.6640     3.5420     4.2250     3.7930     2.2770 
  118.2500   116.8710   -10.4520    -4.9600    -4.7630    99.8280     3.9090     4.6740     5.0070     2.2910 
  118.3750   116.9880   -10.4910    -4.9840    -4.8210    96.7720     4.3510     5.0710     7.6360     2.3060 
  118.5000   117.1040   -10.5290    -5.0070    -4.9680    94.4620     4.6660     5.2420     8.6780     2.2880 
  118.6250   117.2210   -10.5680    -5.0310    -5.1450    91.8210     4.6750     5.0790     6.6560     2.2480 
  118.7500   117.3370   -10.6070    -5.0550    -5.2500    89.9160     4.4220     4.6690     4.8160     2.2250 
  118.8750   117.4540   -10.6460    -5.0780    -5.3170    89.8080     3.9770     4.1770     4.1860     2.2320 
  119.0000   117.5700   -10.6850    -5.1020    -5.3840    92.4170     3.5280     3.7770     3.7000     2.2490 
  119.1250   117.6860   -10.7240    -5.1260    -5.3290    98.4700     3.2540     3.5630     3.4540     2.2590 
  119.2500   117.8030   -10.7630    -5.1500    -5.1610   105.7700     3.1290     3.4820     3.3360     2.2600 
  119.3750   117.9190   -10.8020    -5.1740    -4.9330   108.5560     3.0890     3.4610     3.2880     2.2580 
  119.5000   118.0350   -10.8410    -5.1980    -4.7420   103.6150     3.0670     3.4390     3.4390     2.2610 
  119.6250   118.1510   -10.8810    -5.2220    -4.6480    99.1660     3.0360     3.3960     3.8080     2.2710 
  119.7500   118.2680   -10.9200    -5.2460    -4.6420   100.3030     2.9980     3.3540     4.0380     2.2880 
  119.8750   118.3840   -10.9590    -5.2700    -4.6070   104.7380     2.9740     3.3590     3.6120     2.3030 
  120.0000   118.5000   -10.9980    -5.2940    -4.5280   107.6110     3.0000     3.4390     3.3040     2.3020 
  120.1250   118.6160   -11.0380    -5.3190    -4.5250   108.4370     3.1020     3.6000     3.6980     2.2730 
  120.2500   118.7320   -11.0770    -5.3430    -4.6510   106.3570     3.2590     3.8000     3.9920     2.2320 
  120.3750   118.8480   -11.1170    -5.3670    -4.8910   101.6190     3.4240     3.9740     4.0950     2.2090 
  120.5000   118.9640   -11.1560    -5.3920    -5.1920    98.2150     3.5520     4.0750     4.2160     2.2090 
  120.6250   119.0800   -11.1960    -5.4160    -5.4330    99.2010     3.5880     4.0860     4.0360     2.2180 
  120.7500   119.1960   -11.2350    -5.4410    -5.5180    99.7570     3.5640     4.0400     3.8400     2.2220 
  120.8750   119.3120   -11.2750    -5.4660    -5.4920    96.5710     3.5190     3.9630     4.0560     2.2190 
  121.0000   119.4280   -11.3140    -5.4900    -5.4620    94.9470     3.4520     3.8740     4.6310     2.2150 
  121.1250   119.5440   -11.3540    -5.5150    -5.4540    96.6640     3.3770     3.8160     4.9830     2.2150 
  121.2500   119.6600   -11.3940    -5.5400    -5.4260    97.6170     3.3480     3.8590     4.7460     2.2260 
  121.3750   119.7760   -11.4340    -5.5650    -5.2500    98.1520     3.4540     4.1060     4.4870     2.2540 
  121.5000   119.8920   -11.4740    -5.5890    -4.9970    98.2810     3.7420     4.5560     4.2410     2.3020 
  121.6250   120.0080   -11.5140    -5.6140    -4.7510    97.2260     4.2170     5.1050     4.5990     2.3680 
  121.7500   120.1230   -11.5540    -5.6380    -4.5270    92.8980     4.6690     5.5050     6.7830     2.4270 
  121.8750   120.2390   -11.5940    -5.6630    -4.3580    88.4680     4.8720     5.5000     8.9970     2.4380 
  122.0000   120.3550   -11.6350    -5.6870    -4.1520    86.3650     4.6330     5.0890     8.2540     2.3900 
  122.1250   120.4710   -11.6750    -5.7120    -4.0030    87.7250     4.1170     4.4170     5.4800     2.3180 
  122.2500   120.5860   -11.7150    -5.7370    -3.9490    91.6280     3.4860     3.7910     3.7250     2.2800 
  122.3750   120.7020   -11.7560    -5.7620    -3.9570    96.7230     3.0300     3.4020     3.3610     2.2880 
  122.5000   120.8180   -11.7960    -5.7860    -3.9510   102.0400     2.8320     3.2800     3.2130     2.3050 
  122.6250   120.9330   -11.8370    -5.8110    -3.9340   107.1980     2.8260     3.3550     3.1040     2.3010 
  122.7500   121.0490   -11.8770    -5.8360    -3.9720   108.7580     2.9520     3.5530     3.3290     2.2810 
  122.8750   121.1640   -11.9180    -5.8610    -4.1660   105.3800     3.1700     3.8390     3.6320     2.2550 
  123.0000   121.2800   -11.9580    -5.8860    -4.5060   100.0940     3.4570     4.1580     3.7520     2.2300 
  123.1250   121.3950   -11.9990    -5.9110    -4.8950    96.2610     3.7600     4.4280     3.8980     2.2090 
  123.2500   121.5110   -12.0400    -5.9360    -5.2300    94.0620     3.9890     4.5770     4.1890     2.1980 
  123.3750   121.6260   -12.0800    -5.9610    -5.5120    90.2990     4.0600     4.5530     4.7350     2.2040 
  123.5000   121.7420   -12.1210    -5.9860    -5.7530    84.7320     3.9800     4.3960     5.1110     2.2220 
  123.6250   121.8570   -12.1620    -6.0120    -5.8110    84.7560     3.7880     4.1780     4.6630     2.2420 
  123.7500   121.9730   -12.2020    -6.0370    -5.6700    90.9020     3.5930     3.9780     4.0160     2.2540 
  123.8750   122.0880   -12.2430    -6.0620    -5.2870    95.0250     3.4320     3.8350     3.7900     2.2530 
  124.0000   122.2040   -12.2840    -6.0880    -4.8570    94.6330     3.3220     3.7290     3.7100     2.2500 
  124.1250   122.3190   -12.3240    -6.1130    -4.5780    95.1550     3.2370     3.6310     3.6820     2.2550 
  124.2500   122.4350   -12.3650    -6.1390    -4.5190    97.0190     3.1500     3.5300     3.7400     2.2680 
  124.3750   122.5500   -12.4050    -6.1650    -4.5840    97.2870     3.0710     3.4650     3.6700     2.2840 
  124.5000   122.6650   -12.4460    -6.1910    -4.6660    96.6820     3.0520     3.4920     3.4070     2.2880 
  124.6250   122.7810   -12.4870    -6.2170    -4.7310    97.7480     3.1450     3.6560     3.2470     2.2720 
  124.7500   122.8960   -12.5270    -6.2430    -4.8580    98.9410     3.3390     3.9290     3.3950     2.2430 
  124.8750   123.0110   -12.5680    -6.2690    -5.1140    96.9600     3.6210     4.2440     3.9670     2.2180 
  125.0000   123.1270   -12.6090    -6.2940    -5.4490    93.7630     3.9020     4.5020     4.5830     2.2060 
  125.1250   123.2420   -12.6490    -6.3200    -5.8060    91.6690     4.0740     4.6090     4.7750     2.2120 
  125.2500   123.3570   -12.6900    -6.3460    -6.1620    91.9910     4.0900     4.5460     4.6360     2.2270 
  125.3750   123.4720   -12.7310    -6.3730    -6.3580    91.9380     3.9480     4.3180     4.3780     2.2380 
  125.5000   123.5880   -12.7720    -6.3990    -6.3570    90.9020     3.6880     3.9930     4.3330     2.2400 
  125.6250   123.7030   -12.8120    -6.4250    -6.1880    91.9230     3.3750     3.6610     4.2870     2.2460 
  125.7500   123.8180   -12.8530    -6.4510    -5.9280    95.6060     3.1020     3.4640     3.8560     2.2650 
  125.8750   123.9330   -12.8940    -6.4770    -5.6890    99.6370     3.0450     3.5780     3.4730     2.2970 
  126.0000   124.0480   -12.9350    -6.5030    -5.4950   101.9760     3.3100     4.0710     3.3100     2.3430 
