~V
VERS. 2.00: Ver 2.00
~W
STRT.M 50.0000:
STOP.M 268.0000:
STEP.M 0.1250:
NULL. -999.2500:
UWI. FD11187:
~C
DEPT.M :
TVD. :
DX. :
DY. :
SP.MV :
GR.API :
RI. :
RML.OHMM :
RXO.OHMM :
DEN.GM/CC :
~A
# ...
  159.5000   157.5330    14.8930    -5.8520   -25.9540    53.0720     6.0260     6.4560     9.2910     2.3610 
  159.6250   157.6470    14.9400    -5.8680   -25.9990    53.9540     6.1710     6.6560     9.6640     2.3520 
  159.7500   157.7620    14.9880    -5.8850   -26.0380    54.5950     6.2970     6.8030     9.5290     2.3690 
  159.8750   157.8760    15.0360    -5.9010   -26.1020    55.6390     6.3960     6.9010     9.2680     2.3880 
  160.0000   157.9910    15.0840    -5.9180   -26.1400    56.5640     6.3960     6.8830     9.8600     2.3920 
  160.1250   158.1050    15.1320    -5.9340   -26.1820    57.2660     6.2400     6.6920     9.9500     2.3880 
  160.2500   158.2190    15.1800    -5.9500   -26.1940    56.1880     6.1200     6.5580     9.2420     2.3780 
  160.3750   158.3330    15.2280    -5.9670   -26.1780    53.8670     5.9210     6.3500     8.4910     2.3600 
  160.5000   158.4470    15.2760    -5.9830   -26.1420    55.1170     5.8300     6.2630     8.5270     2.3560 
  160.6250   158.5610    15.3240    -6.0000   -26.0500    60.6830     5.7650     6.2000     9.2740     2.3550 
  160.7500   158.6760    15.3720    -6.0160   -25.9700    64.0510     5.7830     6.2300     9.7260     2.3510 
  160.8750   158.7900    15.4210    -6.0330   -25.8390    64.6400     5.8650     6.3300     9.3420     2.3570 
  161.0000   158.9040    15.4690    -6.0490   -25.7530    63.2890     5.9180     6.3980     8.5690     2.3810 
  161.1250   159.0180    15.5180    -6.0650   -25.6340    61.0260     5.9760     6.4770     8.5700     2.4160 
  161.2500   159.1320    15.5670    -6.0820   -25.5570    60.9130     5.9780     6.4830     9.2420     2.4130 
  161.3750   159.2450    15.6160    -6.0980   -25.4300    62.6970     5.9360     6.4400     9.1260     2.3810 
  161.5000   159.3590    15.6650    -6.1140   -25.3340    63.2500     5.8870     6.3890     8.5460     2.3740 
  161.6250   159.4730    15.7140    -6.1300   -25.1730    63.4540     5.8140     6.3110     7.9730     2.3890 
  161.7500   159.5870    15.7640    -6.1460   -25.0640    64.0700     5.7690     6.2630     8.0100     2.4030 
  161.8750   159.7000    15.8130    -6.1620   -24.9200    64.0130     5.7590     6.2640     8.8150     2.4160 
  162.0000   159.8140    15.8630    -6.1780   -24.8490    63.1300     5.7710     6.2890     9.1920     2.4200 
  162.1250   159.9280    15.9120    -6.1940   -24.7970    62.8780     5.8040     6.3530     9.1390     2.4020 
  162.2500   160.0410    15.9620    -6.2100   -24.7980    64.0450     5.8280     6.4020     8.6240     2.3780 
  162.3750   160.1550    16.0110    -6.2270   -24.8390    64.0590     5.8990     6.4980     8.0140     2.3520 
  162.5000   160.2680    16.0610    -6.2430   -24.8800    63.2400     5.9490     6.5540     8.4120     2.3460 
  162.6250   160.3820    16.1110    -6.2600   -24.9380    63.3850     6.0140     6.6220     8.8230     2.3480 
  162.7500   160.4950    16.1610    -6.2760   -24.9650    64.0880     6.0370     6.6490     8.6550     2.3520 
  162.8750   160.6090    16.2110    -6.2930   -24.9840    64.5550     6.0110     6.6380     8.9300     2.3590 
  163.0000   160.7220    16.2610    -6.3090   -24.9910    64.6780     5.9770     6.6120     9.3650     2.3560 
  163.1250   160.8350    16.3110    -6.3250   -25.0120    65.9050     5.8900     6.5300     9.7540     2.3360 
  163.2500   160.9490    16.3610    -6.3410   -25.0390    66.5900     5.8230     6.4510     9.4850     2.3240 
  163.3750   161.0620    16.4110    -6.3580   -25.0960    65.9660     5.7050     6.2990     8.9060     2.3330 
  163.5000   161.1750    16.4620    -6.3740   -25.1350    65.7610     5.6230     6.2050     9.0710     2.3460 
  163.6250   161.2880    16.5120    -6.3900   -25.1820    66.1920     5.5530     6.1220     9.0720     2.3520 
  163.7500   161.4020    16.5630    -6.4060   -25.2060    66.2930     5.5340     6.1060     8.5230     2.3430 
  163.8750   161.5150    16.6130    -6.4220   -25.2440    63.6120     5.5380     6.1350     7.7510     2.3260 
  164.0000   161.6280    16.6640    -6.4380   -25.2780    61.1500     5.5230     6.1270     7.7880     2.3260 
  164.1250   161.7410    16.7150    -6.4530   -25.3530    58.7520     5.4370     6.0330     8.0870     2.3380 
  164.2500   161.8540    16.7660    -6.4690   -25.4170    58.1210     5.3380     5.9110     8.0230     2.3470 
  164.3750   161.9670    16.8170    -6.4840   -25.5170    57.5670     5.1340     5.6470     8.1290     2.3570 
  164.5000   162.0800    16.8680    -6.5000   -25.5730    58.3650     4.9910     5.4650     8.1820     2.3630 
  164.6250   162.1930    16.9190    -6.5150   -25.6240    61.5040     4.8430     5.2950     7.9230     2.3730 
  164.7500   162.3060    16.9700    -6.5310   -25.6350    62.1140     4.8300     5.2930     7.6280     2.3760 
  164.8750   162.4190    17.0210    -6.5460   -25.6260    58.3480     4.9220     5.4270     7.6490     2.3650 
  165.0000   162.5320    17.0730    -6.5610   -25.6140    56.0700     5.0310     5.5700     8.1800     2.3460 
  165.1250   162.6450    17.1240    -6.5760   -25.6040    57.6650     5.1850     5.7450     8.7520     2.3230 
  165.2500   162.7580    17.1760    -6.5910   -25.6040    59.9890     5.2430     5.8000     8.5610     2.3180 
  165.3750   162.8710    17.2270    -6.6050   -25.6060    61.1810     5.2570     5.7890     7.7750     2.3110 
  165.5000   162.9840    17.2790    -6.6200   -25.5980    61.0990     5.2350     5.7500     7.4840     2.3080 
  165.6250   163.0970    17.3310    -6.6340   -25.5610    62.6220     5.1940     5.6930     7.7850     2.3100 
  165.7500   163.2100    17.3830    -6.6490   -25.5200    62.2150     5.1960     5.7010     8.0980     2.3060 
  165.8750   163.3220    17.4340    -6.6630   -25.4480    60.3340     5.2520     5.7700     8.9600     2.2870 
  166.0000   163.4350    17.4860    -6.6780   -25.4020    59.3930     5.2870     5.8040    10.2380     2.2720 
  166.1250   163.5480    17.5380    -6.6930   -25.3490    59.0830     5.2970     5.7900    10.8510     2.2660 
  166.2500   163.6610    17.5900    -6.7080   -25.3210    59.4980     5.2650     5.7310     9.6790     2.2730 
  166.3750   163.7730    17.6420    -6.7230   -25.2690    60.7850     5.2020     5.6280     8.3490     2.2960 
  166.5000   163.8860    17.6940    -6.7380   -25.2170    60.6880     5.1810     5.5930     8.0640     2.3120 
  166.6250   163.9990    17.7460    -6.7520   -25.1050    58.9120     5.2150     5.6130     7.8130     2.3190 
  166.7500   164.1110    17.7980    -6.7670   -25.0110    59.0510     5.2510     5.6430     8.0220     2.3170 
  166.8750   164.2240    17.8500    -6.7820   -24.8560    61.4120     5.3080     5.6810     8.1630     2.3170 
  167.0000   164.3370    17.9020    -6.7970   -24.7520    62.0840     5.3310     5.6900     7.8530     2.3090 
  167.1250   164.4490    17.9540    -6.8120   -24.6100    61.2960     5.3740     5.7130     7.5840     2.2770 
  167.2500   164.5620    18.0060    -6.8270   -24.5280    61.5700     5.4270     5.7740     7.8210     2.2470 
  167.3750   164.6750    18.0590    -6.8420   -24.4310    65.0810     5.5810     5.9630     8.2120     2.2110 
  167.5000   164.7870    18.1110    -6.8570   -24.3800    68.9340     5.7470     6.1640     8.2190     2.1960 
  167.6250   164.9000    18.1630    -6.8710   -24.3150    72.8820     6.0370     6.5140     8.6320     2.1850 
  167.7500   165.0130    18.2150    -6.8860   -24.2670    74.1910     6.2390     6.7370     9.1010     2.1830 
  167.8750   165.1250    18.2670    -6.9010   -24.1600    75.8460     6.4140     6.9040     9.1570     2.1810 
  168.0000   165.2380    18.3200    -6.9150   -24.0530    77.1060     6.4830     6.9680     9.1100     2.1800 
  168.1250   165.3500    18.3720    -6.9300   -23.8290    77.0820     6.7210     7.2170     9.2100     2.1800 
  168.2500   165.4630    18.4240    -6.9450   -23.6390    76.4670     7.0430     7.5950     8.9560     2.1770 
  168.3750   165.5760    18.4760    -6.9600   -23.3010    75.9890     7.9630     8.6710     9.1640     2.1660 
  168.5000   165.6880    18.5280    -6.9750   -23.0500    74.5890     8.9170     9.8140    10.8360     2.1520 
