~V
VERS. 2.00: Ver 2.00
~W
STRT.M 20.0000:
STOP.M 277.0000:
STEP.M 0.1250:
NULL. -999.2500:
UWI. FD11024:
~C
DEPT.M :
TVD. :
DX. :
DY. :
DEN.GM/CC :
GR.API :
RML.OHMM :
RI. :
RXO.OHMM :
CALI.CM :
SP.MV :
~A
# ...
  185.0000   182.1030    14.9610    21.6410     2.2070    57.3080   225.5640   176.0550    15.6870    19.6830   -11.3120 
  185.1250   182.2230    14.9820    21.6690     2.2010    59.2810   223.2840   173.9320    16.6880    19.8630   -11.2320 
  185.2500   182.3430    15.0030    21.6970     2.1920    60.7390   223.3200   173.9360    17.1000    19.9970   -11.1670 
  185.3750   182.4630    15.0250    21.7260     2.1830    60.2440   225.7450   176.3740    17.8480    20.0970   -11.1200 
  185.5000   182.5830    15.0460    21.7540     2.1760    58.8710   230.3090   181.2780    18.3210    20.1860   -11.0890 
  185.6250   182.7030    15.0670    21.7820     2.1720    58.8200   236.2570   188.3800    18.1490    20.2080   -11.0420 
  185.7500   182.8230    15.0880    21.8110     2.1720    58.2740   241.8030   196.1590    17.5220    20.2450   -11.0320 
  185.8750   182.9420    15.1100    21.8390     2.1720    56.5570   245.4360   203.3440    16.8330    20.2580   -11.0400 
  186.0000   183.0620    15.1310    21.8670     2.1730    56.4180   245.8520   208.7120    16.8310    20.2040   -11.0850 
  186.1250   183.1820    15.1520    21.8950     2.1730    57.7120   241.4250   210.4980    16.9220    19.8530   -11.1510 
  186.2500   183.3020    15.1730    21.9240     2.1720    56.9880   232.8410   208.5660    16.1950    19.6550   -11.2110 
  186.3750   183.4220    15.1950    21.9520     2.1690    55.3900   219.7730   202.6870    14.5070    19.5890   -11.2710 
  186.5000   183.5420    15.2160    21.9800     2.1680    55.9270   199.1900   190.5770    13.0490    19.5730   -11.3190 
  186.6250   183.6620    15.2370    22.0090     2.1730    57.5760   168.5630   165.2300    12.7230    19.5790   -11.3870 
  186.7500   183.7820    15.2580    22.0370     2.1870    57.4600   135.3000   128.7790    12.8530    19.5800   -11.4420 
  186.8750   183.9020    15.2800    22.0650     2.2140    59.2600    91.6350    90.1880    13.3890    19.5800   -11.4890 
  187.0000   184.0210    15.3010    22.0940     2.2490    66.5180    59.2900    59.1750    13.4820    19.5800   -11.5230 
  187.1250   184.1410    15.3220    22.1220     2.2820    75.4270    41.7270    41.1130    11.7920    19.5800   -11.6130 
  187.2500   184.2610    15.3440    22.1500     2.3010    80.3940    33.7900    32.1300    10.0890    19.5800   -11.7560 
  187.3750   184.3810    15.3650    22.1790     2.3010    79.6350    32.7360    29.6260     9.6650    19.5790   -11.9160 
  187.5000   184.5010    15.3860    22.2070     2.2860    75.1040    36.9220    32.0370    10.7090    19.5730   -12.1110 
  187.6250   184.6210    15.4070    22.2350     2.2650    68.6070    46.0360    39.5740    12.9490    19.5790   -12.3080 
  187.7500   184.7410    15.4290    22.2630     2.2460    62.6670    57.9230    50.8850    14.7740    19.5800   -12.4900 
  187.8750   184.8610    15.4500    22.2920     2.2310    61.1690    69.9710    63.7900    15.7570    19.5800   -12.6590 
  188.0000   184.9800    15.4710    22.3200     2.2200    63.2500    78.8030    74.5220    15.9990    19.5800   -12.7900 
  188.1250   185.1000    15.4920    22.3480     2.2150    64.8960    81.6020    79.1690    15.6110    19.5790   -12.8660 
  188.2500   185.2200    15.5140    22.3770     2.2160    64.7830    80.4260    79.1150    15.1660    19.5750   -12.8860 
  188.3750   185.3400    15.5350    22.4050     2.2230    64.8500    77.0150    76.1530    14.9680    19.5720   -12.8560 
  188.5000   185.4600    15.5560    22.4330     2.2320    66.5570    72.0730    71.2750    14.9620    19.5780   -12.7870 
  188.6250   185.5800    15.5770    22.4620     2.2390    69.3900    65.4260    64.4490    14.8990    19.5770   -12.7250 
  188.7500   185.7000    15.5990    22.4900     2.2410    71.1900    58.0210    56.6800    14.3670    19.5760   -12.6600 
  188.8750   185.8200    15.6200    22.5180     2.2370    71.7810    51.2670    49.3110    13.5640    19.5800   -12.6310 
  189.0000   185.9400    15.6410    22.5470     2.2300    71.6500    46.6470    43.6810    12.7280    19.5800   -12.6360 
  189.1250   186.0590    15.6620    22.5750     2.2240    71.1620    45.8930    41.2720    11.9690    19.5810   -12.6830 
  189.2500   186.1790    15.6840    22.6030     2.2200    69.9300    49.0410    42.1680    11.9660    19.5870   -12.7690 
  189.3750   186.2990    15.7050    22.6310     2.2180    67.7910    56.1610    46.5550    12.8900    19.6240   -12.8870 
  189.5000   186.4190    15.7260    22.6600     2.2180    63.8080    67.0140    54.3970    13.8350    19.6430   -13.0110 
  189.6250   186.5390    15.7470    22.6880     2.2180    59.0070    81.3720    65.7010    14.1440    19.6460   -13.1550 
  189.7500   186.6590    15.7690    22.7160     2.2190    57.3540    97.4450    78.7970    14.5250    19.6510   -13.2740 
  189.8750   186.7790    15.7900    22.7450     2.2210    59.6870   113.8600    92.2220    14.9990    19.6840   -13.3710 
  190.0000   186.8990    15.8110    22.7730     2.2240    61.7550   129.7440   104.9040    15.4460    19.7660   -13.4520 
  190.1250   187.0180    15.8320    22.8010     2.2270    60.7190   145.4220   116.8030    16.2100    19.9810   -13.5060 
  190.2500   187.1380    15.8540    22.8300     2.2370    60.2880   162.2120   129.0890    17.8160    20.0950   -13.5180 
  190.3750   187.2580    15.8750    22.8580     2.2630    60.8600   181.2670   142.9120    18.4180    20.0990   -13.5290 
  190.5000   187.3780    15.8960    22.8860     2.3140    60.6170   203.1810   159.0420    17.6500    19.9460   -13.5340 
  190.6250   187.4980    15.9170    22.9140     2.3840    59.6540   227.0550   177.1870    17.5040    19.7590   -13.5130 
  190.7500   187.6180    15.9390    22.9430     2.4410    57.5590   248.6220   194.3710    19.1710    19.6980   -13.4980 
  190.8750   187.7380    15.9600    22.9710     2.4510    53.1940   262.8460   206.9570    22.4140    19.7040   -13.4930 
  191.0000   187.8580    15.9810    23.0000     2.4050    48.6630   266.1810   211.9770    26.5570    19.9080   -13.4690 
  191.1250   187.9770    16.0030    23.0280     2.3210    49.6980   257.5050   207.7830    27.9380    20.2780   -13.4660 
  191.2500   188.0970    16.0240    23.0570     2.2430    53.9570   241.2790   197.2780    28.4700    20.6890   -13.4550 
  191.3750   188.2170    16.0450    23.0850     2.1910    56.7940   218.7380   181.2880    30.5280    20.9500   -13.4340 
  191.5000   188.3370    16.0670    23.1140     2.1740    57.6150   191.4840   160.7700    33.4520    21.3360   -13.4350 
  191.6250   188.4570    16.0880    23.1420     2.1860    57.5840   164.0980   138.7410    30.7540    21.5030   -13.4210 
  191.7500   188.5760    16.1090    23.1710     2.2100    58.0020   141.9890   119.7580    26.2950    21.6120   -13.4260 
  191.8750   188.6960    16.1310    23.2000     2.2310    59.8900   128.4220   106.8580    22.7880    21.7690   -13.4220 
  192.0000   188.8160    16.1520    23.2280     2.2410    62.9990   125.0990   102.0350    21.0340    21.8800   -13.4490 
  192.1250   188.9360    16.1740    23.2570     2.2380    65.0950   133.9110   107.6310    20.0360    21.8890   -13.4510 
  192.2500   189.0560    16.1950    23.2850     2.2260    64.6760   151.5900   121.3030    21.8510    21.9120   -13.4960 
  192.3750   189.1750    16.2160    23.3140     2.2130    62.9730   174.9830   140.5950    24.9840    21.9660   -13.5500 
  192.5000   189.2950    16.2380    23.3430     2.2010    61.0080   198.7680   161.2880    27.9420    22.0270   -13.6100 
  192.6250   189.4150    16.2590    23.3710     2.1900    58.1490   214.4440   176.7830    27.4870    22.0330   -13.7020 
  192.7500   189.5350    16.2810    23.4000     2.1810    54.5220   218.5120   183.8490    28.5140    22.1130   -13.7820 
  192.8750   189.6540    16.3020    23.4280     2.1750    51.3710   210.3210   181.3730    32.4150    22.4410   -13.8660 
  193.0000   189.7740    16.3230    23.4570     2.1720    52.6400   190.4520   169.0680    33.1950    22.6430   -13.9540 
  193.1250   189.8940    16.3450    23.4860     2.1750    58.7520   159.8760   146.2730    27.9670    22.5870   -14.0260 
