~V
VERS. 2.00: Ver 2.00
~W
STRT.M 40.0000:
STOP.M 279.0000:
STEP.M 0.1250:
NULL. -999.2500:
UWI. FD11188:
~C
DEPT.M :
TVD. :
DX. :
DY. :
SP.MV :
GR.API :
RI. :
RML.OHMM :
RXO.OHMM :
DEN.GM/CC :
~A
# ...
  158.6250   154.7480     7.2300    22.7440   -17.4030    51.4950     6.4100     6.5140    12.0560     2.4630 
  158.7500   154.8630     7.2410    22.7910   -17.3710    49.8190     6.2130     6.2960    11.7540     2.4740 
  158.8750   154.9790     7.2510    22.8380   -17.3300    49.6450     6.0350     6.1110    11.6430     2.4840 
  159.0000   155.0940     7.2620    22.8840   -17.2680    50.7960     5.9450     6.0490    10.6720     2.4810 
  159.1250   155.2100     7.2720    22.9310   -17.1830    52.9490     5.9360     6.0710    10.4850     2.4610 
  159.2500   155.3250     7.2820    22.9780   -17.0860    54.2890     5.9340     6.0980    11.7170     2.4490 
  159.3750   155.4410     7.2930    23.0240   -16.9890    55.2140     5.8640     6.0230    12.0330     2.4560 
  159.5000   155.5560     7.3030    23.0710   -16.8990    56.1910     5.6810     5.8150    11.7480     2.4640 
  159.6250   155.6720     7.3140    23.1180   -16.8210    57.4500     5.4170     5.5140    11.8920     2.4580 
  159.7500   155.7870     7.3240    23.1640   -16.7550    59.1690     5.1350     5.2070    11.2100     2.4550 
  159.8750   155.9030     7.3350    23.2110   -16.7040    60.3020     4.9440     5.0060     9.9850     2.4630 
  160.0000   156.0180     7.3450    23.2580   -16.6700    61.4180     4.8590     4.9320     9.2920     2.4620 
  160.1250   156.1330     7.3560    23.3040   -16.6600    61.6820     4.9040     4.9930     9.1860     2.4400 
  160.2500   156.2490     7.3670    23.3510   -16.6740    61.6230     5.0090     5.1220     9.5070     2.4100 
  160.3750   156.3640     7.3770    23.3980   -16.7080    61.8870     5.1520     5.2840    10.0420     2.3880 
  160.5000   156.4800     7.3880    23.4450   -16.7450    62.8170     5.2920     5.4470    10.7690     2.3820 
  160.6250   156.5950     7.3980    23.4920   -16.7690    62.4540     5.4170     5.6010    10.8190     2.3850 
  160.7500   156.7100     7.4090    23.5390   -16.7680    59.8950     5.5020     5.7120    10.0150     2.3880 
  160.8750   156.8250     7.4200    23.5860   -16.7390    57.7150     5.4520     5.6780    10.0280     2.3880 
  161.0000   156.9410     7.4300    23.6340   -16.6900    57.5280     5.2470     5.4740    10.2720     2.3880 
  161.1250   157.0560     7.4410    23.6810   -16.6360    59.2690     4.9190     5.1120     9.7020     2.3880 
  161.2500   157.1710     7.4510    23.7290   -16.5890    63.0750     4.5630     4.7230     8.9880     2.3920 
  161.3750   157.2860     7.4620    23.7760   -16.5590    68.2740     4.3230     4.4650     8.2830     2.4030 
  161.5000   157.4010     7.4720    23.8240   -16.5450    71.2020     4.1990     4.3580     7.9050     2.4180 
  161.6250   157.5160     7.4830    23.8710   -16.5420    69.9040     4.1760     4.3830     8.2550     2.4310 
  161.7500   157.6310     7.4930    23.9190   -16.5380    67.5700     4.1840     4.4390     9.2710     2.4400 
  161.8750   157.7460     7.5040    23.9670   -16.5220    66.3500     4.1870     4.4650     9.0930     2.4410 
  162.0000   157.8620     7.5140    24.0140   -16.4900    65.0930     4.1050     4.3610     7.4640     2.4380 
  162.1250   157.9770     7.5250    24.0620   -16.4410    62.0600     3.9630     4.1910     6.9900     2.4300 
  162.2500   158.0920     7.5350    24.1100   -16.3810    59.0440     3.8410     4.0480     7.2510     2.4170 
  162.3750   158.2070     7.5460    24.1570   -16.3170    58.8710     3.7720     3.9750     7.2370     2.4110 
  162.5000   158.3220     7.5560    24.2050   -16.2560    61.0760     3.8210     4.0450     7.2380     2.4210 
  162.6250   158.4370     7.5670    24.2520   -16.2050    62.0920     3.9670     4.2150     7.3810     2.4430 
  162.7500   158.5520     7.5770    24.3000   -16.1650    61.0850     4.1680     4.4470     8.3220     2.4590 
  162.8750   158.6670     7.5870    24.3470   -16.1310    59.7800     4.3960     4.7110     9.6880     2.4630 
  163.0000   158.7830     7.5980    24.3950   -16.0900    60.4010     4.5880     4.9350    10.8010     2.4610 
  163.1250   158.8980     7.6080    24.4420   -16.0270    60.7060     4.6850     5.0460    11.0890     2.4620 
  163.2500   159.0130     7.6190    24.4890   -15.9390    59.3790     4.6430     5.0000    10.1380     2.4670 
  163.3750   159.1280     7.6290    24.5370   -15.8270    58.3350     4.5140     4.8560     9.1330     2.4650 
  163.5000   159.2430     7.6400    24.5840   -15.7060    58.7750     4.3500     4.6780     8.6300     2.4570 
  163.6250   159.3590     7.6500    24.6320   -15.6000    61.9810     4.2100     4.5470     8.1530     2.4620 
  163.7500   159.4740     7.6600    24.6790   -15.5330    65.4460     4.1220     4.4760     8.1010     2.4750 
  163.8750   159.5890     7.6710    24.7260   -15.5310    67.7120     4.0560     4.4270     8.3890     2.4760 
  164.0000   159.7040     7.6810    24.7740   -15.5980    68.2200     3.9900     4.3800     8.3950     2.4590 
  164.1250   159.8190     7.6910    24.8210   -15.7300    69.1400     3.9560     4.3610     8.3300     2.4320 
  164.2500   159.9350     7.7020    24.8690   -15.8980    71.3620     3.9550     4.3590     8.1100     2.4010 
  164.3750   160.0500     7.7120    24.9160   -16.0660    72.4520     4.0000     4.4020     7.7780     2.3770 
  164.5000   160.1650     7.7230    24.9640   -16.2040    71.0650     4.1400     4.5450     8.4840     2.3700 
  164.6250   160.2800     7.7330    25.0110   -16.2860    68.3660     4.4450     4.8690     9.5020     2.3800 
  164.7500   160.3950     7.7430    25.0590   -16.3100    66.2550     4.8690     5.3190     9.6860     2.4020 
  164.8750   160.5100     7.7540    25.1070   -16.2800    64.4730     5.3300     5.8150    10.6030     2.4440 
  165.0000   160.6250     7.7640    25.1540   -16.2130    63.2960     5.6790     6.1640    12.7110     2.4970 
  165.1250   160.7400     7.7740    25.2020   -16.1200    62.1160     5.7450     6.2080    13.9560     2.5290 
  165.2500   160.8560     7.7850    25.2490   -16.0080    59.7240     5.5750     5.9780    12.8480     2.5190 
  165.3750   160.9710     7.7950    25.2970   -15.8790    57.7280     5.1310     5.4570    10.7450     2.4820 
  165.5000   161.0860     7.8050    25.3450   -15.7330    58.2310     4.5630     4.8240     9.0070     2.4460 
  165.6250   161.2010     7.8150    25.3920   -15.5740    61.5890     3.9570     4.1720     7.2880     2.4120 
  165.7500   161.3160     7.8250    25.4400   -15.4090    67.2220     3.3960     3.5830     5.8600     2.3750 
  165.8750   161.4310     7.8360    25.4870   -15.2490    75.4630     2.9310     3.0910     4.7640     2.3330 
  166.0000   161.5460     7.8460    25.5350   -15.1030    84.3510     2.5650     2.7000     4.0170     2.2990 
  166.1250   161.6610     7.8560    25.5830   -14.9800    90.2820     2.3320     2.4620     3.7510     2.2900 
  166.2500   161.7770     7.8660    25.6300   -14.8890    92.7950     2.2430     2.3780     3.6230     2.3000 
  166.3750   161.8920     7.8760    25.6780   -14.8490    92.9890     2.3010     2.4550     3.6500     2.3070 
  166.5000   162.0070     7.8860    25.7260   -14.8780    91.4550     2.4700     2.6550     3.8890     2.3030 
  166.6250   162.1220     7.8960    25.7740   -15.0030    90.1330     2.7630     2.9780     4.2720     2.3000 
  166.7500   162.2370     7.9070    25.8210   -15.2280    89.8980     3.1250     3.3510     4.7740     2.3030 
  166.8750   162.3520     7.9170    25.8690   -15.5680    89.2510     3.5490     3.7790     5.5070     2.3020 
  167.0000   162.4670     7.9270    25.9170   -16.0120    87.9500     4.0160     4.2350     6.8960     2.2960 
  167.1250   162.5820     7.9370    25.9650   -16.5570    87.1380     4.4380     4.6460     7.9960     2.2920 
  167.2500   162.6970     7.9470    26.0130   -17.1690    86.9110     4.8720     5.0670     8.3990     2.2850 
  167.3750   162.8120     7.9570    26.0610   -17.8070    85.3360     5.4360     5.6440     9.6820     2.2670 
  167.5000   162.9270     7.9670    26.1090   -18.4140    82.2620     6.1900     6.4440    10.6820     2.2430 
  167.6250   163.0420     7.9770    26.1570   -18.9410    77.8530     7.2020     7.5450    11.2390     2.2210 
