~V
VERS. 2.00: Ver 2.00
~W
STRT.M 20.0000:
STOP.M 292.0000:
STEP.M 0.1250:
NULL. -999.2500:
UWI. FD11146:
~C
DEPT.M :
TVD. :
DX. :
DY. :
GR.API :
RML.OHMM :
RI. :
RXO.OHMM :
CALI.CM :
SP.MV :
DEN.GM/CC :
~A
# ...
  234.5000   226.6520    37.2770   -34.6240    53.8210    73.2200    73.5260    25.2290    23.5780   -19.5450     2.1930 
  234.6250   226.7680    37.3120   -34.6550    51.8560    75.1280    75.2480    30.8470    23.6490   -19.9150     2.1960 
  234.7500   226.8850    37.3460   -34.6850    49.5960    77.1920    76.9930    31.6500    23.7880   -20.1790     2.2000 
  234.8750   227.0010    37.3810   -34.7150    48.7410    79.5190    78.8600    28.3900    23.8870   -20.3330     2.2050 
  235.0000   227.1170    37.4150   -34.7450    50.9830    82.3070    81.0640    26.6020    23.8540   -20.3870     2.2120 
  235.1250   227.2340    37.4500   -34.7750    53.8270    86.0940    84.1570    26.6490    23.8100   -20.3980     2.2190 
  235.2500   227.3500    37.4840   -34.8060    53.5470    91.3310    88.6450    26.1900    23.7950   -20.3720     2.2180 
  235.3750   227.4660    37.5190   -34.8360    50.7300    98.6210    95.1770    25.4500    23.7930   -20.2860     2.2070 
  235.5000   227.5820    37.5530   -34.8660    47.9650   108.4860   104.3220    24.7120    23.7870   -20.1370     2.1900 
  235.6250   227.6990    37.5880   -34.8960    47.2820   121.7590   116.9450    25.4720    23.7760   -19.9020     2.1790 
  235.7500   227.8150    37.6220   -34.9260    47.7580   138.0570   132.6960    26.6960    23.7580   -19.5870     2.1800 
  235.8750   227.9310    37.6570   -34.9570    47.8760   157.5070   151.7840    26.8870    23.7050   -19.2090     2.2000 
  236.0000   228.0480    37.6910   -34.9870    46.9740   180.6610   174.7150    26.8800    23.5720   -18.7690     2.2490 
  236.1250   228.1640    37.7260   -35.0170    47.5640   210.6670   204.2390    28.5790    23.4210   -18.2410     2.3400 
  236.2500   228.2800    37.7600   -35.0470    48.6870   251.8160   244.8760    32.4300    23.3320   -17.6710     2.4560 
  236.3750   228.3960    37.7950   -35.0780    47.8850   308.6750   303.4580    37.7390    23.3110   -17.0960     2.5730 
  236.5000   228.5130    37.8290   -35.1080    45.5430   363.9140   373.7520    43.5430    23.3130   -16.5600     2.6500 
  236.6250   228.6290    37.8640   -35.1380    44.4990   325.8970   388.0010    49.3900    23.3160   -16.1080     2.6620 
  236.7500   228.7450    37.8980   -35.1690    43.9800   206.3820   294.4750    49.2960    23.3340   -15.7570     2.6500 
  236.8750   228.8610    37.9320   -35.2000    43.4380   104.6140   163.0110    46.0040    23.3440   -15.5530     2.6470 
  237.0000   228.9770    37.9670   -35.2300    44.2030    49.3810    73.4580    37.2270    23.3460   -15.5160     2.6460 
  237.1250   229.0940    38.0010   -35.2610    45.8270    25.8450    34.6810    22.7440    23.3460   -15.6510     2.5980 
  237.2500   229.2100    38.0360   -35.2920    45.1090    14.4170    17.8240    12.0880    23.3460   -15.9070     2.5160 
  237.3750   229.3260    38.0700   -35.3220    41.8450     9.0170    10.9080     7.8130    23.3460   -16.2730     2.4400 
  237.5000   229.4420    38.1050   -35.3530    39.5320     6.7050     8.0120     6.8550    23.3460   -16.7060     2.3940 
  237.6250   229.5580    38.1390   -35.3840    40.5270     6.1880     6.9850     7.0440    23.3460   -17.2220     2.3740 
  237.7500   229.6750    38.1730   -35.4140    42.3390     6.3760     6.7780     7.0500    23.3460   -17.7840     2.3620 
  237.8750   229.7910    38.2080   -35.4450    42.2820     6.8070     7.0160     7.0030    23.3460   -18.3180     2.3570 
  238.0000   229.9070    38.2420   -35.4760    39.7490     7.2010     7.4080     7.0950    23.3460   -18.8000     2.3610 
  238.1250   230.0230    38.2770   -35.5060    37.3000     7.4710     7.7740     7.5900    23.3460   -19.2530     2.3720 
  238.2500   230.1390    38.3110   -35.5370    36.9230     7.7130     8.0910     7.9470    23.3460   -19.7220     2.3800 
  238.3750   230.2560    38.3460   -35.5680    39.1150     7.9740     8.3800     7.6910    23.3460   -20.1950     2.3850 
  238.5000   230.3720    38.3800   -35.5980    42.5770     8.2480     8.6430     7.3800    23.3460   -20.6680     2.3930 
  238.6250   230.4880    38.4140   -35.6290    44.3470     8.4770     8.8330     7.5200    23.3460   -21.1190     2.4040 
  238.7500   230.6040    38.4490   -35.6600    43.9730     8.5940     8.8950     7.7810    23.3460   -21.5430     2.4100 
  238.8750   230.7200    38.4830   -35.6900    41.8200     8.5450     8.7790     7.9030    23.3460   -21.9810     2.4100 
  239.0000   230.8370    38.5180   -35.7210    40.4930     8.3220     8.4880     7.9540    23.3460   -22.4620     2.4100 
  239.1250   230.9530    38.5520   -35.7520    44.3980     7.9910     8.1000     7.9730    23.3460   -22.9500     2.4110 
  239.2500   231.0690    38.5860   -35.7820    50.7990     7.7330     7.7680     7.7620    23.3460   -23.3900     2.4080 
  239.3750   231.1850    38.6210   -35.8130    52.4390     7.6940     7.6030     7.5640    23.3460   -23.7740     2.4030 
  239.5000   231.3010    38.6550   -35.8440    47.9410     7.9700     7.6670     7.4930    23.3460   -24.0790     2.3990 
  239.6250   231.4170    38.6900   -35.8740    44.8450     8.6180     8.0070     7.7230    23.3460   -24.2660     2.3940 
  239.7500   231.5340    38.7240   -35.9050    45.0730     9.4540     8.5170     8.1740    23.3460   -24.3140     2.3830 
  239.8750   231.6500    38.7590   -35.9360    44.5980    10.2390     9.0520     8.7360    23.3460   -24.1710     2.3680 
  240.0000   231.7660    38.7930   -35.9660    42.5200    10.6910     9.4110     9.3470    23.3460   -23.8170     2.3570 
  240.1250   231.8820    38.8270   -35.9970    41.7000    10.5130     9.3410     9.4340    23.3460   -23.2650     2.3570 
  240.2500   231.9980    38.8620   -36.0280    42.7290     9.8280     8.8810     9.0480    23.3460   -22.6240     2.3610 
  240.3750   232.1150    38.8960   -36.0580    44.2820     8.8480     8.1660     8.1260    23.3460   -21.9650     2.3590 
  240.5000   232.2310    38.9310   -36.0890    45.9340     7.8500     7.3950     7.1640    23.3460   -21.3700     2.3490 
  240.6250   232.3470    38.9650   -36.1200    48.6180     7.1200     6.7740     6.7130    23.3460   -20.9440     2.3390 
  240.7500   232.4630    38.9990   -36.1500    51.9030     6.7490     6.3900     6.6830    23.3460   -20.7230     2.3410 
  240.8750   232.5790    39.0340   -36.1810    53.8790     6.7590     6.2740     6.8080    23.3460   -20.7260     2.3560 
  241.0000   232.6960    39.0680   -36.2120    54.7190     7.0980     6.4120     6.9380    23.3460   -20.9300     2.3810 
  241.1250   232.8120    39.1030   -36.2420    57.2320     7.6540     6.7660     7.0000    23.3460   -21.3180     2.4050 
  241.2500   232.9280    39.1370   -36.2730    62.6720     8.2300     7.1960     7.1710    23.3460   -21.8090     2.4190 
  241.3750   233.0440    39.1720   -36.3040    68.6850     8.7070     7.6070     7.2770    23.3460   -22.3230     2.4200 
  241.5000   233.1600    39.2060   -36.3340    73.1260     9.0190     7.9300     7.2810    23.3460   -22.7980     2.4150 
  241.6250   233.2760    39.2400   -36.3650    75.5570     9.1310     8.1170     7.1910    23.3460   -23.1780     2.4120 
  241.7500   233.3930    39.2750   -36.3950    78.8550     9.1290     8.2110     7.0870    23.3460   -23.4480     2.4070 
  241.8750   233.5090    39.3090   -36.4260    83.7830     9.0850     8.2560     7.0460    23.3460   -23.6030     2.4000 
  242.0000   233.6250    39.3440   -36.4570    89.4780     9.0630     8.2950     7.0450    23.3460   -23.6640     2.3920 
  242.1250   233.7410    39.3780   -36.4870    94.6130     9.1070     8.3620     7.0580    23.3460   -23.6310     2.3840 
  242.2500   233.8570    39.4120   -36.5180    99.5830     9.2020     8.4570     7.1730    23.3460   -23.5390     2.3740 
  242.3750   233.9740    39.4470   -36.5490   104.8030     9.3250     8.5630     7.3740    23.3460   -23.4250     2.3670 
  242.5000   234.0900    39.4810   -36.5790   108.2060     9.4630     8.6660     7.5710    23.3460   -23.3100     2.3650 
  242.6250   234.2060    39.5160   -36.6100   108.4510     9.6180     8.7540     7.6340    23.3460   -23.1760     2.3620 
