~V
VERS. 2.00: Ver 2.00
~W
STRT.M 44.0000:
STOP.M 275.0000:
STEP.M 0.1250:
NULL. -999.2500:
UWI. FD11190:
~C
DEPT.M :
TVD. :
DX. :
DY. :
SP.MV :
GR.API :
RI. :
RML.OHMM :
RXO.OHMM :
DEN.GM/CC :
~A
# ...
  217.3750   207.5850   -45.0600   -24.8800    -6.1050    89.1080     8.8400     9.7230    20.9430     2.5690 
  217.5000   207.6990   -45.1040   -24.9050    -5.3660    85.8600     6.8750     7.2040    17.3170     2.5190 
  217.6250   207.8130   -45.1470   -24.9310    -4.6260    82.1140     4.5450     4.8510     9.8180     2.4420 
  217.7500   207.9270   -45.1910   -24.9570    -3.8990    78.0000     3.0510     3.3120     4.1830     2.3730 
  217.8750   208.0420   -45.2350   -24.9830    -3.2070    71.5510     2.2780     2.6020     2.6590     2.3390 
  218.0000   208.1560   -45.2780   -25.0090    -2.5680    62.7940     1.9170     2.3620     2.6300     2.3420 
  218.1250   208.2700   -45.3220   -25.0350    -1.9530    55.0740     1.8820     2.3810     2.5860     2.3650 
  218.2500   208.3840   -45.3650   -25.0610    -1.3830    52.0730     1.9480     2.4470     2.4300     2.3900 
  218.3750   208.4990   -45.4090   -25.0870    -0.9800    52.8290     2.0080     2.4620     2.3060     2.4070 
  218.5000   208.6130   -45.4520   -25.1130    -0.7740    56.5600     2.0210     2.4210     2.2420     2.4140 
  218.6250   208.7270   -45.4960   -25.1400    -0.7300    60.1450     2.0060     2.3600     2.2270     2.4040 
  218.7500   208.8420   -45.5390   -25.1660    -0.8050    63.4120     1.9880     2.3170     2.2460     2.3790 
  218.8750   208.9560   -45.5820   -25.1920    -0.9200    69.0780     1.9930     2.3110     2.2940     2.3510 
  219.0000   209.0700   -45.6260   -25.2180    -1.0710    76.9120     2.0240     2.3370     2.4010     2.3310 
  219.1250   209.1840   -45.6690   -25.2440    -1.2960    81.8370     2.0680     2.3730     2.6240     2.3200 
  219.2500   209.2990   -45.7130   -25.2700    -1.5880    82.2250     2.0980     2.3880     2.8240     2.3170 
  219.3750   209.4130   -45.7560   -25.2960    -1.8970    81.1460     2.0840     2.3560     2.7420     2.3250 
  219.5000   209.5270   -45.7990   -25.3220    -2.1180    82.0990     2.0120     2.2920     2.4690     2.3370 
  219.6250   209.6420   -45.8430   -25.3480    -2.1920    85.2000     1.9230     2.2400     2.2930     2.3430 
  219.7500   209.7560   -45.8860   -25.3740    -2.1640    88.8250     1.8760     2.2620     2.3200     2.3430 
  219.8750   209.8700   -45.9290   -25.4000    -2.1390    89.0300     1.9280     2.3980     2.5600     2.3380 
  220.0000   209.9850   -45.9730   -25.4260    -2.1040    87.0150     2.0790     2.6320     2.9400     2.3280 
  220.1250   210.0990   -46.0160   -25.4520    -2.1130    86.7850     2.2960     2.9370     3.4430     2.3160 
  220.2500   210.2130   -46.0600   -25.4780    -2.2650    88.1700     2.5550     3.2630     4.0220     2.3100 
  220.3750   210.3270   -46.1030   -25.5040    -2.5810    87.8710     2.8280     3.5710     4.4770     2.3090 
  220.5000   210.4420   -46.1470   -25.5300    -3.0860    85.0740     3.0740     3.8360     4.6140     2.3030 
  220.6250   210.5560   -46.1900   -25.5560    -3.6770    82.8610     3.3020     4.0400     4.5360     2.2930 
  220.7500   210.6700   -46.2340   -25.5820    -4.2200    81.5040     3.4740     4.2090     4.5430     2.2860 
  220.8750   210.7850   -46.2770   -25.6070    -4.7160    78.0640     3.6390     4.3790     4.7170     2.2840 
  221.0000   210.8990   -46.3210   -25.6330    -5.2350    73.5270     3.8430     4.5970     5.2280     2.2820 
  221.1250   211.0130   -46.3640   -25.6590    -5.8430    71.2090     4.0870     4.9380     6.2120     2.2770 
  221.2500   211.1270   -46.4080   -25.6850    -6.5390    72.0230     4.4510     5.4740     7.1530     2.2710 
  221.3750   211.2420   -46.4520   -25.7100    -7.2770    72.8540     5.0870     6.2940     8.3320     2.2740 
  221.5000   211.3560   -46.4950   -25.7360    -8.1100    72.3940     5.9570     7.3730    10.6160     2.2920 
  221.6250   211.4700   -46.5390   -25.7620    -9.0180    70.4330     7.0560     8.6340    12.8550     2.3130 
  221.7500   211.5840   -46.5830   -25.7880    -9.9830    69.5880     8.2680     9.8910    13.7250     2.3090 
  221.8750   211.6990   -46.6260   -25.8140   -11.0420    72.1950     9.3980    10.9260    14.5220     2.2750 
  222.0000   211.8130   -46.6700   -25.8400   -12.1380    76.4630    10.2600    11.6680    15.6730     2.2370 
  222.1250   211.9270   -46.7140   -25.8650   -13.3060    75.9530    10.8260    12.1960    15.5230     2.2150 
  222.2500   212.0410   -46.7580   -25.8910   -14.5700    70.2590    11.3170    12.6960    14.5590     2.2030 
  222.3750   212.1550   -46.8010   -25.9170   -15.8390    67.1640    11.8480    13.3520    14.1490     2.1910 
  222.5000   212.2700   -46.8450   -25.9430   -16.9350    69.8700    12.5530    14.2610    14.0310     2.1840 
  222.6250   212.3840   -46.8890   -25.9690   -17.8260    71.5930    13.5760    15.4980    14.1220     2.1870 
  222.7500   212.4980   -46.9330   -25.9950   -18.5670    69.5680    14.8060    17.0150    15.1630     2.1940 
  222.8750   212.6120   -46.9760   -26.0210   -19.1000    68.5080    16.3160    18.6310    17.3070     2.1950 
  223.0000   212.7260   -47.0200   -26.0470   -19.5650    70.5540    17.7800    20.0900    19.2620     2.1870 
  223.1250   212.8400   -47.0640   -26.0740   -19.8860    73.0650    18.9520    21.1680    19.7440     2.1810 
  223.2500   212.9550   -47.1080   -26.1000   -20.0850    75.6950    19.8200    21.8680    18.9940     2.1890 
  223.3750   213.0690   -47.1510   -26.1260   -20.2000    78.3030    20.3670    22.2290    18.3600     2.2110 
  223.5000   213.1830   -47.1950   -26.1520   -20.2870    78.3960    20.6950    22.3790    18.8600     2.2270 
  223.6250   213.2970   -47.2390   -26.1780   -20.3690    74.5540    20.8250    22.3850    20.2350     2.2250 
  223.7500   213.4110   -47.2830   -26.2040   -20.4370    70.6650    20.8390    22.3240    21.5580     2.2140 
  223.8750   213.5250   -47.3260   -26.2300   -20.5060    68.9170    20.8010    22.2270    21.7840     2.2060 
  224.0000   213.6390   -47.3700   -26.2570   -20.5880    68.3030    20.7480    22.1300    20.7670     2.2060 
  224.1250   213.7530   -47.4140   -26.2830   -20.6940    68.1160    20.7160    22.1150    19.9090     2.2090 
  224.2500   213.8680   -47.4580   -26.3090   -20.8500    67.7050    20.8260    22.2770    20.1310     2.2110 
  224.3750   213.9820   -47.5020   -26.3350   -21.0100    65.1330    21.2500    23.0100    20.7600     2.2140 
  224.5000   214.0960   -47.5450   -26.3610   -21.0960    60.6090    21.9040    23.9360    21.1860     2.2180 
  224.6250   214.2100   -47.5890   -26.3870   -21.0690    58.0060    22.7360    24.8840    21.8510     2.2270 
  224.7500   214.3240   -47.6330   -26.4130   -20.9920    59.3680    23.5780    25.4770    22.7470     2.2510 
  224.8750   214.4380   -47.6770   -26.4390   -20.9260    59.8040    24.1960    25.6350    21.9950     2.2890 
  225.0000   214.5520   -47.7210   -26.4650   -20.8100    57.1850    24.2050    25.1290    19.3890     2.3180 
  225.1250   214.6660   -47.7650   -26.4920   -20.6160    55.9460    23.4310    23.7560    17.4930     2.3120 
  225.2500   214.7810   -47.8080   -26.5180   -20.4110    58.4910    21.8300    21.7970    16.9210     2.2730 
  225.3750   214.8950   -47.8520   -26.5440   -20.3240    61.5110    19.7600    19.6810    15.9720     2.2260 
  225.5000   215.0090   -47.8960   -26.5700   -20.4090    63.4510    17.9070    17.9290    14.3640     2.1950 
  225.6250   215.1230   -47.9390   -26.5970   -20.5810    65.3910    16.5820    16.9310    13.4410     2.1820 
  225.7500   215.2370   -47.9830   -26.6230   -20.7560    67.3400    16.0800    16.7490    13.5700     2.1740 
  225.8750   215.3510   -48.0270   -26.6490   -20.8960    68.0840    16.3940    17.3710    14.4610     2.1650 
  226.0000   215.4650   -48.0700   -26.6760   -21.0220    67.4450    17.3760    18.4800    15.8020     2.1600 
  226.1250   215.5790   -48.1140   -26.7020   -21.1190    65.1800    18.7510    19.7430    16.9180     2.1640 
  226.2500   215.6940   -48.1570   -26.7290   -21.1790    61.2070    20.0550    20.8070    17.8690     2.1690 
  226.3750   215.8080   -48.2010   -26.7550   -21.1780    58.5490    21.0020    21.4230    18.5330     2.1700 
