~V
VERS. 2.00: Ver 2.00
~W
STRT.M 40.0000:
STOP.M 279.0000:
STEP.M 0.1250:
NULL. -999.2500:
UWI. FD11188:
~C
DEPT.M :
TVD. :
DX. :
DY. :
SP.MV :
GR.API :
RI. :
RML.OHMM :
RXO.OHMM :
DEN.GM/CC :
~A
# ...
  176.8750   171.5150     8.7260    29.7900   -17.9130    72.4350    27.6260    27.7050    25.6180     2.1600 
  177.0000   171.6300     8.7360    29.8400   -17.9170    71.0450    26.3400    26.4200    24.4130     2.1570 
  177.1250   171.7440     8.7460    29.8900   -17.8940    68.7770    25.6680    25.7720    25.0730     2.1610 
  177.2500   171.8580     8.7560    29.9390   -17.8410    68.6750    25.5220    25.6740    26.7070     2.1650 
  177.3750   171.9720     8.7660    29.9890   -17.7560    69.7960    25.9160    26.1380    27.5140     2.1680 
  177.5000   172.0870     8.7770    30.0380   -17.6410    70.1740    26.8530    27.1880    27.0700     2.1690 
  177.6250   172.2010     8.7870    30.0880   -17.4910    69.3410    28.3390    28.8520    27.0000     2.1540 
  177.7500   172.3150     8.7970    30.1380   -17.3070    68.2080    29.9940    30.7160    28.1850     2.1200 
  177.8750   172.4300     8.8070    30.1870   -17.0950    66.0730    31.1850    32.0750    31.3880     2.0880 
  178.0000   172.5440     8.8170    30.2370   -16.8790    62.6490    31.3110    32.2720    35.0400     2.0800 
  178.1250   172.6580     8.8270    30.2870   -16.6930    60.2970    30.0860    30.9940    34.8830     2.0970 
  178.2500   172.7720     8.8380    30.3360   -16.5650    60.9130    27.8400    28.5930    31.7670     2.1200 
  178.3750   172.8870     8.8480    30.3860   -16.5160    64.8120    25.3620    25.9730    29.5350     2.1400 
  178.5000   173.0010     8.8580    30.4350   -16.5320    67.9110    23.3260    23.8140    28.6000     2.1500 
  178.6250   173.1150     8.8680    30.4850   -16.5830    67.8090    21.9890    22.4230    27.8660     2.1460 
  178.7500   173.2290     8.8780    30.5350   -16.6260    66.6410    21.2180    21.6020    28.2870     2.1330 
  178.8750   173.3440     8.8880    30.5840   -16.6280    66.1510    20.4800    20.8180    29.8310     2.1230 
  179.0000   173.4580     8.8980    30.6340   -16.5870    66.5790    19.5600    19.7810    30.4090     2.1210 
  179.1250   173.5720     8.9080    30.6840   -16.5110    67.4440    18.2640    18.3510    27.9190     2.1230 
  179.2500   173.6870     8.9180    30.7330   -16.4130    69.8760    16.9390    16.8940    24.5030     2.1330 
  179.3750   173.8010     8.9280    30.7830   -16.2980    72.7340    15.7060    15.5500    23.9460     2.1470 
  179.5000   173.9150     8.9380    30.8330   -16.1680    74.4890    14.7930    14.5750    23.7660     2.1550 
  179.6250   174.0290     8.9480    30.8820   -16.0270    75.5710    14.3460    14.0900    22.0020     2.1580 
  179.7500   174.1440     8.9580    30.9320   -15.8860    77.3510    14.2430    13.9840    20.8180     2.1620 
  179.8750   174.2580     8.9690    30.9820   -15.7580    78.6560    14.4590    14.2050    20.6610     2.1650 
  180.0000   174.3720     8.9790    31.0320   -15.6530    78.3500    14.8660    14.6300    20.7560     2.1550 
  180.1250   174.4860     8.9890    31.0810   -15.5780    76.7450    15.0700    14.8270    21.9080     2.1370 
  180.2500   174.6010     8.9990    31.1310   -15.5330    73.9490    14.9440    14.7140    24.4290     2.1250 
  180.3750   174.7150     9.0090    31.1810   -15.5160    71.0770    14.6250    14.4080    27.4610     2.1280 
  180.5000   174.8290     9.0190    31.2310   -15.5170    69.6220    14.3300    14.1530    27.5810     2.1380 
  180.6250   174.9430     9.0290    31.2800   -15.5220    69.9660    14.3750    14.2600    24.0390     2.1380 
  180.7500   175.0570     9.0390    31.3300   -15.5220    70.3450    14.7880    14.7520    22.1200     2.1220 
  180.8750   175.1720     9.0490    31.3800   -15.5130    69.3320    15.6170    15.6660    22.8500     2.1120 
  181.0000   175.2860     9.0590    31.4300   -15.5090    68.8400    16.4780    16.5790    23.6720     2.1210 
  181.1250   175.4000     9.0690    31.4800   -15.5300    70.0060    17.1780    17.2730    24.0780     2.1360 
  181.2500   175.5140     9.0790    31.5300   -15.5910    71.7440    17.4660    17.5300    24.3760     2.1440 
  181.3750   175.6280     9.0890    31.5800   -15.6960    72.5810    17.6040    17.6870    24.3620     2.1480 
  181.5000   175.7420     9.0990    31.6300   -15.8210    73.2570    18.0020    18.1710    23.7640     2.1500 
  181.6250   175.8570     9.1090    31.6800   -15.9370    74.6570    18.8560    19.1840    24.0320     2.1490 
  181.7500   175.9710     9.1190    31.7300   -16.0200    74.6780    20.0820    20.6100    25.4860     2.1470 
  181.8750   176.0850     9.1290    31.7800   -16.0650    71.8650    21.5260    22.2510    26.7530     2.1560 
  182.0000   176.1990     9.1380    31.8300   -16.0900    67.7650    23.0470    23.9460    28.1200     2.1720 
  182.1250   176.3130     9.1480    31.8790   -16.1210    66.2350    24.4580    25.5120    29.5140     2.1790 
  182.2500   176.4270     9.1580    31.9290   -16.1700    69.1140    25.7250    26.9300    30.2650     2.1670 
  182.3750   176.5420     9.1680    31.9790   -16.2350    71.6040    26.8990    28.2550    30.1630     2.1460 
  182.5000   176.6560     9.1780    32.0290   -16.2960    69.7380    27.9950    29.4590    29.8410     2.1350 
  182.6250   176.7700     9.1880    32.0790   -16.3290    65.7440    28.8980    30.4230    31.0110     2.1370 
  182.7500   176.8840     9.1970    32.1290   -16.3200    65.8350    29.6550    31.2110    32.5560     2.1470 
  182.8750   176.9980     9.2070    32.1790   -16.2590    70.8690    30.3170    31.9230    34.1560     2.1680 
  183.0000   177.1120     9.2170    32.2290   -16.1570    76.0190    31.1930    32.8980    36.7030     2.1870 
  183.1250   177.2270     9.2270    32.2790   -16.0240    77.1030    32.4280    34.2940    39.3000     2.1830 
  183.2500   177.3410     9.2360    32.3290   -15.8710    72.8700    34.0270    36.1070    40.9810     2.1540 
  183.3750   177.4550     9.2460    32.3790   -15.7010    66.2020    35.8180    38.1110    40.6880     2.1250 
  183.5000   177.5690     9.2560    32.4290   -15.5170    61.7910    37.4910    39.9300    40.9380     2.1120 
  183.6250   177.6830     9.2660    32.4790   -15.3220    60.5910    38.2970    40.7560    42.4650     2.1020 
  183.7500   177.7970     9.2750    32.5290   -15.1280    58.9180    38.3460    40.7790    42.4360     2.0930 
  183.8750   177.9120     9.2850    32.5790   -14.9470    57.4600    37.9150    40.3320    40.6820     2.0960 
  184.0000   178.0260     9.2950    32.6290   -14.7880    58.8600    37.8450    40.3720    38.8970     2.1090 
  184.1250   178.1400     9.3040    32.6790   -14.6530    62.7480    38.6760    41.4570    39.5270     2.1100 
  184.2500   178.2540     9.3140    32.7290   -14.5340    65.2380    40.3880    43.5680    42.5110     2.0880 
  184.3750   178.3680     9.3230    32.7790   -14.4200    63.9870    42.9100    46.5460    42.7010     2.0660 
  184.5000   178.4820     9.3330    32.8290   -14.2970    61.3720    45.1470    49.1100    40.7340     2.0620 
  184.6250   178.5960     9.3430    32.8790   -14.1540    59.7330    45.9180    49.8890    40.9560     2.0660 
  184.7500   178.7110     9.3520    32.9290   -13.9880    60.5580    44.4380    48.0560    40.9550     2.0700 
  184.8750   178.8250     9.3620    32.9790   -13.7980    62.2350    40.9150    43.9820    39.9370     2.0770 
  185.0000   178.9390     9.3710    33.0290   -13.5860    62.4120    36.8000    39.2880    37.9720     2.0880 
  185.1250   179.0530     9.3810    33.0790   -13.3540    62.7250    33.4770    35.5120    35.0640     2.1000 
  185.2500   179.1670     9.3910    33.1290   -13.1060    64.2210    31.5120    33.2360    33.6750     2.1060 
  185.3750   179.2810     9.4000    33.1800   -12.8520    64.5360    30.6140    32.0630    33.9330     2.1000 
  185.5000   179.3950     9.4100    33.2300   -12.6070    63.0260    30.0220    31.2350    34.5580     2.0870 
  185.6250   179.5090     9.4190    33.2800   -12.3970    62.4800    29.6730    30.6300    34.5460     2.0870 
  185.7500   179.6230     9.4290    33.3300   -12.2540    63.7070    29.2580    29.9210    33.2980     2.1060 
  185.8750   179.7370     9.4380    33.3800   -12.2180    65.8890    28.8230    29.2430    32.7860     2.1280 
