~V
VERS. 2.00: Ver 2.00
~W
STRT.M 40.0000:
STOP.M 279.0000:
STEP.M 0.1250:
NULL. -999.2500:
UWI. FD11188:
~C
DEPT.M :
TVD. :
DX. :
DY. :
SP.MV :
GR.API :
RI. :
RML.OHMM :
RXO.OHMM :
DEN.GM/CC :
~A
# ...
   67.3750    67.3700    -0.2410     0.3060   -36.6230    63.1780     5.0570     5.7180     8.7440     2.1420 
   67.5000    67.4950    -0.2400     0.3100   -36.8860    64.0000     5.3780     6.0790     9.5210     2.1740 
   67.6250    67.6200    -0.2380     0.3140   -37.1430    63.5290     5.6580     6.3720     9.1990     2.1730 
   67.7500    67.7450    -0.2360     0.3180   -37.3570    62.0150     5.7710     6.4560     9.1950     2.1480 
   67.8750    67.8690    -0.2340     0.3220   -37.4820    60.8650     5.7320     6.3680     9.1540     2.1170 
   68.0000    67.9940    -0.2320     0.3270   -37.5160    60.9850     5.5100     6.0750     8.4320     2.0970 
   68.1250    68.1190    -0.2290     0.3310   -37.4720    61.9490     5.2580     5.7700     7.3940     2.0830 
   68.2500    68.2440    -0.2270     0.3350   -37.3970    62.4350     5.0270     5.4860     6.7450     2.0710 
   68.3750    68.3690    -0.2250     0.3400   -37.3320    62.5930     4.8490     5.2710     6.5410     2.0570 
   68.5000    68.4940    -0.2230     0.3440   -37.2970    62.5240     4.7730     5.1720     6.4160     2.0470 
   68.6250    68.6190    -0.2200     0.3480   -37.2950    62.5710     4.7730     5.1540     6.5390     2.0480 
   68.7500    68.7440    -0.2180     0.3530   -37.3070    63.4040     4.8400     5.2050     6.7150     2.0540 
   68.8750    68.8690    -0.2150     0.3570   -37.3120    65.4920     4.9190     5.2700     6.7320     2.0610 
   69.0000    68.9940    -0.2130     0.3620   -37.2930    67.9730     4.9870     5.3210     6.9040     2.0620 
   69.1250    69.1180    -0.2100     0.3660   -37.2350    67.7960     5.0230     5.3430     7.1800     2.0550 
   69.2500    69.2430    -0.2080     0.3710   -37.1340    65.2290     5.0350     5.3460     7.1860     2.0470 
   69.3750    69.3680    -0.2050     0.3760   -36.9880    62.8300     5.0280     5.3210     7.0780     2.0440 
   69.5000    69.4930    -0.2020     0.3810   -36.8040    62.5360     5.0020     5.2850     7.0140     2.0470 
   69.6250    69.6180    -0.2000     0.3860   -36.5780    64.6350     4.9600     5.2320     7.1260     2.0510 
   69.7500    69.7430    -0.1970     0.3910   -36.3040    67.7400     4.8990     5.1610     7.3450     2.0540 
   69.8750    69.8680    -0.1940     0.3960   -35.9540    69.7440     4.8260     5.0810     7.2420     2.0560 
   70.0000    69.9930    -0.1910     0.4010   -35.5050    69.7000     4.7660     5.0070     6.9730     2.0560 
   70.1250    70.1170    -0.1880     0.4060   -34.9130    67.5190     4.8340     5.0730     6.9560     2.0620 
   70.2500    70.2420    -0.1850     0.4110   -34.1600    65.0600     5.2280     5.5450     7.3550     2.1040 
   70.3750    70.3670    -0.1820     0.4160   -33.2150    63.5540     6.0430     6.5420     8.6950     2.2180 
   70.5000    70.4920    -0.1790     0.4220   -32.1130    64.4270     6.7670     7.4720    16.6580     2.3610 
   70.6250    70.6170    -0.1750     0.4270   -30.9140    67.5110     7.2370     8.0950    34.9570     2.4250 
   70.7500    70.7420    -0.1720     0.4320   -29.3110    73.1160     6.9250     7.6670    30.7740     2.3740 
   70.8750    70.8670    -0.1680     0.4380   -28.4020    78.2670     6.2170     6.7180    12.2980     2.2720 
   71.0000    70.9910    -0.1650     0.4430   -27.7520    83.9790     5.4580     5.7550     6.7350     2.2030 
   71.1250    71.1160    -0.1610     0.4490   -27.3510    87.7630     4.9420     5.1520     6.9250     2.1670 
   71.2500    71.2410    -0.1580     0.4540   -27.0830    88.5760     4.7720     5.0190     6.8090     2.1310 
   71.3750    71.3660    -0.1540     0.4600   -26.8340    89.5440     4.9290     5.2300     6.8830     2.1060 
   71.5000    71.4910    -0.1500     0.4650   -26.5180    93.6140     5.1030     5.4160     7.0310     2.1100 
   71.6250    71.6150    -0.1460     0.4710   -26.0860    98.7780     5.1000     5.3790     6.5970     2.1280 
   71.7500    71.7400    -0.1430     0.4760   -25.5510   100.4480     4.9690     5.2050     6.0210     2.1350 
   71.8750    71.8650    -0.1390     0.4820   -24.9470    99.3850     4.7400     4.9250     5.7740     2.1330 
   72.0000    71.9900    -0.1350     0.4880   -24.3390   100.4610     4.4910     4.6200     5.4960     2.1470 
   72.1250    72.1150    -0.1310     0.4930   -23.8070   104.1670     4.3320     4.4180     5.1240     2.1730 
   72.2500    72.2400    -0.1270     0.4990   -23.4180   107.8460     4.2870     4.3400     4.9090     2.1870 
   72.3750    72.3640    -0.1230     0.5050   -23.2290   109.8440     4.3580     4.3920     5.0630     2.1840 
   72.5000    72.4890    -0.1190     0.5110   -23.2150   110.0240     4.4730     4.5100     5.4720     2.1790 
   72.6250    72.6140    -0.1140     0.5170   -23.3140   107.2380     4.6080     4.6600     5.9530     2.1710 
   72.7500    72.7390    -0.1100     0.5230   -23.4080   102.6860     4.6820     4.7560     6.0750     2.1580 
   72.8750    72.8630    -0.1060     0.5290   -23.3870   101.2360     4.7100     4.8050     5.8000     2.1520 
   73.0000    72.9880    -0.1010     0.5350   -23.2160   104.0350     4.6420     4.7480     5.6310     2.1560 
   73.1250    73.1130    -0.0970     0.5410   -22.9190   107.5460     4.5440     4.6720     5.5690     2.1590 
   73.2500    73.2380    -0.0920     0.5470   -22.5820   109.1340     4.4430     4.5980     5.5650     2.1550 
   73.3750    73.3630    -0.0870     0.5530   -22.2880   109.4080     4.3530     4.5360     5.5030     2.1510 
   73.5000    73.4870    -0.0830     0.5600   -22.0820   109.5800     4.2670     4.4770     5.5690     2.1460 
   73.6250    73.6120    -0.0780     0.5660   -21.9910   110.1490     4.1620     4.3970     5.9170     2.1490 
   73.7500    73.7370    -0.0730     0.5720   -22.0120   111.0430     4.0370     4.2770     5.8960     2.1620 
   73.8750    73.8610    -0.0680     0.5790   -22.1680   111.4700     4.0130     4.2700     5.5860     2.1790 
   74.0000    73.9860    -0.0630     0.5850   -22.4720   108.8180     4.2400     4.5450     5.4880     2.2050 
   74.1250    74.1110    -0.0580     0.5920   -22.9640   103.3600     4.6690     5.0740     6.7370     2.2540 
   74.2500    74.2360    -0.0530     0.5990   -23.6370    97.5080     5.2530     5.8050    10.2130     2.3010 
   74.3750    74.3600    -0.0470     0.6060   -24.4690    93.1540     5.8590     6.5580    11.7080     2.2820 
   74.5000    74.4850    -0.0420     0.6130   -25.3680    87.9270     6.2890     7.0380     9.1940     2.1970 
   74.6250    74.6100    -0.0370     0.6190   -26.2210    81.6260     6.2900     6.9650     7.3230     2.1100 
   74.7500    74.7340    -0.0310     0.6260   -26.9340    77.5370     6.0530     6.6030     7.2190     2.0720 
   74.8750    74.8590    -0.0260     0.6340   -27.4360    76.8880     5.6580     6.0810     7.0710     2.0720 
   75.0000    74.9840    -0.0200     0.6410   -27.7470    77.9720     5.3810     5.7560     6.9960     2.0670 
   75.1250    75.1080    -0.0150     0.6480   -27.8990    78.3240     5.3480     5.7290     7.2550     2.0530 
   75.2500    75.2330    -0.0090     0.6550   -27.9590    77.5760     5.3920     5.7920     7.5240     2.0460 
   75.3750    75.3580    -0.0030     0.6620   -27.9540    75.0490     5.4690     5.8740     7.6560     2.0460 
   75.5000    75.4820     0.0020     0.6700   -27.8910    72.4770     5.5550     5.9670     7.6070     2.0480 
   75.6250    75.6070     0.0080     0.6770   -27.7480    72.4250     5.6460     6.0570     7.3860     2.0470 
   75.7500    75.7320     0.0140     0.6850   -27.5090    75.4270     5.7260     6.1470     7.3130     2.0480 
   75.8750    75.8560     0.0200     0.6930   -27.1630    78.8460     5.7450     6.1720     7.4490     2.0540 
   76.0000    75.9810     0.0260     0.7000   -26.7340    80.3010     5.7020     6.1310     7.6600     2.0710 
   76.1250    76.1060     0.0320     0.7080   -26.2550    80.6980     5.5450     5.9610     7.6070     2.1000 
   76.2500    76.2300     0.0380     0.7160   -25.7750    82.7410     5.2820     5.6740     7.2100     2.1320 
   76.3750    76.3550     0.0440     0.7240   -25.3580    86.7940     5.0300     5.4050     6.8640     2.1600 
