~V
VERS. 2.00: Ver 2.00
~W
STRT.M 30.0000:
STOP.M 272.0000:
STEP.M 0.1250:
NULL. -999.2500:
UWI. FD11176:
~C
DEPT.M :
TVD. :
DX. :
DY. :
SP.MV :
GR.API :
RI. :
RML.OHMM :
RXO.OHMM :
DEN.GM/CC :
~A
# ...
  249.0000   236.1810    61.0930   -28.7360    -8.2100    76.6580    12.7770    13.6100    18.0360     2.3300 
  249.1250   236.2940    61.1410   -28.7580    -8.2040    74.2110    12.2040    12.9310    16.0670     2.3010 
  249.2500   236.4080    61.1880   -28.7810    -8.1270    70.2970    11.6580    12.2960    14.5240     2.2590 
  249.3750   236.5210    61.2350   -28.8030    -7.9360    64.8330    11.2330    11.8110    13.5340     2.2230 
  249.5000   236.6350    61.2830   -28.8250    -7.5820    59.5540    10.9020    11.4290    13.3580     2.1970 
  249.6250   236.7480    61.3300   -28.8480    -7.0190    57.0400    10.6820    11.1660    12.9180     2.1790 
  249.7500   236.8610    61.3780   -28.8700    -6.3490    57.5150    10.4920    10.9360    12.6340     2.1690 
  249.8750   236.9750    61.4250   -28.8920    -5.7670    59.9790    10.3190    10.7270    12.7400     2.1690 
  250.0000   237.0880    61.4730   -28.9150    -5.4460    61.9430    10.1890    10.5720    13.0890     2.1750 
  250.1250   237.2020    61.5200   -28.9370    -5.5070    64.2280    10.1580    10.5300    13.5410     2.1850 
  250.2500   237.3150    61.5680   -28.9590    -5.9170    66.5450    10.3200    10.7030    13.4790     2.1950 
  250.3750   237.4290    61.6160   -28.9810    -6.5880    67.7870    10.7070    11.1210    12.9540     2.2020 
  250.5000   237.5420    61.6630   -29.0030    -7.3200    66.8250    11.2390    11.6870    12.7020     2.2080 
  250.6250   237.6550    61.7110   -29.0250    -7.9850    63.2790    11.8080    12.2930    13.3020     2.2110 
  250.7500   237.7690    61.7590   -29.0470    -8.5770    59.2330    12.4060    12.9100    14.5480     2.2110 
  250.8750   237.8820    61.8070   -29.0690    -9.0890    58.1920    13.0020    13.4970    15.7130     2.2030 
  251.0000   237.9950    61.8550   -29.0920    -9.4620    60.8390    13.6200    14.1210    16.5090     2.1910 
  251.1250   238.1090    61.9030   -29.1140    -9.6280    63.1280    14.2500    14.7770    17.1120     2.1860 
  251.2500   238.2220    61.9500   -29.1370    -9.6500    62.2210    14.8620    15.4450    18.4470     2.1860 
  251.3750   238.3350    61.9980   -29.1590    -9.6210    58.7080    15.3070    15.9220    19.7500     2.1790 
  251.5000   238.4480    62.0460   -29.1820    -9.5900    56.3550    15.3360    15.9040    20.1380     2.1630 
  251.6250   238.5620    62.0940   -29.2050    -9.5160    56.5480    14.6880    15.1330    20.8980     2.1520 
  251.7500   238.6750    62.1420   -29.2280    -9.3070    57.4990    13.5040    13.8040    20.5490     2.1550 
  251.8750   238.7880    62.1900   -29.2500    -8.8400    57.2860    12.1130    12.3050    17.6620     2.1670 
  252.0000   238.9010    62.2380   -29.2730    -8.1070    57.4750    10.9750    11.1260    14.8270     2.1820 
  252.1250   239.0140    62.2860   -29.2950    -7.2080    60.0880    10.3210    10.4840    13.2970     2.1990 
  252.2500   239.1280    62.3340   -29.3180    -6.3530    63.1440    10.0810    10.2860    12.4310     2.2080 
  252.3750   239.2410    62.3820   -29.3410    -5.6440    62.9970    10.2030    10.4360    12.4690     2.2020 
  252.5000   239.3540    62.4300   -29.3630    -4.9970    61.6610    10.5120    10.7500    13.0190     2.1900 
  252.6250   239.4670    62.4780   -29.3860    -4.3870    62.3360    10.9050    11.1190    13.2070     2.1900 
  252.7500   239.5800    62.5260   -29.4090    -3.9840    64.3960    11.3930    11.5590    13.3480     2.1970 
  252.8750   239.6930    62.5740   -29.4320    -4.0010    64.3850    11.8750    11.9950    14.0200     2.2000 
  253.0000   239.8060    62.6220   -29.4540    -4.3410    64.0840    12.3430    12.4070    15.1390     2.1950 
  253.1250   239.9190    62.6700   -29.4770    -4.7600    65.1110    12.7520    12.7900    16.6790     2.1870 
  253.2500   240.0330    62.7180   -29.5000    -5.0550    66.7640    13.1510    13.1980    17.8400     2.1820 
  253.3750   240.1460    62.7660   -29.5220    -5.1710    67.4410    13.5470    13.6040    17.9730     2.1790 
  253.5000   240.2590    62.8140   -29.5450    -5.1650    67.1910    13.5680    13.6260    17.6940     2.1650 
  253.6250   240.3720    62.8620   -29.5680    -5.0850    65.6270    13.0890    13.1260    17.6880     2.1470 
  253.7500   240.4850    62.9100   -29.5910    -4.9780    62.8750    12.2280    12.2410    18.5220     2.1560 
  253.8750   240.5990    62.9580   -29.6140    -4.8920    60.5570    11.3390    11.3810    18.7820     2.2020 
  254.0000   240.7120    63.0050   -29.6360    -4.8640    61.0600    10.9410    11.0710    16.4970     2.2540 
  254.1250   240.8250    63.0530   -29.6590    -4.9030    64.0510    11.3550    11.6970    13.2560     2.2650 
  254.2500   240.9380    63.1010   -29.6820    -4.9640    68.8380    12.6120    13.2450    15.8190     2.2380 
  254.3750   241.0520    63.1480   -29.7050    -4.9880    75.5010    14.8690    15.7670    30.6750     2.2250 
  254.5000   241.1650    63.1960   -29.7280    -4.9650    81.7110    17.6760    18.7100    40.7310     2.2630 
  254.6250   241.2780    63.2430   -29.7510    -4.9280    82.7260    20.3000    21.3110    33.2380     2.3360 
  254.7500   241.3920    63.2910   -29.7730    -4.9060    78.3630    22.4320    23.3210    27.9450     2.3860 
  254.8750   241.5050    63.3390   -29.7960    -4.8990    73.6590    23.6930    24.5160    32.4280     2.3830 
  255.0000   241.6180    63.3860   -29.8190    -4.8970    71.8330    24.3880    25.2400    69.5530     2.3550 
  255.1250   241.7320    63.4340   -29.8410    -4.8970    72.0980    24.5790    25.5080   117.2790     2.3550 
  255.2500   241.8450    63.4810   -29.8640    -4.8970    72.7910    24.1620    25.1990    96.3180     2.4080 
  255.3750   241.9580    63.5290   -29.8860    -4.8970    73.7750    22.9560    24.0210    45.3920     2.4850 
  255.5000   242.0720    63.5770   -29.9080    -4.8970    75.6010    20.6510    21.6460    34.0120     2.5170 
  255.6250   242.1850    63.6250   -29.9300    -4.8970    79.2400    17.7970    18.6330    39.0690     2.4700 
  255.7500   242.2990    63.6730   -29.9520    -4.8970    82.3030    15.0680    15.7440    32.1400     2.4020 
  255.8750   242.4120    63.7210   -29.9740    -4.8970    83.1460    13.1190    13.6940    20.8800     2.3740 
  256.0000   242.5250    63.7690   -29.9960    -4.8970    81.0300    12.0200    12.5070    19.1100     2.3690 
  256.1250   242.6380    63.8160   -30.0180    -4.8970    79.1900    11.6850    12.1770    24.4890     2.3500 
  256.2500   242.7520    63.8640   -30.0410    -4.8970    78.7030    12.2980    12.9800    23.1770     2.3220 
  256.3750   242.8650    63.9120   -30.0630    -4.8970    78.9090    14.8110    16.0200    23.3690     2.3190 
  256.5000   242.9780    63.9600   -30.0850    -4.8970    77.5470    18.9930    21.0180    36.0470     2.3460 
  256.6250   243.0920    64.0080   -30.1070    -4.8970    74.2030    21.3860    23.4920    44.8910     2.3980 
  256.7500   243.2050    64.0560   -30.1300    -4.8970    70.6510    19.7670    21.5740    44.9760     2.4610 
  256.8750   243.3180    64.1040   -30.1520    -4.8970    67.5170    15.1590    16.2620    49.3130     2.5090 
  257.0000   243.4310    64.1520   -30.1740    -4.8970    65.1940     9.3830     9.8330    53.4870     2.5310 
  257.1250   243.5450    64.2010   -30.1960    -4.8970    64.3830     5.9090     6.2640    39.8120     2.5230 
  257.2500   243.6580    64.2490   -30.2180    -4.8970    63.2670     4.4110     4.7290    18.7090     2.4940 
  257.3750   243.7710    64.2970   -30.2400    -4.8970    60.4770     3.4960     3.8690     7.4220     2.4700 
  257.5000   243.8840    64.3450   -30.2620    -4.8970    58.1330     3.0640     3.5620     4.4360     2.4650 
  257.6250   243.9970    64.3930   -30.2840    -4.8970    58.0020     2.8930     3.5050     4.4980     2.4560 
  257.7500   244.1110    64.4410   -30.3060    -4.8970    57.7080     2.8580     3.5380     4.6020     2.4120 
  257.8750   244.2240    64.4890   -30.3280    -4.8970    58.1470     2.8380     3.5240     4.7510     2.3460 
  258.0000   244.3370    64.5380   -30.3500    -4.8970    60.5340     2.8330     3.5000     4.7250     2.2970 
