~V
VERS. 2.00: Ver 2.00
~W
STRT.M 20.0000:
STOP.M 285.0000:
STEP.M 0.1250:
NULL. -999.2500:
UWI. FD11157:
~C
DEPT.M :
TVD. :
DX. :
DY. :
GR.API :
RML.OHMM :
RI. :
RXO.OHMM :
CALI.CM :
SP.MV :
DEN.GM/CC :
~A
# ...
  119.0000   118.5560    -3.5870    -5.8970    52.9820     8.0170     7.2880    12.0930    23.2850   -34.6370     2.1610 
  119.1250   118.6800    -3.5920    -5.9130    59.9290     8.1070     7.3700    12.2460    23.3680   -34.1070     2.1450 
  119.2500   118.8040    -3.5970    -5.9290    62.5500     8.2550     7.5050    12.4440    23.3400   -33.4810     2.1240 
  119.3750   118.9280    -3.6030    -5.9460    57.5830     8.4610     7.6920    12.4520    23.1510   -32.7390     2.1040 
  119.5000   119.0520    -3.6080    -5.9620    51.8560     8.6630     7.8760    12.2530    23.0460   -31.8420     2.0950 
  119.6250   119.1750    -3.6130    -5.9790    54.8610     8.7430     7.9480    12.0200    23.0650   -30.7680     2.1130 
  119.7500   119.2990    -3.6190    -5.9950    60.4530     8.6520     7.8650    11.8470    23.0470   -29.5290     2.1620 
  119.8750   119.4230    -3.6240    -6.0120    62.7800     8.4000     7.6360    11.3730    23.0190   -28.1390     2.2280 
  120.0000   119.5470    -3.6290    -6.0280    64.3920     8.0440     7.3130    10.2470    23.0030   -26.6670     2.2880 
  120.1250   119.6710    -3.6350    -6.0450    67.6520     7.6670     6.9700     8.7860    22.9320   -25.2450     2.3100 
  120.2500   119.7940    -3.6400    -6.0610    68.8610     7.3270     6.6610     8.0830    22.8780   -23.9150     2.3020 
  120.3750   119.9180    -3.6450    -6.0780    67.6630     7.0370     6.3970     7.8900    22.8570   -22.6990     2.2800 
  120.5000   120.0420    -3.6500    -6.0940    68.5650     6.7710     6.1550     8.2100    22.9460   -21.6260     2.2640 
  120.6250   120.1660    -3.6560    -6.1110    70.7580     6.4750     5.8860     8.2630    22.9860   -20.7540     2.2650 
  120.7500   120.2900    -3.6610    -6.1270    70.4000     6.1530     5.5940     7.6140    23.0560   -20.0730     2.2720 
  120.8750   120.4130    -3.6660    -6.1430    69.9990     5.8680     5.3350     6.6810    23.2560   -19.6540     2.2700 
  121.0000   120.5370    -3.6720    -6.1600    72.7310     5.7200     5.2000     5.7680    23.6620   -19.5090     2.2490 
  121.1250   120.6610    -3.6770    -6.1760    75.8110     5.8280     5.2980     6.2890    23.6410   -19.5320     2.2100 
  121.2500   120.7850    -3.6820    -6.1930    74.3110     6.1650     5.6050     7.8090    23.5550   -19.5370     2.1770 
  121.3750   120.9090    -3.6880    -6.2090    68.4300     6.7050     6.0960     9.3580    23.4600   -19.4730     2.1710 
  121.5000   121.0320    -3.6930    -6.2260    61.2760     7.4400     6.7630    10.1590    23.4230   -19.3150     2.2030 
  121.6250   121.1560    -3.6980    -6.2420    56.2350     9.4080     7.6850    10.5520    23.3680   -18.9790     2.2730 
  121.7500   121.2800    -3.7030    -6.2590    54.0620    10.9460     8.8560    11.1790    23.3740   -18.5120     2.3600 
  121.8750   121.4040    -3.7090    -6.2750    52.6160    12.5030    10.2120    12.5360    23.4330   -17.8670     2.4500 
  122.0000   121.5280    -3.7140    -6.2920    49.3980    13.8350    11.5710    15.3990    23.3900   -17.0390     2.5250 
  122.1250   121.6510    -3.7190    -6.3080    45.3840    14.6350    12.5970    19.0790    23.2740   -16.1230     2.5640 
  122.2500   121.7750    -3.7250    -6.3240    45.9860    15.1320    13.2280    18.1520    23.3380   -15.2480     2.5740 
  122.3750   121.8990    -3.7300    -6.3410    52.1150    15.8370    13.6970    14.9630    23.3420   -14.4820     2.5700 
  122.5000   122.0230    -3.7350    -6.3570    56.3960    17.2700    14.4300    12.7920    23.3280   -13.8530     2.5710 
  122.6250   122.1470    -3.7410    -6.3740    52.8990    19.9220    15.9880    15.1560    23.2480   -13.4580     2.5870 
  122.7500   122.2700    -3.7460    -6.3900    47.0920    23.6000    18.5180    19.9270    23.2040   -13.2400     2.6110 
  122.8750   122.3940    -3.7510    -6.4070    44.0640    27.8460    21.9300    24.4900    23.1970   -13.1370     2.6280 
  123.0000   122.5180    -3.7560    -6.4230    43.7690    31.7010    25.6260    26.5280    23.0340   -13.1100     2.6340 
  123.1250   122.6420    -3.7620    -6.4400    41.5090    33.5790    28.2280    26.6030    23.0970   -13.1370     2.6330 
  123.2500   122.7660    -3.7670    -6.4560    38.1960    33.2750    29.0360    25.9520    23.4050   -13.1890     2.6280 
  123.3750   122.8890    -3.7720    -6.4730    37.5870    31.4310    28.2360    25.6060    23.6810   -13.2320     2.6170 
  123.5000   123.0130    -3.7780    -6.4890    40.5000    28.9740    26.5020    24.5680    23.7740   -13.2750     2.5990 
  123.6250   123.1370    -3.7830    -6.5050    41.9260    26.6710    24.5240    22.0270    23.8460   -13.3290     2.5770 
  123.7500   123.2610    -3.7880    -6.5220    39.2130    24.8320    22.8050    20.4180    23.8970   -13.3910     2.5600 
  123.8750   123.3850    -3.7940    -6.5380    37.1770    23.5040    21.5220    19.7990    23.7960   -13.4590     2.5510 
  124.0000   123.5080    -3.7990    -6.5550    39.8570    22.6690    20.7090    19.7600    23.7340   -13.5320     2.5500 
  124.1250   123.6320    -3.8040    -6.5710    43.5840    22.3160    20.3560    19.2330    23.5410   -13.6150     2.5480 
  124.2500   123.7560    -3.8090    -6.5880    43.6560    22.2610    20.2580    18.6250    23.4650   -13.7070     2.5410 
  124.3750   123.8800    -3.8150    -6.6040    42.0200    22.4280    20.3020    18.2680    23.3650   -13.8170     2.5310 
  124.5000   124.0040    -3.8200    -6.6210    43.2360    22.7740    20.4360    18.2880    23.1270   -13.8870     2.5190 
  124.6250   124.1270    -3.8250    -6.6370    45.6720    23.3040    20.6840    18.6710    23.0150   -13.9010     2.5100 
  124.7500   124.2510    -3.8310    -6.6550    46.2670    23.8690    21.0310    19.2290    23.1880   -13.8690     2.5070 
  124.8750   124.3750    -3.8360    -6.6720    46.3150    24.2860    21.4330    19.3470    23.5340   -13.8100     2.5130 
  125.0000   124.4980    -3.8410    -6.6890    47.2640    24.4380    21.8040    19.0310    23.6740   -13.7350     2.5280 
  125.1250   124.6220    -3.8460    -6.7060    47.3010    24.3090    21.9880    18.5230    23.4550   -13.6290     2.5470 
  125.2500   124.7460    -3.8520    -6.7240    45.7280    23.9980    21.8890    18.6050    23.4150   -13.4790     2.5600 
  125.3750   124.8700    -3.8570    -6.7410    44.8070    23.5060    21.4790    18.5080    23.5100   -13.3020     2.5620 
  125.5000   124.9930    -3.8620    -6.7580    43.9800    22.8330    20.8420    18.2180    23.5100   -13.1560     2.5530 
  125.6250   125.1170    -3.8680    -6.7750    43.7300    22.0940    20.1880    17.2940    23.4740   -13.0360     2.5400 
  125.7500   125.2410    -3.8730    -6.7930    44.9390    21.6070    19.7490    15.8410    23.5110   -12.9430     2.5300 
  125.8750   125.3640    -3.8780    -6.8100    45.9030    21.6420    19.6480    14.6630    23.4990   -12.8870     2.5280 
  126.0000   125.4880    -3.8830    -6.8270    46.4840    22.2220    19.8890    14.4920    23.3570   -12.8270     2.5380 
  126.1250   125.6120    -3.8890    -6.8440    46.4030    23.0200    20.3500    16.2250    23.0610   -12.7570     2.5620 
  126.2500   125.7350    -3.8940    -6.8620    45.8760    23.4990    20.7310    18.5160    23.0250   -12.7300     2.5900 
  126.3750   125.8590    -3.8990    -6.8790    45.2800    23.3760    20.8070    19.5700    23.0160   -12.7210     2.6100 
  126.5000   125.9830    -3.9040    -6.8960    44.4380    22.6520    20.4990    19.3130    23.0210   -12.7180     2.6130 
  126.6250   126.1060    -3.9100    -6.9130    43.5760    21.6320    19.9160    18.2010    23.0490   -12.7180     2.5980 
  126.7500   126.2300    -3.9150    -6.9310    42.0350    20.7630    19.3440    16.5840    23.1420   -12.7250     2.5790 
  126.8750   126.3540    -3.9200    -6.9480    41.4010    20.2340    18.9250    15.8120    23.2060   -12.7310     2.5650 
  127.0000   126.4780    -3.9260    -6.9650    42.4700    20.0710    18.6820    16.3520    23.1410   -12.7800     2.5580 
  127.1250   126.6010    -3.9310    -6.9820    42.6740    20.1610    18.5570    17.0950    23.0390   -12.8790     2.5530 
