~V
VERS. 2.00: Ver 2.00
~W
STRT.M 20.0000:
STOP.M 277.0000:
STEP.M 0.1250:
NULL. -999.2500:
UWI. FD11024:
~C
DEPT.M :
TVD. :
DX. :
DY. :
DEN.GM/CC :
GR.API :
RML.OHMM :
RI. :
RXO.OHMM :
CALI.CM :
SP.MV :
~A
# ...
  152.0000   150.3330     9.7710    14.3950     2.2840    91.4480     5.7480     4.5000     4.5030    21.2900     0.3500 
  152.1250   150.4540     9.7870    14.4210     2.2820    90.0420     5.6600     4.3800     4.3800    21.3260     0.2560 
  152.2500   150.5760     9.8030    14.4470     2.2940    87.2870     5.7910     4.3690     4.3990    21.3690     0.1230 
  152.3750   150.6970     9.8200    14.4730     2.3130    86.4030     6.0850     4.4610     4.6080    21.3680    -0.0470 
  152.5000   150.8180     9.8360    14.4990     2.3280    87.5630     6.4590     4.6250     5.0890    21.3500    -0.2440 
  152.6250   150.9390     9.8530    14.5240     2.3290    87.4680     6.8460     4.8420     5.5040    21.5100    -0.4360 
  152.7500   151.0600     9.8690    14.5500     2.3160    87.2100     7.2270     5.0950     5.0960    21.5260    -0.6480 
  152.8750   151.1810     9.8850    14.5760     2.2960    86.6370     7.6000     5.3750     4.6970    21.5430    -0.8290 
  153.0000   151.3030     9.9020    14.6020     2.2740    83.5300     7.9420     5.6550     4.9300    21.5360    -0.9910 
  153.1250   151.4240     9.9180    14.6280     2.2590    82.0720     8.1690     5.8700     5.6260    21.5290    -1.1180 
  153.2500   151.5450     9.9350    14.6540     2.2510    85.5890     8.2300     5.9780     5.9810    21.5210    -1.2240 
  153.3750   151.6660     9.9510    14.6800     2.2470    88.5420     8.1500     5.9790     5.4510    21.5410    -1.2930 
  153.5000   151.7870     9.9670    14.7060     2.2460    85.0020     8.0940     5.9620     4.8430    21.5970    -1.3410 
  153.6250   151.9090     9.9840    14.7320     2.2470    77.0690     8.4400     6.1530     4.9040    21.8070    -1.3830 
  153.7500   152.0300    10.0000    14.7580     2.2540    72.2100     9.4880     6.7510     5.4320    21.8380    -1.4090 
  153.8750   152.1510    10.0160    14.7840     2.2770    70.4050    11.5090     7.9530     6.1090    21.8500    -1.4500 
  154.0000   152.2720    10.0330    14.8100     2.3190    68.7970    14.6160     9.9250     7.1330    21.8580    -1.4650 
  154.1250   152.3930    10.0500    14.8360     2.3750    66.7700    18.5590    12.7370     9.5260    21.8930    -1.4680 
  154.2500   152.5140    10.0680    14.8630     2.4240    63.6150    21.9690    15.5950    13.0960    21.9210    -1.4270 
  154.3750   152.6340    10.0860    14.8900     2.4490    58.9750    23.1730    17.2490    16.1420    21.8750    -1.3590 
  154.5000   152.7550    10.1040    14.9170     2.4450    55.4710    21.2790    16.6820    15.8670    21.8620    -1.2850 
  154.6250   152.8760    10.1220    14.9440     2.4180    57.9790    17.2210    14.1220    12.0090    21.8600    -1.2350 
  154.7500   152.9970    10.1400    14.9710     2.3860    66.8740    13.4030    11.3400     8.4040    21.8650    -1.1910 
  154.8750   153.1170    10.1580    14.9980     2.3590    75.8550    10.7810     9.1880     6.3130    21.8970    -1.1560 
  155.0000   153.2380    10.1750    15.0250     2.3380    80.8570     9.4280     7.8770     5.6830    22.0950    -1.1590 
  155.1250   153.3590    10.1930    15.0520     2.3210    81.7500     9.1790     7.3950     6.0790    22.5130    -1.1800 
  155.2500   153.4800    10.2110    15.0790     2.3040    79.3510     9.5460     7.4350     6.9780    22.9400    -1.2360 
  155.3750   153.6000    10.2290    15.1060     2.2880    75.0200    10.2850     7.8500     8.0190    23.0940    -1.3280 
  155.5000   153.7210    10.2470    15.1330     2.2750    71.8040    11.1710     8.4880     8.6790    22.8900    -1.4230 
  155.6250   153.8420    10.2650    15.1600     2.2650    73.1460    11.9430     9.1510     8.6190    22.5370    -1.5280 
  155.7500   153.9630    10.2830    15.1870     2.2600    76.7200    12.4830     9.6790     8.1720    22.0650    -1.6410 
  155.8750   154.0830    10.3010    15.2140     2.2580    80.2760    12.8040    10.0380     8.4560    21.8470    -1.7500 
  156.0000   154.2040    10.3180    15.2410     2.2590    83.0090    13.0140    10.2810     8.7980    21.9420    -1.8220 
  156.1250   154.3250    10.3360    15.2680     2.2630    84.1580    13.3280    10.5500     9.2180    22.3120    -1.8900 
  156.2500   154.4460    10.3540    15.2940     2.2700    81.7980    13.9320    11.0050     9.7020    22.4580    -1.9210 
  156.3750   154.5660    10.3720    15.3210     2.2790    75.0690    14.8850    11.7290    10.2310    22.6490    -1.9150 
  156.5000   154.6870    10.3900    15.3480     2.2890    67.1490    16.0810    12.6860    11.9350    22.8080    -1.9040 
  156.6250   154.8080    10.4080    15.3750     2.2960    63.7880    17.2300    13.7110    14.0170    22.8470    -1.8630 
  156.7500   154.9280    10.4260    15.4020     2.2980    65.6810    18.0750    14.6000    16.4800    23.0160    -1.8010 
  156.8750   155.0490    10.4440    15.4290     2.2950    69.8240    18.5460    15.2750    18.0280    23.1680    -1.7210 
  157.0000   155.1700    10.4610    15.4560     2.2880    73.4820    18.7300    15.7690    16.1760    23.4000    -1.6310 
  157.1250   155.2910    10.4790    15.4830     2.2790    71.7320    18.6100    16.0500    13.5010    23.5350    -1.5230 
  157.2500   155.4110    10.4970    15.5100     2.2690    63.9320    17.9720    15.8890    12.6810    23.6140    -1.4100 
  157.3750   155.5320    10.5150    15.5370     2.2620    58.1980    16.4770    14.9230    14.1500    23.6900    -1.3000 
  157.5000   155.6530    10.5330    15.5640     2.2570    62.0340    14.0510    13.0390    15.1880    23.7850    -1.1940 
  157.6250   155.7740    10.5510    15.5910     2.2550    72.6320    11.1510    10.6320    12.3500    23.8120    -1.0980 
  157.7500   155.8940    10.5690    15.6180     2.2540    80.3750     8.6080     8.4530     7.8710    23.8390    -1.0150 
  157.8750   156.0150    10.5870    15.6450     2.2530    84.5910     6.8250     6.8460     4.8980    23.7810    -0.9640 
  158.0000   156.1360    10.6040    15.6720     2.2500    87.7140     5.8700     5.8940     4.0580    23.7120    -0.9460 
  158.1250   156.2570    10.6220    15.6990     2.2460    88.8720     5.7560     5.6440     4.1370    23.7650    -0.9720 
  158.2500   156.3770    10.6400    15.7260     2.2410    87.5400     6.2190     5.9210     4.1290    23.8520    -1.0390 
  158.3750   156.4980    10.6580    15.7530     2.2360    84.3350     7.1070     6.6360     4.3350    24.0090    -1.1320 
  158.5000   156.6190    10.6760    15.7800     2.2310    78.6650     8.2250     7.6540     5.1080    24.1450    -1.2590 
  158.6250   156.7400    10.6940    15.8070     2.2290    72.7320     9.2750     8.7340     6.5230    24.0110    -1.4000 
  158.7500   156.8600    10.7120    15.8340     2.2290    70.5800     9.9610     9.5460     7.6020    24.0280    -1.5720 
  158.8750   156.9810    10.7300    15.8610     2.2310    73.5130    10.1230     9.8640     7.4480    24.1130    -1.7300 
  159.0000   157.1020    10.7470    15.8880     2.2360    76.4340     9.8000     9.6470     6.4840    24.1380    -1.9020 
  159.1250   157.2230    10.7650    15.9150     2.2450    75.2200     9.1950     9.0420     6.1800    24.1760    -2.0790 
  159.2500   157.3430    10.7830    15.9410     2.2590    73.2350     8.6220     8.3810     6.5310    24.1860    -2.2820 
  159.3750   157.4640    10.8010    15.9680     2.2760    74.7980     8.2980     7.8630     6.7030    23.8840    -2.4950 
  159.5000   157.5850    10.8190    15.9950     2.2910    79.9570     8.4650     7.6620     6.2530    23.1110    -2.7410 
  159.6250   157.7050    10.8370    16.0220     2.2950    83.3000     9.6400     8.0820     6.4380    22.9650    -3.0050 
  159.7500   157.8260    10.8550    16.0490     2.2840    81.6790    12.2350     9.3690     7.2120    23.0370    -3.2940 
  159.8750   157.9470    10.8730    16.0760     2.2600    75.1610    16.9320    12.0300     8.7910    23.3980    -3.6110 
  160.0000   158.0680    10.8900    16.1030     2.2310    67.4150    24.5740    16.8470    12.5150    23.8790    -3.9330 
  160.1250   158.1880    10.9080    16.1300     2.2050    61.8120    36.8170    25.5090    22.8330    24.0580    -4.2420 
