~V
VERS. 2.00: Ver 2.00
~W
STRT.M 40.0000:
STOP.M 279.0000:
STEP.M 0.1250:
NULL. -999.2500:
UWI. FD11188:
~C
DEPT.M :
TVD. :
DX. :
DY. :
SP.MV :
GR.API :
RI. :
RML.OHMM :
RXO.OHMM :
DEN.GM/CC :
~A
   40.0000    40.0000     0.0000     0.0000   -18.1490    42.8900    42.6910    28.1320     0.3150     2.3120 
   40.1250    40.1250    -0.0020    -0.0010   -17.7970    43.2130    42.6910    28.1330     0.3440     2.3180 
   40.2500    40.2500    -0.0030    -0.0020   -17.4340    43.1980    42.6910    28.1340     0.3220     2.3260 
   40.3750    40.3750    -0.0050    -0.0020   -17.0490    42.1880    42.6910    28.1330     0.2200     2.3410 
   40.5000    40.5000    -0.0060    -0.0030   -16.6270    41.8830    42.6910    28.1320     0.1590     2.3540 
   40.6250    40.6250    -0.0070    -0.0040   -16.1520    43.2500    42.6910    28.1320     0.2430     2.3380 
   40.7500    40.7500    -0.0090    -0.0050   -15.6230    44.2170    42.6910    28.1310     0.2740     2.2990 
   40.8750    40.8750    -0.0100    -0.0060   -15.0630    44.1360    42.6910    28.1330     0.1760     2.2650 
   41.0000    41.0000    -0.0120    -0.0060   -14.5310    44.5020    42.6910    28.1320     0.1370     2.2440 
   41.1250    41.1250    -0.0140    -0.0070   -14.1240    46.2880    42.6910    28.1320     0.1720     2.2340 
   41.2500    41.2500    -0.0150    -0.0080   -13.9160    47.9610    42.6910    28.1320     0.2090     2.2350 
   41.3750    41.3750    -0.0170    -0.0080   -13.9690    48.0310    42.6910    28.1320     0.2710     2.2480 
   41.5000    41.5000    -0.0180    -0.0090   -14.2350    47.2010    42.6900    28.1330     0.2720     2.2570 
   41.6250    41.6250    -0.0200    -0.0100   -14.6370    47.3490    42.6900    28.1320     0.2250     2.2510 
   41.7500    41.7500    -0.0220    -0.0100   -15.0630    47.3920    42.6900    28.1320     0.2380     2.2340 
   41.8750    41.8750    -0.0230    -0.0110   -15.4490    45.8510    42.6890    28.1320     0.2740     2.2190 
   42.0000    42.0000    -0.0250    -0.0110   -15.7950    43.2490    42.6880    28.1320     0.3390     2.2200 
   42.1250    42.1250    -0.0260    -0.0120   -16.1370    41.9930    42.6870    28.1320     0.3540     2.2320 
   42.2500    42.2500    -0.0280    -0.0120   -16.5120    42.8440    42.6850    28.1310     0.2720     2.2380 
   42.3750    42.3750    -0.0300    -0.0130   -16.9200    45.1670    42.6850    28.1300     0.2640     2.2370 
   42.5000    42.5000    -0.0310    -0.0130   -17.3230    47.7300    42.6850    28.1310     0.3120     2.2390 
   42.6250    42.6250    -0.0330    -0.0140   -17.6610    49.1820    42.6870    28.1300     0.2810     2.2420 
   42.7500    42.7500    -0.0350    -0.0140   -17.8940    48.4410    42.6870    28.1320     0.2360     2.2320 
   42.8750    42.8750    -0.0360    -0.0150   -17.9900    46.0640    42.6870    28.1330     0.2600     2.2130 
   43.0000    43.0000    -0.0380    -0.0150   -17.9580    44.2130    42.6860    28.1320     0.2700     2.2010 
   43.1250    43.1250    -0.0390    -0.0160   -17.7920    44.7010    42.6850    28.1320     0.2420     2.1970 
   43.2500    43.2500    -0.0410    -0.0160   -17.5040    45.7510    42.6850    28.1310     0.2590     2.1960 
   43.3750    43.3750    -0.0430    -0.0160   -17.0750    45.5710    42.6850    28.1320     0.2330     2.1980 
   43.5000    43.5000    -0.0450    -0.0170   -16.5030    44.4660    42.6850    28.1320     0.1300     2.2050 
   43.6250    43.6250    -0.0460    -0.0170   -15.7580    44.2190    42.6850    28.1300     0.0800     2.2110 
   43.7500    43.7500    -0.0480    -0.0170   -14.8310    45.8600    42.6850    28.1320     0.0800     2.2130 
   43.8750    43.8750    -0.0500    -0.0170   -13.6770    48.0480    42.6850    28.1330     0.1150     2.2250 
   44.0000    44.0000    -0.0510    -0.0180   -12.2770    48.6270    42.6850    28.1340     0.1700     2.2560 
   44.1250    44.1250    -0.0530    -0.0180   -10.5630    48.0680    42.6850    28.1340     0.1660     2.2920 
   44.2500    44.2500    -0.0550    -0.0180    -8.5110    48.2420    42.6850    28.1330     0.1830     2.3060 
   44.3750    44.3750    -0.0570    -0.0180    -6.0470    48.7830    42.6850    28.1310     0.2790     2.2950 
   44.5000    44.5000    -0.0580    -0.0180    -3.1690    49.2980    42.6850    28.1300     0.2960     2.2780 
   44.6250    44.6250    -0.0600    -0.0180     0.1620    50.0020    42.6850    28.1290     0.2440     2.2690 
   44.7500    44.7500    -0.0620    -0.0180     3.8570    50.0280    42.6850    28.1310     0.4520     2.2680 
   44.8750    44.8750    -0.0640    -0.0180     7.7650    48.8740    42.6860    28.1300     0.8070     2.2690 
   45.0000    45.0000    -0.0650    -0.0180    11.5630    47.0470    42.6870    28.1300     0.7800     2.2760 
   45.1250    45.1250    -0.0670    -0.0180    14.7670    44.8330    42.6880    28.1320     0.4860     2.3540 
   45.2500    45.2500    -0.0690    -0.0180    16.9690    42.0650    42.6890    28.1320     0.3120     2.4980 
   45.3750    45.3740    -0.0710    -0.0180    17.7680    41.2000    42.6890    28.1290     0.2920     2.5700 
   45.5000    45.4990    -0.0730    -0.0180    17.2710    43.5360    41.7590    27.3140     0.3000     2.4880 
   45.6250    45.6240    -0.0750    -0.0180    15.6830    46.0890    31.4040    19.9940     0.2680     2.3450 
   45.7500    45.7490    -0.0760    -0.0180    13.4960    46.9270    19.5960    12.2410     0.2670     2.2750 
   45.8750    45.8740    -0.0780    -0.0170    11.0300    46.6130     7.7920     4.5230     0.2580     2.2740 
   46.0000    45.9990    -0.0800    -0.0170     8.5110    45.8730     0.1860     0.2190     0.2420     2.2740 
   46.1250    46.1240    -0.0820    -0.0170     6.0590    44.4120     0.1860     0.2170     0.2810     2.2670 
   46.2500    46.2490    -0.0840    -0.0160     3.7870    43.3050     0.1850     0.2150     0.3130     2.2610 
   46.3750    46.3740    -0.0860    -0.0160     1.8630    44.0110     0.1840     0.2180     0.3270     2.2650 
   46.5000    46.4990    -0.0880    -0.0150     0.3790    45.6940     0.1810     0.2210     0.3360     2.2830 
   46.6250    46.6240    -0.0900    -0.0150    -0.5990    46.8220     0.1620     0.2170     0.3160     2.3090 
   46.7500    46.7490    -0.0920    -0.0140    -1.2000    47.1240     0.1330     0.1940     0.2800     2.3290 
   46.8750    46.8740    -0.0930    -0.0130    -1.6370    46.9590     0.0910     0.1410     0.2670     2.3330 
   47.0000    46.9990    -0.0950    -0.0130    -2.2390    45.9140     0.0550     0.0880     0.2330     2.3170 
   47.1250    47.1240    -0.0970    -0.0120    -3.3910    44.0740     0.0340     0.0430     0.1380     2.2870 
   47.2500    47.2490    -0.0990    -0.0110    -5.3230    42.8360     0.0440     0.0360     0.1410     2.2830 
   47.3750    47.3740    -0.1010    -0.0100    -8.2040    42.9780     0.1250     0.0950     1.0590     2.3100 
   47.5000    47.4990    -0.1030    -0.0100   -11.8250    45.1140     0.3220     0.2460     3.3370     2.3000 
   47.6250    47.6240    -0.1050    -0.0090   -15.8340    48.7060     0.8180     0.6820     5.8860     2.2150 
   47.7500    47.7490    -0.1070    -0.0080   -19.6770    52.7330     2.0410     1.9680     7.4580     2.1310 
   47.8750    47.8740    -0.1090    -0.0070   -22.8280    56.3250     3.7230     3.7540     9.0970     2.1390 
   48.0000    47.9990    -0.1110    -0.0060   -25.1120    59.2530     5.4640     5.4360    12.6670     2.2180 
   48.1250    48.1240    -0.1130    -0.0050   -26.5620    63.3030     6.9540     6.6850    14.4740     2.2770 
   48.2500    48.2490    -0.1150    -0.0040   -27.5370    68.1430     7.7490     7.0620    11.4690     2.2620 
   48.3750    48.3740    -0.1170    -0.0040   -28.3040    70.7730     7.9070     6.9260     8.8790     2.1950 
   48.5000    48.4990    -0.1190    -0.0030   -29.0180    69.8500     7.5880     6.6210     8.4940     2.1390 
   48.6250    48.6240    -0.1210    -0.0020   -29.6670    68.0310     6.8430     5.9900     7.6580     2.1150 
   48.7500    48.7490    -0.1230    -0.0010   -30.1990    69.9830     5.9990     5.3140     7.2570     2.1120 
   48.8750    48.8740    -0.1250     0.0000   -30.5760    75.7380     5.4150     4.8790     7.4140     2.1260 
   49.0000    48.9990    -0.1270     0.0010   -30.8390    82.6480     5.0200     4.5640     7.0880     2.1430 
