~V
VERS. 2.00: Ver 2.00
~W
STRT.M 30.0000:
STOP.M 272.0000:
STEP.M 0.1250:
NULL. -999.2500:
UWI. FD11176:
~C
DEPT.M :
TVD. :
DX. :
DY. :
SP.MV :
GR.API :
RI. :
RML.OHMM :
RXO.OHMM :
DEN.GM/CC :
~A
# ...
  176.0000   169.5970    34.1510   -15.7250   -18.5510    61.6890    35.7970    37.6730    27.8420     2.1840 
  176.1250   169.7120    34.1950   -15.7470   -18.7050    62.2090    38.3170    40.6950    28.9450     2.1850 
  176.2500   169.8270    34.2390   -15.7680   -18.7860    62.2360    41.8500    45.3530    31.9330     2.1780 
  176.3750   169.9420    34.2830   -15.7890   -18.7950    60.3540    45.6840    48.8970    36.0420     2.1670 
  176.5000   170.0570    34.3270   -15.8100   -18.7660    58.3840    48.8800    52.2690    40.6850     2.1560 
  176.6250   170.1720    34.3710   -15.8320   -18.7050    57.5550    50.7330    53.9500    43.3950     2.1420 
  176.7500   170.2870    34.4160   -15.8530   -18.6120    58.0330    51.3710    53.5170    42.1340     2.1260 
  176.8750   170.4020    34.4600   -15.8740   -18.4870    56.7670    50.7910    52.0310    38.9500     2.1150 
  177.0000   170.5170    34.5040   -15.8950   -18.3400    54.3420    49.0780    50.2310    37.2190     2.1130 
  177.1250   170.6320    34.5490   -15.9160   -18.1980    53.8860    46.7250    48.0690    36.8750     2.1160 
  177.2500   170.7460    34.5930   -15.9380   -18.0900    56.2190    44.4750    46.0250    36.7260     2.1240 
  177.3750   170.8610    34.6370   -15.9590   -18.0170    58.9000    42.6360    44.5780    37.0540     2.1260 
  177.5000   170.9760    34.6820   -15.9800   -17.9380    59.9190    41.6080    43.5700    36.1120     2.1150 
  177.6250   171.0910    34.7260   -16.0010   -17.8180    60.7970    41.0460    43.2780    35.0820     2.0960 
  177.7500   171.2060    34.7710   -16.0230   -17.6750    60.5010    40.8330    43.2690    35.7370     2.0890 
  177.8750   171.3210    34.8150   -16.0440   -17.5480    59.5160    40.7550    43.2500    36.1840     2.1040 
  178.0000   171.4360    34.8590   -16.0650   -17.4490    58.9660    40.4320    42.9380    34.9300     2.1260 
  178.1250   171.5510    34.9040   -16.0870   -17.3800    59.0870    39.9880    42.4430    32.2350     2.1430 
  178.2500   171.6660    34.9480   -16.1080   -17.3300    58.6950    39.4680    41.9040    31.1850     2.1520 
  178.3750   171.7800    34.9920   -16.1300   -17.2680    58.1340    39.3370    41.7980    33.5870     2.1540 
  178.5000   171.8950    35.0370   -16.1510   -17.1570    57.9200    39.4180    41.8910    35.7870     2.1540 
  178.6250   172.0100    35.0810   -16.1720   -16.9720    57.0720    39.5540    42.0290    37.1930     2.1570 
  178.7500   172.1250    35.1260   -16.1940   -16.7190    56.5600    39.5270    41.9580    36.7810     2.1630 
  178.8750   172.2400    35.1700   -16.2150   -16.4120    57.6190    39.4280    41.7910    35.4890     2.1660 
  179.0000   172.3550    35.2140   -16.2370   -16.0910    58.8970    39.4960    41.8170    40.6630     2.1600 
  179.1250   172.4700    35.2590   -16.2580   -15.7740    60.7430    40.2510    42.6610    51.7600     2.1550 
  179.2500   172.5840    35.3030   -16.2800   -15.4560    63.1890    41.6390    44.0850    52.3990     2.1580 
  179.3750   172.6990    35.3480   -16.3010   -15.0680    63.0560    41.7350    43.7140    34.2070     2.1600 
  179.5000   172.8140    35.3920   -16.3230   -14.6870    60.4740    38.7400    40.2240    33.8750     2.1520 
  179.6250   172.9290    35.4370   -16.3440   -14.3600    59.7950    33.1260    34.1470    33.4430     2.1370 
  179.7500   173.0440    35.4820   -16.3660   -13.9890    60.8220    26.6580    27.5550    31.2640     2.1320 
  179.8750   173.1580    35.5260   -16.3870   -13.5510    62.1360    21.4270    22.2630    28.3160     2.1500 
  180.0000   173.2730    35.5710   -16.4090   -13.0810    63.2590    17.9090    18.6370    21.0350     2.1880 
  180.1250   173.3880    35.6150   -16.4310   -12.6490    65.7700    16.5330    17.3240    15.1020     2.2300 
  180.2500   173.5030    35.6600   -16.4520   -12.3240    69.3190    16.5790    17.5510    14.9850     2.2530 
  180.3750   173.6180    35.7040   -16.4740   -12.1330    71.8850    17.6010    18.7800    17.5510     2.2440 
  180.5000   173.7320    35.7490   -16.4950   -12.0300    72.4160    18.8630    20.2010    18.8600     2.2170 
  180.6250   173.8470    35.7940   -16.5170   -11.9850    73.3490    20.1880    21.6290    19.5010     2.1940 
  180.7500   173.9620    35.8380   -16.5380   -11.9900    74.3550    21.2300    22.7040    20.1100     2.1890 
  180.8750   174.0770    35.8830   -16.5600   -12.0450    74.7740    22.1920    23.7560    19.4990     2.1970 
  181.0000   174.1910    35.9270   -16.5820   -12.1260    74.0340    23.4490    25.2060    19.6570     2.2070 
  181.1250   174.3060    35.9720   -16.6040   -12.1980    71.2730    24.8370    26.8850    20.9730     2.2050 
  181.2500   174.4210    36.0170   -16.6260   -12.2420    66.6810    26.1940    28.5840    21.9650     2.1920 
  181.3750   174.5350    36.0610   -16.6470   -12.2630    63.4710    27.2920    30.0690    22.0970     2.1780 
  181.5000   174.6500    36.1060   -16.6690   -12.2550    64.4370    28.0940    31.2950    22.3850     2.1700 
  181.6250   174.7650    36.1500   -16.6910   -12.1800    67.6760    28.4830    32.0670    24.1460     2.1700 
  181.7500   174.8800    36.1950   -16.7120   -12.0320    69.4450    28.7250    32.7250    25.0120     2.1740 
  181.8750   174.9940    36.2400   -16.7340   -11.8450    69.7560    28.9350    33.2770    24.5410     2.1800 
  182.0000   175.1090    36.2840   -16.7560   -11.6680    70.8000    29.1600    33.7450    24.2330     2.1820 
  182.1250   175.2240    36.3290   -16.7780   -11.5270    71.8110    29.4180    34.1550    23.9150     2.1820 
  182.2500   175.3380    36.3740   -16.7990   -11.4240    71.3920    29.6690    34.4550    23.9320     2.1860 
  182.3750   175.4530    36.4180   -16.8210   -11.3650    70.5830    29.9500    34.7410    23.9070     2.1900 
  182.5000   175.5680    36.4630   -16.8420   -11.3430    70.5220    30.3720    35.1500    23.5890     2.1870 
  182.6250   175.6830    36.5080   -16.8640   -11.3610    69.7250    30.7750    35.4970    23.8130     2.1830 
  182.7500   175.7970    36.5530   -16.8850   -11.4130    68.2040    31.0020    35.6250    24.7470     2.1860 
  182.8750   175.9120    36.5980   -16.9060   -11.4780    68.0100    30.9700    35.4540    25.4670     2.1930 
  183.0000   176.0270    36.6430   -16.9280   -11.5260    67.2170    30.6380    34.9260    25.4120     2.1940 
  183.1250   176.1410    36.6870   -16.9500   -11.5470    65.5440    29.9430    33.9990    24.1880     2.1890 
  183.2500   176.2560    36.7320   -16.9710   -11.5590    65.1880    29.0580    32.8980    24.4720     2.1840 
  183.3750   176.3710    36.7770   -16.9930   -11.5740    67.3260    28.1460    31.8160    36.6330     2.1830 
  183.5000   176.4850    36.8220   -17.0140   -11.5810    69.8250    27.3270    30.8480    48.3280     2.1840 
  183.6250   176.6000    36.8670   -17.0360   -11.5540    72.3510    26.4610    29.7760    37.8870     2.1890 
  183.7500   176.7150    36.9110   -17.0570   -11.4930    73.9100    25.1840    28.2230    24.4410     2.1920 
  183.8750   176.8290    36.9560   -17.0790   -11.4350    72.8360    23.6460    26.3560    23.8500     2.1810 
  184.0000   176.9440    37.0010   -17.1010   -11.4220    69.1620    22.3250    24.7750    25.0600     2.1650 
  184.1250   177.0590    37.0460   -17.1220   -11.4610    65.9790    21.7240    24.0340    21.8360     2.1690 
  184.2500   177.1730    37.0910   -17.1440   -11.5160    65.9050    21.9810    24.2860    18.7820     2.1940 
  184.3750   177.2880    37.1360   -17.1660   -11.5830    70.5580    23.8270    26.3600    20.4160     2.2140 
  184.5000   177.4030    37.1810   -17.1870   -11.6800    74.6530    27.0670    30.1580    22.9300     2.2090 
  184.6250   177.5170    37.2260   -17.2090   -11.8130    72.1410    30.7340    34.1290    28.3390     2.1850 
  184.7500   177.6320    37.2710   -17.2300   -11.9360    65.9110    33.0240    36.4030    35.0910     2.1620 
  184.8750   177.7460    37.3160   -17.2520   -11.9830    62.6410    32.6150    35.6170    36.1300     2.1520 
  185.0000   177.8610    37.3610   -17.2740   -11.9450    63.9810    30.3320    32.7080    35.7850     2.1510 
