~V
VERS. 2.00: Ver 2.00
~W
STRT.M 20.0000:
STOP.M 292.0000:
STEP.M 0.1250:
NULL. -999.2500:
UWI. FD11146:
~C
DEPT.M :
TVD. :
DX. :
DY. :
GR.API :
RML.OHMM :
RI. :
RXO.OHMM :
CALI.CM :
SP.MV :
DEN.GM/CC :
~A
# ...
  251.0000   241.9960    41.8100   -38.6560    58.0300    18.1020    17.1130    12.6530    23.2750    -9.4430     2.2810 
  251.1250   242.1130    41.8440   -38.6860    57.2420    18.6920    17.7360    13.5640    23.2640    -9.4340     2.2940 
  251.2500   242.2290    41.8790   -38.7170    57.5670    18.5110    17.6770    14.8370    23.2340    -9.4100     2.3030 
  251.3750   242.3450    41.9130   -38.7470    59.7110    17.3200    16.6810    14.7510    23.2310    -9.3530     2.3030 
  251.5000   242.4620    41.9470   -38.7770    64.0890    15.3800    14.9640    12.6410    23.2930    -9.2660     2.3000 
  251.6250   242.5780    41.9820   -38.8080    70.6320    13.3840    13.1200    10.6580    23.4450    -9.1640     2.3020 
  251.7500   242.6940    42.0160   -38.8380    75.6800    11.8940    11.6500     9.1240    23.5830    -9.0890     2.3060 
  251.8750   242.8100    42.0510   -38.8680    76.7350    11.0570    10.7030     8.5340    23.6720    -9.0420     2.3050 
  252.0000   242.9270    42.0850   -38.8990    74.4410    10.7950    10.2650     8.9000    23.6980    -9.0340     2.3010 
  252.1250   243.0430    42.1200   -38.9290    73.0420    10.9740    10.2930     9.5480    23.6480    -9.0820     2.3000 
  252.2500   243.1590    42.1540   -38.9590    72.6890    11.3570    10.5870     9.7540    23.5220    -9.1870     2.3050 
  252.3750   243.2750    42.1890   -38.9900    70.0390    11.8920    11.0710     9.7570    23.3740    -9.3560     2.3170 
  252.5000   243.3920    42.2230   -39.0200    64.4450    12.6400    11.7470    10.2000    23.2900    -9.5840     2.3330 
  252.6250   243.5080    42.2580   -39.0500    60.9710    13.7690    12.7330    12.0140    23.2710    -9.8610     2.3420 
  252.7500   243.6240    42.2920   -39.0810    60.9390    15.2930    14.0540    14.5980    23.2710   -10.1540     2.3400 
  252.8750   243.7400    42.3270   -39.1110    61.1090    17.1900    15.7110    16.5320    23.2710   -10.4560     2.3330 
  253.0000   243.8570    42.3610   -39.1410    60.1460    19.3050    17.5970    18.5510    23.2710   -10.7490     2.3220 
  253.1250   243.9730    42.3960   -39.1720    60.1530    21.1830    19.3390    19.5010    23.2710   -11.0120     2.3060 
  253.2500   244.0890    42.4300   -39.2020    60.4730    22.2940    20.4380    19.5340    23.2710   -11.2440     2.2850 
  253.3750   244.2060    42.4640   -39.2320    59.4950    22.3090    20.5660    18.7050    23.2710   -11.4300     2.2720 
  253.5000   244.3220    42.4990   -39.2620    58.3820    21.3030    19.7710    18.1190    23.2790   -11.5610     2.2720 
  253.6250   244.4380    42.5330   -39.2930    59.3120    19.7710    18.4580    17.1290    23.3260   -11.6450     2.2840 
  253.7500   244.5540    42.5680   -39.3230    60.8020    18.4960    17.2740    14.7830    23.4190   -11.6830     2.2950 
  253.8750   244.6710    42.6020   -39.3530    61.3790    17.8520    16.5300    12.8720    23.5120   -11.6800     2.2980 
  254.0000   244.7870    42.6370   -39.3840    60.7790    17.8570    16.2910    12.4910    23.5560   -11.6650     2.2960 
  254.1250   244.9030    42.6710   -39.4140    60.7130    18.2680    16.4780    13.7120    23.5610   -11.6470     2.2960 
  254.2500   245.0190    42.7060   -39.4440    61.2070    18.6400    16.7870    15.0290    23.5590   -11.6160     2.3000 
  254.3750   245.1360    42.7400   -39.4750    63.3460    18.7600    17.0240    15.1840    23.5610   -11.5990     2.3040 
  254.5000   245.2520    42.7750   -39.5050    67.5330    18.6350    17.1070    13.7260    23.5710   -11.6160     2.3040 
  254.6250   245.3680    42.8090   -39.5350    69.6510    18.4970    17.1170    12.4700    23.5950   -11.6480     2.2990 
  254.7500   245.4840    42.8440   -39.5660    67.5650    18.5380    17.2100    12.3970    23.6250   -11.6890     2.2950 
  254.8750   245.6010    42.8780   -39.5960    64.1130    18.6920    17.3920    13.2730    23.6380   -11.7310     2.2930 
  255.0000   245.7170    42.9120   -39.6260    62.9520    18.6940    17.5030    14.1640    23.6400   -11.7570     2.2920 
  255.1250   245.8330    42.9470   -39.6570    63.7050    18.1470    17.2110    14.4430    23.6400   -11.7720     2.2930 
  255.2500   245.9490    42.9810   -39.6870    65.1140    17.0630    16.4530    14.1260    23.6400   -11.7840     2.3010 
  255.3750   246.0660    43.0160   -39.7170    65.9720    15.7000    15.3930    12.7570    23.6400   -11.7820     2.3160 
  255.5000   246.1820    43.0500   -39.7480    64.3430    14.4810    14.3660    10.7200    23.6400   -11.7630     2.3320 
  255.6250   246.2980    43.0850   -39.7780    61.5030    13.9030    13.7820    10.2280    23.6400   -11.7430     2.3390 
  255.7500   246.4140    43.1200   -39.8080    60.5040    14.0240    13.7570    11.4620    23.6440   -11.7410     2.3370 
  255.8750   246.5310    43.1550   -39.8380    59.6260    14.7670    14.2970    13.0740    23.6590   -11.7670     2.3290 
  256.0000   246.6470    43.1900   -39.8690    55.6320    15.9020    15.2730    14.0300    23.6920   -11.8240     2.3210 
  256.1250   246.7630    43.2250   -39.8990    50.4240    17.0020    16.3450    14.2520    23.7090   -11.9110     2.3090 
  256.2500   246.8790    43.2600   -39.9290    49.2440    17.6390    17.0440    14.1240    23.7150   -12.0130     2.2940 
  256.3750   246.9950    43.2940   -39.9590    52.1370    17.6140    17.1170    13.5910    23.7150   -12.1290     2.2870 
  256.5000   247.1110    43.3290   -39.9900    56.2420    16.9660    16.5680    12.9770    23.6940   -12.2510     2.2920 
  256.6250   247.2270    43.3640   -40.0200    59.9860    15.8530    15.5610    12.4400    23.6280   -12.3620     2.3040 
  256.7500   247.3440    43.3990   -40.0500    64.2690    14.6450    14.4570    11.4000    23.5380   -12.4610     2.3110 
  256.8750   247.4600    43.4340   -40.0810    68.8690    13.6230    13.5040    10.8130    23.4970   -12.5610     2.3110 
  257.0000   247.5760    43.4690   -40.1110    72.4170    13.0630    12.9230    11.2920    23.4900   -12.6540     2.3110 
  257.1250   247.6920    43.5040   -40.1410    75.6560    13.4810    13.0960    11.6240    23.5020   -12.7420     2.3190 
  257.2500   247.8080    43.5390   -40.1710    77.3080    15.1610    14.2590    11.6030    23.5380   -12.8580     2.3290 
  257.3750   247.9240    43.5740   -40.2020    74.6150    18.3770    16.7400    12.6010    23.5920   -12.9830     2.3400 
  257.5000   248.0400    43.6090   -40.2320    68.5310    23.1120    20.7570    15.9280    23.6260   -13.1180     2.3580 
  257.6250   248.1570    43.6440   -40.2620    62.8260    28.4800    25.9660    20.8490    23.6340   -13.2720     2.3860 
  257.7500   248.2730    43.6790   -40.2920    58.9770    31.9890    30.0760    24.6130    23.6350   -13.4320     2.4090 
  257.8750   248.3890    43.7140   -40.3230    57.5650    31.4030    30.5270    25.9840    23.6440   -13.5920     2.4110 
  258.0000   248.5050    43.7490   -40.3530    58.3320    26.8060    26.8850    24.3530    23.6750   -13.7580     2.3880 
  258.1250   248.6210    43.7840   -40.3830    61.1990    20.9090    21.5770    19.1370    23.7350   -13.9540     2.3570 
  258.2500   248.7370    43.8180   -40.4130    64.2780    16.2810    17.1910    13.3040    23.7650   -14.1830     2.3360 
  258.3750   248.8530    43.8530   -40.4440    66.7790    13.5060    14.3200    10.0960    23.7590   -14.4760     2.3290 
  258.5000   248.9700    43.8880   -40.4740    66.6300    12.4850    12.9120     9.4760    23.7170   -14.8200     2.3290 
  258.6250   249.0860    43.9230   -40.5040    61.3460    13.0530    12.9210    10.8550    23.6710   -15.1590     2.3280 
  258.7500   249.2020    43.9580   -40.5340    54.5570    14.4990    13.8580    13.2250    23.6450   -15.4670     2.3370 
  258.8750   249.3180    43.9930   -40.5650    51.1640    16.3450    15.3860    14.7460    23.6440   -15.7300     2.3640 
  259.0000   249.4340    44.0280   -40.5950    52.3310    18.1090    17.0740    16.7770    23.6710   -15.9250     2.4060 
  259.1250   249.5500    44.0630   -40.6250    53.9940    19.2920    18.4000    18.8580    23.7510   -16.0000     2.4390 
