~V
VERS. 2.00: Ver 2.00
~W
STRT.M 10.0000:
STOP.M 249.0000:
STEP.M 0.1250:
NULL. -999.2500:
UWI. FD11114:
~C
DEPT.M :
TVD. :
DX. :
DY. :
GR.API :
RML.OHMM :
RI. :
RXO.OHMM :
CALI.CM :
SP.MV :
DEN.GM/CC :
~A
# ...
   76.0000    76.0000     0.0750     0.1770    76.1420     7.9560     6.2480     8.2390    26.8170   -21.7640     2.1100 
   76.1250    76.1250     0.0750     0.1780    82.9310     7.3090     5.8080     6.4190    26.6150   -21.0000     2.1640 
   76.2500    76.2500     0.0760     0.1790    88.0430     6.7000     5.3310     4.8220    26.4900   -20.3830     2.2310 
   76.3750    76.3750     0.0760     0.1790    89.9640     6.2470     4.9400     4.2050    26.4570   -19.9340     2.2810 
   76.5000    76.5000     0.0760     0.1800    90.5720     5.9710     4.6710     4.2330    26.4760   -19.6850     2.3140 
   76.6250    76.6250     0.0770     0.1810    94.0730     5.8310     4.5070     4.3780    26.5150   -19.6550     2.3380 
   76.7500    76.7500     0.0770     0.1810   100.9500     5.7760     4.4130     4.1720    26.5500   -19.8860     2.3520 
   76.8750    76.8750     0.0770     0.1820   104.8910     5.7910     4.3530     4.0550    26.5580   -20.3210     2.3500 
   77.0000    77.0000     0.0780     0.1820   100.9690     5.9430     4.3520     4.0930    26.5160   -20.9250     2.3250 
   77.1250    77.1250     0.0780     0.1830    93.0600     6.3730     4.4820     4.3290    26.4090   -21.6640     2.2830 
   77.2500    77.2500     0.0780     0.1840    88.5550     7.4150     4.9430     4.8800    26.2540   -22.5250     2.2400 
   77.3750    77.3750     0.0790     0.1840    86.3860     9.2430     5.8640     5.8930    26.1160   -23.4530     2.2270 
   77.5000    77.5000     0.0790     0.1850    82.1840    11.9540     7.3470     7.5800    26.0330   -24.4070     2.2740 
   77.6250    77.6250     0.0790     0.1850    75.6900    15.3320     9.3410    10.7070    26.0020   -25.3660     2.3860 
   77.7500    77.7500     0.0800     0.1860    71.4800    18.4260    11.3970    18.3870    26.0020   -26.3140     2.5060 
   77.8750    77.8750     0.0800     0.1870    68.5950    19.8960    12.6470    25.6020    26.0030   -27.2420     2.5460 
   78.0000    78.0000     0.0800     0.1870    64.7310    19.0760    12.5340    23.8250    26.0040   -28.1430     2.4900 
   78.1250    78.1250     0.0810     0.1880    61.4460    16.5630    11.2630    14.3540    26.0100   -29.0070     2.3870 
   78.2500    78.2500     0.0810     0.1880    62.0400    13.8010     9.6080    10.1090    26.0810   -29.8050     2.2910 
   78.3750    78.3750     0.0810     0.1890    66.3830    11.7760     8.2400     8.4590    26.2560   -30.5130     2.2280 
   78.5000    78.5000     0.0820     0.1900    68.2970    10.6500     7.3350     7.9930    26.4920   -31.1070     2.1950 
   78.6250    78.6250     0.0820     0.1900    64.3810    10.2540     6.8740     7.8770    26.6810   -31.5490     2.1850 
   78.7500    78.7500     0.0820     0.1910    58.2640    10.3240     6.7730     7.9860    26.7440   -31.7840     2.1850 
   78.8750    78.8750     0.0830     0.1910    55.6010    10.4800     6.8100     8.1660    26.7530   -31.8600     2.1860 
   79.0000    79.0000     0.0830     0.1920    56.6970    10.5470     6.8660     8.2660    26.7550   -31.8170     2.1780 
   79.1250    79.1250     0.0840     0.1920    58.2920    10.4760     6.8730     8.1790    26.7270   -31.7040     2.1620 
   79.2500    79.2500     0.0850     0.1930    60.1760    10.2980     6.8200     7.9860    26.6380   -31.5480     2.1400 
   79.3750    79.3750     0.0850     0.1930    62.7000    10.1020     6.7400     7.9650    26.5330   -31.3980     2.1250 
   79.5000    79.5000     0.0860     0.1940    66.7160     9.9340     6.6610     8.1220    26.4780   -31.2610     2.1240 
   79.6250    79.6250     0.0870     0.1940    70.8440     9.8170     6.5990     7.9120    26.5090   -31.1380     2.1370 
   79.7500    79.7500     0.0870     0.1940    70.9910     9.7560     6.5680     7.7780    26.6000   -31.0240     2.1560 
   79.8750    79.8750     0.0880     0.1950    68.8430     9.7240     6.5600     7.5940    26.6770   -30.8790     2.1690 
   80.0000    80.0000     0.0890     0.1950    66.9080     9.6930     6.5670     7.4400    26.7080   -30.6880     2.1750 
   80.1250    80.1250     0.0890     0.1960    66.4620     9.6450     6.5730     7.5450    26.7220   -30.4550     2.1780 
   80.2500    80.2500     0.0900     0.1960    66.0610     9.5610     6.5540     7.6910    26.8040   -30.1830     2.1830 
   80.3750    80.3750     0.0900     0.1970    65.3560     9.4390     6.4970     7.7560    26.9630   -29.9000     2.1890 
   80.5000    80.5000     0.0910     0.1970    64.3670     9.2900     6.4040     7.6840    27.1400   -29.6310     2.1940 
   80.6250    80.6250     0.0920     0.1970    61.7380     9.1380     6.2930     7.5970    27.2650   -29.3920     2.1940 
   80.7500    80.7500     0.0920     0.1980    59.0890     9.0230     6.1930     7.5850    27.3450   -29.1990     2.1860 
   80.8750    80.8750     0.0930     0.1980    59.1080     8.9640     6.1290     7.6010    27.4770   -29.0360     2.1690 
   81.0000    81.0000     0.0940     0.1990    60.8070     8.9660     6.1150     7.5890    27.6230   -28.8710     2.1440 
   81.1250    81.1250     0.0940     0.1990    61.2310     9.0170     6.1570     7.6190    27.6430   -28.6610     2.1120 
   81.2500    81.2500     0.0950     0.2000    59.5280     9.1050     6.2540     7.6180    27.4400   -28.3520     2.0860 
   81.3750    81.3750     0.0960     0.2000    58.7650     9.2140     6.3790     7.5570    27.1730   -27.9260     2.0750 
   81.5000    81.5000     0.0960     0.2000    60.0850     9.3470     6.5140     7.5850    26.9840   -27.3660     2.0800 
   81.6250    81.6250     0.0970     0.2010    61.3860     9.4930     6.6360     7.7510    26.9050   -26.6740     2.0950 
   81.7500    81.7490     0.0980     0.2010    61.0210     9.5920     6.7010     7.7670    26.8920   -25.8510     2.1070 
   81.8750    81.8740     0.0980     0.2020    61.7950     9.5510     6.6630     7.5240    26.8540   -24.9400     2.1110 
   82.0000    81.9990     0.0990     0.2020    65.7960     9.2850     6.4720     7.1690    26.7470   -23.9720     2.1130 
   82.1250    82.1240     0.0990     0.2020    70.6720     8.7490     6.1030     6.8020    26.5940   -22.9880     2.1250 
   82.2500    82.2490     0.1000     0.2030    76.4790     7.9500     5.5590     6.0790    26.4800   -22.0470     2.1590 
   82.3750    82.3740     0.1010     0.2030    86.4510     7.0620     4.9510     5.0930    26.4340   -21.1890     2.2060 
   82.5000    82.4990     0.1010     0.2040    97.0260     6.2730     4.3910     4.4100    26.4100   -20.4570     2.2520 
   82.6250    82.6240     0.1020     0.2040   101.1680     5.7930     4.0060     4.1640    26.3580   -19.8990     2.2820 
   82.7500    82.7490     0.1030     0.2050    99.6560     5.9590     3.9940     4.1400    26.2830   -19.5870     2.2960 
   82.8750    82.8740     0.1030     0.2050    97.4230     6.9320     4.4600     4.3930    26.2190   -19.5160     2.3220 
   83.0000    82.9990     0.1040     0.2050    91.9010     8.8890     5.5340     6.0060    26.1780   -19.6970     2.3850 
   83.1250    83.1240     0.1050     0.2060    82.1100    11.8050     7.2730    10.3010    26.1580   -20.1150     2.4920 
   83.2500    83.2490     0.1050     0.2060    74.2640    15.0750     9.4840    19.2520    26.1540   -20.7650     2.6030 
   83.3750    83.3740     0.1060     0.2070    69.9810    17.2270    11.2980    23.7720    26.1540   -21.5680     2.6510 
   83.5000    83.4990     0.1070     0.2070    68.2520    17.1520    11.8730    22.3200    26.1520   -22.4590     2.6120 
   83.6250    83.6240     0.1070     0.2070    69.0350    15.0620    11.0560    16.7350    26.1690   -23.3690     2.5140 
   83.7500    83.7490     0.1080     0.2080    71.7110    12.4230     9.5380    11.0080    26.2220   -24.2090     2.4000 
   83.8750    83.8740     0.1090     0.2080    72.8700    10.4870     8.2130     8.4310    26.2710   -24.9250     2.3020 
   84.0000    83.9990     0.1090     0.2090    71.5750     9.4300     7.3260     7.7890    26.2590   -25.4930     2.2350 
   84.1250    84.1240     0.1100     0.2090    68.6220     9.0190     6.8380     7.7570    26.1870   -25.9160     2.1980 
