~V
VERS. 2.00: Ver 2.00
~W
STRT.M 45.0000:
STOP.M 272.0000:
STEP.M 0.1250:
NULL. -999.2500:
UWI. FD11191:
~C
DEPT.M :
TVD. :
DX. :
DY. :
SP.MV :
GR.API :
RI. :
RML.OHMM :
RXO.OHMM :
DEN.GM/CC :
~A
# ...
  236.6250   229.5480   -41.8280     1.9010   -34.6990    66.7190    11.2010    12.6170    11.2950     2.1850 
  236.7500   229.6610   -41.8810     1.9040   -34.3820    66.9780    11.4920    12.8460    11.5200     2.2130 
  236.8750   229.7740   -41.9350     1.9080   -34.0060    68.7770    11.9240    13.2670    11.5910     2.2120 
  237.0000   229.8860   -41.9880     1.9110   -33.5510    70.4460    13.2400    14.8010    11.8890     2.1980 
  237.1250   229.9990   -42.0420     1.9150   -32.9940    70.4860    15.6400    17.7640    12.4460     2.2320 
  237.2500   230.1120   -42.0960     1.9180   -32.3350    68.7560    19.6660    23.6700    15.1960     2.3430 
  237.3750   230.2250   -42.1490     1.9210   -31.5740    64.7890    24.2930    30.1170    65.2510     2.4880 
  237.5000   230.3380   -42.2030     1.9250   -30.7460    59.1370    24.1010    29.5630   157.9300     2.6050 
  237.6250   230.4510   -42.2560     1.9280   -29.8960    54.2200    19.8550    24.1800   179.8900     2.6820 
  237.7500   230.5640   -42.3100     1.9310   -29.0820    52.7850    12.5320    13.9630   119.9430     2.7090 
  237.8750   230.6770   -42.3630     1.9350   -28.3680    56.2060     5.9500     6.2340    58.7860     2.6390 
  238.0000   230.7900   -42.4170     1.9380   -27.7880    61.7110     2.9520     3.0670    20.9870     2.4920 
  238.1250   230.9020   -42.4710     1.9420   -27.3690    63.8510     1.8560     1.9540     4.8660     2.3780 
  238.2500   231.0150   -42.5240     1.9450   -27.0840    60.8940     1.4520     1.6090     2.2160     2.3430 
  238.3750   231.1280   -42.5780     1.9490   -26.9090    56.6230     1.3530     1.6030     2.3720     2.3400 
  238.5000   231.2410   -42.6310     1.9520   -26.7910    55.2740     1.3870     1.7160     2.5330     2.3170 
  238.6250   231.3540   -42.6850     1.9560   -26.6960    56.6250     1.4640     1.8280     2.5630     2.2920 
  238.7500   231.4670   -42.7390     1.9590   -26.5960    57.2960     1.5180     1.8780     2.5080     2.2810 
  238.8750   231.5800   -42.7920     1.9630   -26.4820    57.4200     1.5450     1.8840     2.4770     2.2820 
  239.0000   231.6920   -42.8460     1.9660   -26.3550    57.5010     1.5520     1.8790     2.3310     2.2920 
  239.1250   231.8050   -42.9000     1.9700   -26.2170    57.5320     1.5360     1.8520     2.1070     2.3070 
  239.2500   231.9180   -42.9530     1.9740   -26.0710    57.8810     1.4930     1.7910     2.1120     2.3020 
  239.3750   232.0310   -43.0070     1.9780   -25.9140    58.2170     1.3920     1.6560     2.1980     2.2730 
  239.5000   232.1440   -43.0610     1.9810   -25.7530    59.3510     1.2680     1.4900     2.0910     2.2420 
  239.6250   232.2570   -43.1140     1.9850   -25.6040    63.1560     1.1470     1.3360     1.9060     2.2220 
  239.7500   232.3700   -43.1680     1.9890   -25.4860    69.6820     1.0800     1.2640     1.7460     2.2040 
  239.8750   232.4820   -43.2210     1.9930   -25.4140    78.9760     1.1260     1.3570     1.6810     2.1940 
  240.0000   232.5950   -43.2750     1.9970   -25.3740    86.9630     1.2880     1.6120     1.8750     2.2170 
  240.1250   232.7080   -43.3290     2.0010   -25.3360    89.6270     1.5350     1.9720     2.6620     2.2650 
  240.2500   232.8210   -43.3820     2.0040   -25.2680    87.8710     1.8080     2.3540     4.0020     2.3000 
  240.3750   232.9340   -43.4360     2.0080   -25.1470    88.4900     2.0140     2.6230     4.6710     2.3020 
  240.5000   233.0470   -43.4890     2.0120   -24.9860    92.9430     2.1080     2.7200     4.1610     2.2900 
  240.6250   233.1600   -43.5430     2.0150   -24.8140    96.7840     2.0880     2.6740     3.6400     2.2860 
  240.7500   233.2730   -43.5960     2.0190   -24.6640    97.5720     2.0130     2.5630     3.5580     2.2880 
  240.8750   233.3850   -43.6500     2.0230   -24.5640    98.3900     1.9500     2.4880     3.5930     2.2890 
  241.0000   233.4980   -43.7030     2.0260   -24.5170   101.7240     1.9200     2.4700     3.6510     2.2840 
  241.1250   233.6110   -43.7570     2.0300   -24.5140   106.9190     1.9190     2.4880     3.6090     2.2740 
  241.2500   233.7240   -43.8100     2.0340   -24.5300   109.0230     1.9220     2.5050     3.5050     2.2710 
  241.3750   233.8370   -43.8630     2.0370   -24.5430   106.1540     1.9170     2.5140     3.4920     2.2740 
  241.5000   233.9500   -43.9170     2.0410   -24.5390   104.5340     1.9250     2.5320     3.4780     2.2820 
  241.6250   234.0630   -43.9700     2.0450   -24.5140   108.1800     1.9370     2.5440     3.3120     2.2840 
  241.7500   234.1760   -44.0230     2.0480   -24.4780   111.4840     1.9550     2.5620     3.1850     2.2830 
  241.8750   234.2890   -44.0760     2.0520   -24.4470   110.8750     1.9840     2.5800     3.3190     2.2820 
  242.0000   234.4030   -44.1290     2.0550   -24.4290   110.7350     2.0070     2.5850     3.4990     2.2840 
  242.1250   234.5160   -44.1830     2.0590   -24.4290   111.4680     2.0430     2.5950     3.4280     2.2870 
  242.2500   234.6290   -44.2360     2.0620   -24.4400   109.2350     2.0880     2.6160     3.3080     2.2910 
  242.3750   234.7420   -44.2890     2.0650   -24.4560   105.4900     2.1420     2.6570     3.3690     2.2950 
  242.5000   234.8550   -44.3420     2.0690   -24.4700   103.8270     2.2240     2.7420     3.4170     2.2940 
  242.6250   234.9680   -44.3950     2.0730   -24.4790   104.8410     2.3240     2.8620     3.3420     2.2890 
  242.7500   235.0810   -44.4480     2.0760   -24.4830   105.2370     2.4210     2.9770     3.3870     2.2870 
  242.8750   235.1950   -44.5010     2.0800   -24.4930   106.2040     2.4860     3.0450     3.7830     2.2900 
  243.0000   235.3080   -44.5540     2.0830   -24.5210   108.7320     2.5130     3.0650     4.5060     2.2900 
  243.1250   235.4210   -44.6060     2.0870   -24.5910   110.6000     2.4980     3.0370     4.6460     2.2840 
  243.2500   235.5340   -44.6590     2.0900   -24.7120   110.8460     2.4520     2.9840     3.8820     2.2890 
  243.3750   235.6470   -44.7120     2.0940   -24.8920   108.6470     2.3870     2.9170     3.6210     2.3020 
  243.5000   235.7610   -44.7650     2.0970   -25.1200   105.5800     2.3200     2.8320     4.0330     2.3050 
  243.6250   235.8740   -44.8170     2.1010   -25.3890   101.7700     2.3130     2.7940     4.0760     2.2900 
  243.7500   235.9870   -44.8700     2.1050   -25.6930    98.9880     2.4210     2.8750     3.7140     2.2720 
  243.8750   236.1010   -44.9230     2.1090   -26.0390    99.6300     2.6950     3.1600     3.6040     2.2600 
  244.0000   236.2140   -44.9750     2.1130   -26.4340   102.6680     3.3160     3.9040     4.1060     2.2500 
  244.1250   236.3270   -45.0280     2.1170   -26.8860   102.3290     4.4920     5.3480     5.5340     2.2430 
  244.2500   236.4410   -45.0800     2.1210   -27.3700    94.4070     6.4010     7.6550     8.2550     2.2500 
  244.3750   236.5540   -45.1330     2.1250   -27.8390    81.2230     8.8670    10.5380    12.6150     2.2850 
  244.5000   236.6680   -45.1850     2.1290   -28.2420    71.0430    11.5750    13.5390    19.0390     2.3210 
  244.6250   236.7810   -45.2380     2.1320   -28.5310    66.5930    13.7940    15.7420    25.6760     2.3300 
  244.7500   236.8940   -45.2900     2.1360   -28.7100    65.7820    15.0460    16.7590    28.0000     2.3140 
  244.8750   237.0080   -45.3420     2.1390   -28.7890    66.6370    15.6230    17.0740    27.6400     2.2840 
  245.0000   237.1210   -45.3950     2.1420   -28.8050    68.0670    15.8490    17.1210    26.4050     2.2380 
  245.1250   237.2350   -45.4470     2.1460   -28.7790    70.0890    16.2040    17.4960    21.5290     2.1870 
  245.2500   237.3480   -45.4990     2.1500   -28.7310    72.0950    16.8440    18.2920    17.6660     2.1510 
  245.3750   237.4620   -45.5520     2.1530   -28.6750    72.0180    17.8120    19.4710    18.0960     2.1300 
  245.5000   237.5750   -45.6040     2.1570   -28.6210    68.8720    18.9760    20.8270    19.3960     2.1100 
  245.6250   237.6890   -45.6560     2.1610   -28.5810    66.1550    20.0800    22.0000    19.6560     2.0980 
