~V
VERS. 2.00: Ver 2.00
~W
STRT.M 20.0000:
STOP.M 292.0000:
STEP.M 0.1250:
NULL. -999.2500:
UWI. FD11146:
~C
DEPT.M :
TVD. :
DX. :
DY. :
GR.API :
RML.OHMM :
RI. :
RXO.OHMM :
CALI.CM :
SP.MV :
DEN.GM/CC :
~A
# ...
  160.2500   157.0800    17.9700   -17.3280    65.8120     7.2710     6.5050     6.3910    23.4510   -12.0490     2.3020 
  160.3750   157.1980    17.9990   -17.3570    60.8540     9.1990     7.7830     7.8270    23.3960   -12.4710     2.2910 
  160.5000   157.3160    18.0270   -17.3860    56.8640    11.7880     9.6390    11.5260    23.3700   -12.8800     2.2730 
  160.6250   157.4340    18.0550   -17.4150    56.6160    14.3830    11.7620    14.3000    23.3440   -13.2370     2.2570 
  160.7500   157.5520    18.0840   -17.4440    57.7330    15.9310    13.3350    14.7380    23.3140   -13.5330     2.2560 
  160.8750   157.6710    18.1120   -17.4730    59.1100    15.9170    13.7730    13.3240    23.3010   -13.7600     2.2740 
  161.0000   157.7890    18.1400   -17.5020    61.1750    14.7560    13.1710    12.1440    23.3000   -13.9230     2.2990 
  161.1250   157.9070    18.1690   -17.5320    62.4540    13.5460    12.2460    11.7080    23.3000   -14.0290     2.3100 
  161.2500   158.0250    18.1970   -17.5610    62.8960    13.1430    11.7560    11.5450    23.3000   -14.0760     2.3050 
  161.3750   158.1440    18.2260   -17.5900    63.0200    13.8310    12.0180    10.6500    23.3000   -14.0820     2.2930 
  161.5000   158.2620    18.2540   -17.6190    62.2680    15.6180    13.1530    10.3020    23.3000   -14.0940     2.2800 
  161.6250   158.3800    18.2820   -17.6480    59.6600    18.3410    15.2210    11.8260    23.3000   -14.1160     2.2670 
  161.7500   158.4980    18.3110   -17.6770    57.0580    21.0180    17.5690    13.7040    23.3000   -14.1250     2.2520 
  161.8750   158.6160    18.3420   -17.7050    57.0230    22.3740    19.1860    15.3220    23.3000   -14.1110     2.2370 
  162.0000   158.7340    18.3720   -17.7330    58.7220    21.4300    19.0530    16.2650    23.3000   -14.0700     2.2290 
  162.1250   158.8520    18.4020   -17.7620    62.5250    18.4490    17.0040    15.9450    23.3000   -13.9920     2.2330 
  162.2500   158.9700    18.4320   -17.7900    68.1260    15.3620    14.5420    14.1060    23.3000   -13.9110     2.2430 
  162.3750   159.0880    18.4630   -17.8190    73.2540    13.2560    12.6310    11.4740    23.3270   -13.8390     2.2530 
  162.5000   159.2050    18.4930   -17.8470    75.2490    12.6050    11.7460     8.6790    23.4020   -13.7830     2.2570 
  162.6250   159.3230    18.5230   -17.8760    74.8790    13.7830    12.2880     8.5200    23.5110   -13.7570     2.2470 
  162.7500   159.4410    18.5540   -17.9040    78.9700    16.4240    14.1340    10.7690    23.4830   -13.7580     2.2280 
  162.8750   159.5590    18.5840   -17.9330    88.2750    20.0440    17.1090    14.1220    23.4110   -13.7830     2.2080 
  163.0000   159.6770    18.6140   -17.9610    98.8220    23.3140    20.3070    16.2650    23.3750   -13.8130     2.1990 
  163.1250   159.7950    18.6450   -17.9900   104.8290    23.5560    21.3850    17.1030    23.3750   -13.8440     2.2060 
  163.2500   159.9130    18.6750   -18.0180   103.1850    20.6830    19.6430    17.4850    23.3750   -13.8770     2.2200 
  163.3750   160.0310    18.7050   -18.0470    94.2450    16.5930    16.4010    15.9880    23.3740   -13.9200     2.2370 
  163.5000   160.1480    18.7360   -18.0750    81.3900    13.2060    13.3550    12.2170    23.3730   -13.9840     2.2540 
  163.6250   160.2660    18.7660   -18.1030    73.8260    11.5170    11.5020     9.1770    23.3700   -14.1020     2.2720 
  163.7500   160.3840    18.7960   -18.1320    72.7510    11.1500    10.7030     8.9600    23.3700   -14.2350     2.2830 
  163.8750   160.5020    18.8260   -18.1600    71.4760    11.7510    10.7650    10.5110    23.3720   -14.3860     2.2810 
  164.0000   160.6200    18.8570   -18.1890    67.2060    12.9010    11.4400    11.2490    23.3740   -14.5640     2.2690 
  164.1250   160.7380    18.8870   -18.2170    63.9520    14.0840    12.4070    10.8640    23.3750   -14.7790     2.2600 
  164.2500   160.8560    18.9170   -18.2460    63.0360    14.8530    13.2230    10.7870    23.3770   -14.9940     2.2650 
  164.3750   160.9740    18.9480   -18.2740    63.1290    15.0780    13.6790    11.4370    23.3780   -15.1780     2.2750 
  164.5000   161.0920    18.9780   -18.3030    62.6630    14.9010    13.8050    11.9510    23.3780   -15.2900     2.2770 
  164.6250   161.2090    19.0080   -18.3310    63.1140    14.5970    13.7980    11.8660    23.3790   -15.3060     2.2680 
  164.7500   161.3270    19.0390   -18.3600    64.4200    14.4170    13.8800    11.0830    23.3800   -15.2780     2.2590 
  164.8750   161.4450    19.0690   -18.3880    65.8990    14.5120    14.1730    10.5150    23.3800   -15.2000     2.2550 
  165.0000   161.5630    19.0990   -18.4160    66.7430    14.9950    14.7630    10.6030    23.3800   -15.0650     2.2500 
  165.1250   161.6810    19.1290   -18.4450    66.2880    15.9530    15.7320    11.1790    23.3860   -14.8560     2.2420 
  165.2500   161.7990    19.1600   -18.4730    65.0900    17.1310    16.8910    11.7220    23.3980   -14.5850     2.2350 
  165.3750   161.9170    19.1900   -18.5020    63.3660    18.1540    17.9230    12.2880    23.4130   -14.2740     2.2320 
  165.5000   162.0350    19.2200   -18.5300    62.5990    18.5090    18.3720    12.7840    23.4250   -13.9480     2.2330 
  165.6250   162.1530    19.2510   -18.5590    63.8490    17.5840    17.6420    12.8160    23.4300   -13.6010     2.2410 
  165.7500   162.2700    19.2810   -18.5870    64.4980    15.6290    15.9220    12.1330    23.4340   -13.2460     2.2500 
  165.8750   162.3880    19.3110   -18.6160    63.9130    13.1560    13.6590    10.7400    23.4380   -12.9270     2.2570 
  166.0000   162.5060    19.3420   -18.6440    65.5490    10.7810    11.4150     8.9420    23.4380   -12.6840     2.2610 
  166.1250   162.6240    19.3720   -18.6730    70.8050     9.0770     9.7060     7.7730    23.4310   -12.5610     2.2640 
  166.2500   162.7420    19.4020   -18.7010    74.2980     8.1460     8.6460     6.8880    23.4260   -12.5650     2.2670 
  166.3750   162.8600    19.4320   -18.7290    75.3680     8.0340     8.2920     6.4510    23.4290   -12.6980     2.2690 
  166.5000   162.9780    19.4630   -18.7580    75.7120     8.7750     8.6880     6.7710    23.4330   -12.9530     2.2690 
  166.6250   163.0960    19.4930   -18.7860    74.3630    10.6060    10.0610     8.1870    23.4340   -13.3460     2.2620 
  166.7500   163.2130    19.5230   -18.8150    69.8050    13.4380    12.3630     9.6490    23.4340   -13.8440     2.2420 
  166.8750   163.3310    19.5540   -18.8430    63.9980    17.2230    15.6120    11.1480    23.4340   -14.4010     2.2160 
  167.0000   163.4490    19.5840   -18.8720    61.0330    21.7140    19.6520    13.2420    23.4330   -14.9790     2.1920 
  167.1250   163.5670    19.6140   -18.9000    61.9630    26.3510    24.0140    15.2830    23.4350   -15.5190     2.1830 
  167.2500   163.6850    19.6450   -18.9290    62.4740    30.3610    27.9140    17.3650    23.4370   -15.9980     2.1850 
  167.3750   163.8030    19.6750   -18.9570    61.1630    33.2150    30.7750    19.8260    23.4370   -16.4040     2.1910 
  167.5000   163.9210    19.7050   -18.9860    60.1920    34.7530    32.3420    22.0030    23.4360   -16.7490     2.1980 
  167.6250   164.0390    19.7360   -19.0140    60.4040    35.1620    32.6530    22.2850    23.4320   -17.0280     2.2040 
  167.7500   164.1570    19.7660   -19.0420    60.0730    35.1950    32.4010    20.7930    23.4320   -17.2560     2.2110 
  167.8750   164.2740    19.7960   -19.0710    59.8370    35.2830    32.0140    18.3380    23.4360   -17.4510     2.2190 
  168.0000   164.3920    19.8260   -19.0990    61.4270    35.6440    31.7680    16.0150    23.4370   -17.6280     2.2270 
  168.1250   164.5100    19.8570   -19.1280    62.3510    36.3190    31.8230    15.0130    23.4300   -17.8080     2.2310 
  168.2500   164.6280    19.8870   -19.1560    60.0990    37.0700    32.0690    15.3260    23.4220   -17.9790     2.2320 
  168.3750   164.7460    19.9170   -19.1850    57.1430    37.6500    32.3470    16.1940    23.4180   -18.1590     2.2300 
