~V
VERS. 2.00: Ver 2.00
~W
STRT.M 11.0000:
STOP.M 273.0000:
STEP.M 0.1250:
NULL. -999.2500:
UWI. FD11023:
~C
DEPT.M :
TVD. :
DX. :
DY. :
GR.API :
RML.OHMM :
RI. :
RXO.OHMM :
CALI.CM :
DEN.GM/CC :
SP.MV :
~A
# ...
  134.7500   134.4060    -5.6160     1.8820    31.9980    16.5320    15.9640    11.5780    23.8140     2.4370   -15.4040 
  134.8750   134.5290    -5.6360     1.8890    35.5420    16.7280    16.0930    12.2450    23.8140     2.4470   -15.4910 
  135.0000   134.6520    -5.6560     1.8960    37.6100    17.0450    16.3990    12.9920    23.8140     2.4500   -15.5960 
  135.1250   134.7750    -5.6750     1.9040    37.7480    17.2390    16.6680    13.5200    23.8170     2.4470   -15.6920 
  135.2500   134.8990    -5.6950     1.9110    36.2410    17.1750    16.7340    13.4370    23.8440     2.4410   -15.7750 
  135.3750   135.0220    -5.7150     1.9180    33.2160    16.8440    16.5460    12.9340    23.9220     2.4310   -15.8560 
  135.5000   135.1450    -5.7340     1.9250    31.3050    16.3270    16.1500    12.3840    24.0260     2.4210   -15.9460 
  135.6250   135.2680    -5.7540     1.9330    31.9140    15.7490    15.6470    11.9640    24.1050     2.4210   -16.0450 
  135.7500   135.3920    -5.7730     1.9400    33.0610    15.2100    15.1460    11.8260    24.1310     2.4320   -16.1410 
  135.8750   135.5150    -5.7930     1.9470    33.2160    14.7290    14.6800    11.9040    24.1360     2.4480   -16.2370 
  136.0000   135.6380    -5.8130     1.9540    33.6370    14.2880    14.2400    11.9050    24.1360     2.4640   -16.3300 
  136.1250   135.7610    -5.8320     1.9610    38.1190    13.8670    13.8130    11.6860    24.1360     2.4700   -16.4170 
  136.2500   135.8850    -5.8520     1.9690    43.9760    13.4680    13.4010    11.3240    24.1360     2.4560   -16.5160 
  136.3750   136.0080    -5.8720     1.9760    48.3310    13.1140    13.0250    10.8560    24.1370     2.4280   -16.6160 
  136.5000   136.1310    -5.8910     1.9830    50.6930    12.8270    12.7050    10.1730    24.1370     2.4060   -16.7130 
  136.6250   136.2540    -5.9110     1.9900    51.4220    12.6330    12.4700     9.7070    24.1380     2.4060   -16.8000 
  136.7500   136.3770    -5.9310     1.9980    50.4630    12.5200    12.3120     9.5100    24.1370     2.4200   -16.8650 
  136.8750   136.5010    -5.9500     2.0050    47.6840    12.4830    12.2340     9.4080    24.1360     2.4320   -16.9260 
  137.0000   136.6240    -5.9700     2.0120    45.4800    12.5250    12.2380     9.3600    24.1350     2.4350   -16.9940 
  137.1250   136.7470    -5.9900     2.0190    44.2290    12.6550    12.3370     9.5940    24.1020     2.4310   -17.0550 
  137.2500   136.8700    -6.0090     2.0260    43.5360    12.8500    12.5030    10.0180    24.0110     2.4270   -17.1190 
  137.3750   136.9930    -6.0320     2.0340    44.3070    13.0960    12.7180    10.4860    23.8950     2.4180   -17.1850 
  137.5000   137.1160    -6.0550     2.0420    45.7770    13.3820    12.9660    10.8300    23.8430     2.3980   -17.2450 
  137.6250   137.2380    -6.0770     2.0490    47.6730    13.7110    13.2400    10.9000    23.8920     2.3730   -17.2840 
  137.7500   137.3610    -6.1000     2.0570    50.6610    14.0810    13.5350    10.9950    23.9900     2.3530   -17.3100 
  137.8750   137.4840    -6.1230     2.0650    54.8730    14.4830    13.8460    11.3160    24.0520     2.3480   -17.3410 
  138.0000   137.6060    -6.1460     2.0720    58.9490    14.8850    14.1480    12.0730    24.0500     2.3550   -17.3910 
  138.1250   137.7290    -6.1690     2.0800    60.6200    15.2180    14.3900    13.0520    23.9890     2.3650   -17.4640 
  138.2500   137.8520    -6.1920     2.0880    60.1850    15.4470    14.5450    13.8240    23.9160     2.3680   -17.5320 
  138.3750   137.9740    -6.2150     2.0950    59.3520    15.5830    14.6140    14.0320    23.8170     2.3660   -17.5690 
  138.5000   138.0970    -6.2380     2.1030    59.6990    15.6880    14.6430    13.6460    23.7410     2.3640   -17.5740 
  138.6250   138.2190    -6.2610     2.1110    62.3850    15.8990    14.7360    13.3550    23.7420     2.3670   -17.5690 
  138.7500   138.3420    -6.2840     2.1180    65.6730    16.3110    14.9800    13.7270    23.8270     2.3710   -17.5670 
  138.8750   138.4650    -6.3070     2.1260    67.8900    16.9650    15.4260    14.5570    23.9700     2.3730   -17.5520 
  139.0000   138.5870    -6.3300     2.1340    68.0190    17.8340    16.0720    15.7270    24.0890     2.3720   -17.5280 
  139.1250   138.7100    -6.3530     2.1410    67.8730    18.8440    16.8860    17.0910    24.1290     2.3700   -17.4970 
  139.2500   138.8330    -6.3760     2.1490    69.9220    19.8600    17.7570    18.2830    24.1360     2.3710   -17.4520 
  139.3750   138.9550    -6.3990     2.1570    71.3940    20.8060    18.6180    18.9840    24.1360     2.3710   -17.4080 
  139.5000   139.0780    -6.4220     2.1640    68.5240    21.6430    19.4320    19.3140    24.1360     2.3720   -17.3490 
  139.6250   139.2010    -6.4440     2.1720    62.6330    22.3330    20.1660    19.5280    24.1360     2.3770   -17.2670 
  139.7500   139.3230    -6.4670     2.1790    60.9420    22.8800    20.8050    20.0780    24.1360     2.3820   -17.1840 
  139.8750   139.4460    -6.4900     2.1870    64.3840    23.2600    21.3100    20.7870    24.1360     2.3810   -17.1050 
  140.0000   139.5680    -6.5130     2.1950    67.6840    23.4520    21.6450    21.2480    24.1360     2.3790   -17.0550 
  140.1250   139.6910    -6.5360     2.2020    65.2790    23.3970    21.7340    20.9900    24.1320     2.3780   -17.0370 
  140.2500   139.8140    -6.5590     2.2100    61.5670    23.0840    21.5630    20.1420    24.1050     2.3810   -17.0170 
  140.3750   139.9360    -6.5820     2.2180    59.7480    22.4190    21.0440    19.3710    24.0400     2.3840   -16.9860 
  140.5000   140.0590    -6.6050     2.2250    58.7720    21.2550    20.0470    19.0390    23.9630     2.3780   -16.9430 
  140.6250   140.1820    -6.6280     2.2330    57.4060    19.3580    18.3560    18.3630    23.9310     2.3570   -16.9010 
  140.7500   140.3040    -6.6510     2.2410    56.9190    16.8850    16.1180    16.9790    23.9230     2.3270   -16.8820 
  140.8750   140.4270    -6.6740     2.2480    58.3080    14.1120    13.5870    14.6180    23.9230     2.2970   -16.8820 
  141.0000   140.5500    -6.6970     2.2560    61.6900    11.4520    11.1330    11.6300    23.9180     2.2720   -16.8850 
  141.1250   140.6720    -6.7200     2.2640    66.1560     9.4000     9.1880     8.2990    23.9030     2.2510   -16.8850 
  141.2500   140.7950    -6.7430     2.2710    68.1410     8.0350     7.8260     7.5420    23.8820     2.2350   -16.8870 
  141.3750   140.9170    -6.7660     2.2790    66.4900     7.2930     7.0070     6.9140    23.8730     2.2220   -16.8970 
  141.5000   141.0400    -6.7890     2.2870    65.5090     7.0120     6.6140     6.6130    23.8720     2.2130   -16.9160 
  141.6250   141.1630    -6.8110     2.2940    67.3400     7.0290     6.5320     6.5650    23.8770     2.2080   -16.9320 
  141.7500   141.2850    -6.8340     2.3020    66.7270     7.1330     6.5720     6.6340    23.8890     2.2120   -16.9310 
  141.8750   141.4080    -6.8570     2.3100    63.2010     7.2280     6.6390     6.7420    23.9010     2.2270   -16.9030 
  142.0000   141.5310    -6.8800     2.3170    61.5810     7.2710     6.6750     6.8300    23.9060     2.2510   -16.8480 
  142.1250   141.6530    -6.9030     2.3250    64.5110     7.2450     6.6500     6.8750    23.9060     2.2660   -16.7650 
  142.2500   141.7760    -6.9260     2.3330    67.4030     7.1770     6.5780     6.7870    23.9060     2.2650   -16.6670 
  142.3750   141.8990    -6.9490     2.3400    68.0300     7.0820     6.4720     6.6420    23.9060     2.2530   -16.5640 
  142.5000   142.0210    -6.9720     2.3480    67.8370     6.9730     6.3450     6.5340    23.9060     2.2420   -16.4620 
  142.6250   142.1440    -6.9950     2.3560    68.0340     6.8700     6.2180     6.3820    23.9060     2.2410   -16.3540 
  142.7500   142.2660    -7.0180     2.3630    68.3380     6.8090     6.1190     6.3180    23.9070     2.2450   -16.2390 
  142.8750   142.3890    -7.0410     2.3710    69.5300     6.8400     6.0850     6.2670    23.9060     2.2450   -16.1300 
