~V
VERS. 2.00: Ver 2.00
~W
STRT.M 10.0000:
STOP.M 230.0000:
STEP.M 0.1250:
NULL. -999.2500:
UWI. FD11119:
~C
DEPT.M :
TVD. :
DX. :
DY. :
SP.MV :
DEN.GM/CC :
GR.API :
RML.OHMM :
RI. :
RXO.OHMM :
CALI.CM :
~A
# ...
  208.0000   201.8250   -37.2270   -15.2750    -6.4660     2.2580    73.5430    15.2340    13.5780    13.6830    21.8010 
  208.1250   201.9410   -37.2710   -15.2940    -6.6200     2.2740    77.0660    14.9660    13.5070    13.8340    21.8010 
  208.2500   202.0570   -37.3140   -15.3140    -6.7620     2.2920    79.1820    14.3800    13.1340    14.0690    21.8010 
  208.3750   202.1730   -37.3570   -15.3330    -6.8940     2.3050    76.4690    13.8090    12.7410    13.4820    21.8010 
  208.5000   202.2880   -37.4000   -15.3520    -7.0390     2.3060    71.3370    13.4320    12.5260    12.0410    21.8010 
  208.6250   202.4040   -37.4430   -15.3710    -7.2130     2.2920    72.4050    13.2710    12.5350    11.7260    21.8010 
  208.7500   202.5200   -37.4860   -15.3910    -7.4140     2.2740    76.4750    13.1810    12.5780    13.8990    21.8010 
  208.8750   202.6360   -37.5300   -15.4100    -7.6610     2.2580    74.9060    13.0770    12.5110    17.0070    21.8010 
  209.0000   202.7510   -37.5730   -15.4290    -7.9540     2.2510    67.6930    12.9770    12.3270    16.9220    21.8010 
  209.1250   202.8670   -37.6160   -15.4480    -8.2970     2.2600    64.9910    13.0840    12.2340    14.2150    21.8010 
  209.2500   202.9830   -37.6590   -15.4670    -8.6340     2.2790    68.4050    13.6050    12.4820    12.3690    21.8010 
  209.3750   203.0980   -37.7020   -15.4870    -8.9710     2.3010    71.6430    14.7340    13.2450    12.9250    21.8010 
  209.5000   203.2140   -37.7450   -15.5060    -9.3080     2.3110    73.0160    16.5780    14.6230    14.1150    21.8010 
  209.6250   203.3300   -37.7890   -15.5250    -9.5930     2.2980    75.7270    21.3410    16.6870    17.3430    21.8010 
  209.7500   203.4460   -37.8320   -15.5440    -9.8450     2.2680    78.2340    24.1350    19.0670    19.3530    21.8010 
  209.8750   203.5610   -37.8750   -15.5640   -10.0370     2.2340    77.9420    26.2940    21.3090    19.0940    21.8010 
  210.0000   203.6770   -37.9180   -15.5830   -10.1680     2.2080    76.0310    27.2950    22.8860    17.8940    21.8010 
  210.1250   203.7930   -37.9610   -15.6020   -10.2270     2.1960    74.9380    26.6090    23.0940    18.1380    21.7980 
  210.2500   203.9090   -38.0040   -15.6210   -10.2680     2.1940    73.7530    24.6200    22.0270    18.3190    21.7910 
  210.3750   204.0240   -38.0470   -15.6410   -10.2870     2.1980    73.3320    21.9140    20.0950    17.5230    21.7900 
  210.5000   204.1400   -38.0910   -15.6600   -10.2770     2.2090    75.2980    19.2350    17.9130    16.0630    21.7910 
  210.6250   204.2560   -38.1340   -15.6790   -10.2940     2.2250    77.3550    17.3790    16.1330    13.8480    21.7930 
  210.7500   204.3710   -38.1770   -15.6980   -10.3380     2.2440    77.9000    16.6130    15.0940    12.4960    21.7950 
  210.8750   204.4870   -38.2200   -15.7180   -10.3960     2.2600    78.5060    16.9550    14.9440    13.3490    21.7910 
  211.0000   204.6030   -38.2630   -15.7370   -10.4660     2.2690    79.0810    18.2530    15.7140    15.6240    21.7900 
  211.1250   204.7190   -38.3060   -15.7560   -10.5650     2.2680    77.3670    20.4160    17.4960    16.3680    21.7900 
  211.2500   204.8340   -38.3500   -15.7750   -10.6820     2.2580    74.5180    22.9440    19.8940    17.6860    21.7840 
  211.3750   204.9500   -38.3930   -15.7940   -10.7860     2.2430    72.7470    25.1560    22.3180    22.3160    21.7750 
  211.5000   205.0660   -38.4360   -15.8140   -10.8680     2.2240    71.6870    26.1430    23.8640    26.6680    21.7190 
  211.6250   205.1820   -38.4790   -15.8330   -10.8970     2.2070    71.4160    25.0530    23.5400    24.4690    21.6410 
  211.7500   205.2970   -38.5220   -15.8520   -10.8710     2.1970    72.9560    22.6890    21.8490    20.9510    21.6280 
  211.8750   205.4130   -38.5650   -15.8710   -10.7990     2.1990    76.7960    20.0960    19.6530    18.4250    21.6250 
  212.0000   205.5290   -38.6090   -15.8910   -10.6840     2.2130    80.2760    18.1590    17.7790    15.4350    21.6250 
  212.1250   205.6440   -38.6520   -15.9100   -10.5250     2.2350    79.7270    17.1950    16.6620    13.1480    21.6250 
  212.2500   205.7600   -38.6950   -15.9290   -10.2960     2.2520    76.8240    16.5610    15.9220    13.1910    21.6250 
  212.3750   205.8760   -38.7380   -15.9480   -10.0260     2.2560    75.2130    15.7590    15.1580    15.3380    21.6250 
  212.5000   205.9920   -38.7810   -15.9680    -9.7370     2.2470    75.2400    14.6730    14.1820    17.7360    21.6250 
  212.6250   206.1070   -38.8240   -15.9870    -9.4600     2.2350    74.0740    13.7360    13.1780    16.7810    21.6280 
  212.7500   206.2230   -38.8670   -16.0060    -9.2120     2.2360    73.0700    13.5520    12.5850    13.3960    21.6480 
  212.8750   206.3390   -38.9110   -16.0250    -9.0240     2.2620    72.4830    14.5520    12.8150    11.1720    21.7500 
  213.0000   206.4540   -38.9540   -16.0440    -8.8950     2.3130    70.0290    16.9460    14.2090    12.5480    21.8490 
  213.1250   206.5700   -38.9970   -16.0640    -8.8090     2.3660    64.1610    20.8920    17.2760    19.0480    21.9790 
  213.2500   206.6860   -39.0400   -16.0830    -8.7870     2.3900    58.9280    25.6680    21.7030    26.1420    22.2090 
  213.3750   206.8020   -39.0830   -16.1020    -8.8250     2.3660    56.6110    30.2610    26.7110    30.1490    22.8140 
  213.5000   206.9170   -39.1260   -16.1210    -8.9300     2.3000    55.6370    33.4230    30.8570    31.6440    23.6560 
  213.6250   207.0330   -39.1700   -16.1410    -9.0630     2.2170    55.8500    34.4130    32.7170    31.9200    23.7280 
  213.7500   207.1490   -39.2130   -16.1600    -9.2110     2.1480    58.4260    34.5780    33.2230    29.8420    23.4370 
  213.8750   207.2650   -39.2560   -16.1790    -9.3450     2.1110    62.5400    34.9260    33.4770    26.6340    22.5730 
  214.0000   207.3800   -39.2990   -16.1980    -9.4240     2.1170    64.5270    35.5150    33.8680    25.9970    21.9440 
  214.1250   207.4950   -39.3430   -16.2180    -9.4700     2.1720    61.3280    35.3570    33.7630    31.4640    21.8010 
  214.2500   207.6110   -39.3880   -16.2380    -9.4640     2.2510    57.5150    33.7640    32.4150    33.5450    21.7860 
  214.3750   207.7260   -39.4320   -16.2580    -9.4110     2.3230    56.9630    30.8920    29.7070    32.8210    21.8330 
  214.5000   207.8410   -39.4770   -16.2780    -9.3080     2.3610    58.6590    27.6260    26.3150    27.3770    22.0470 
  214.6250   207.9560   -39.5210   -16.2980    -9.1930     2.3420    59.8010    25.0690    23.3530    21.0960    22.7070 
  214.7500   208.0710   -39.5660   -16.3180    -9.0420     2.2900    60.0050    23.5410    21.4060    17.2450    23.2910 
  214.8750   208.1860   -39.6100   -16.3380    -8.8450     2.2230    60.1310    22.9470    20.5570    20.9590    24.2270 
  215.0000   208.3010   -39.6550   -16.3580    -8.6720     2.1610    60.3760    23.0260    20.6060    27.8450    24.7250 
  215.1250   208.4160   -39.6990   -16.3780    -8.5120     2.1240    60.6230    23.5470    21.2750    28.1360    24.6440 
  215.2500   208.5310   -39.7430   -16.3980    -8.3850     2.1140    60.5770    24.1700    22.0860    23.1820    24.4070 
  215.3750   208.6470   -39.7880   -16.4180    -8.2720     2.1280    61.7740    24.7150    22.8030    21.4030    24.5500 
  215.5000   208.7620   -39.8320   -16.4380    -8.1770     2.1530    65.0800    25.1810    23.4030    22.3870    25.1040 
  215.6250   208.8770   -39.8770   -16.4580    -8.1110     2.1640    66.4590    25.8170    24.1110    24.9700    25.2020 
  215.7500   208.9920   -39.9210   -16.4780    -8.0610     2.1560    63.3270    26.8320    25.1570    30.1660    24.9010 
  215.8750   209.1070   -39.9660   -16.4980    -8.0290     2.1380    58.5980    28.2020    26.5620    38.6680    24.1950 
  216.0000   209.2220   -40.0100   -16.5180    -7.9930     2.1300    57.3390    29.6570    28.0790    39.5080    23.0160 
  216.1250   209.3370   -40.0550   -16.5380    -7.9640     2.1570    59.2380    30.6340    29.1310    36.6430    21.9440 
