~V
VERS. 2.00: Ver 2.00
~W
STRT.M 20.0000:
STOP.M 285.0000:
STEP.M 0.1250:
NULL. -999.2500:
UWI. FD11157:
~C
DEPT.M :
TVD. :
DX. :
DY. :
GR.API :
RML.OHMM :
RI. :
RXO.OHMM :
CALI.CM :
SP.MV :
DEN.GM/CC :
~A
# ...
  135.5000   134.8850    -4.3010    -8.1590    74.6470    20.9490    19.6540    17.7040    21.8580   -19.8600     2.4460 
  135.6250   135.0080    -4.3080    -8.1780    72.8050    21.1030    19.7850    17.3190    21.8490   -20.0450     2.4330 
  135.7500   135.1310    -4.3150    -8.1960    69.1020    21.6500    20.2140    19.0850    22.0330   -20.1870     2.4270 
  135.8750   135.2550    -4.3210    -8.2150    67.9460    22.5220    20.9330    21.5190    22.3010   -20.2930     2.4300 
  136.0000   135.3780    -4.3280    -8.2340    67.9870    23.4760    21.7790    23.7170    22.4650   -20.3920     2.4440 
  136.1250   135.5020    -4.3340    -8.2530    65.3330    24.1300    22.4320    25.9890    22.4890   -20.4730     2.4610 
  136.2500   135.6250    -4.3410    -8.2720    63.2890    24.3630    22.7260    26.3880    22.4940   -20.5760     2.4680 
  136.3750   135.7480    -4.3470    -8.2900    65.0810    24.3120    22.7440    23.8080    22.5090   -20.6920     2.4610 
  136.5000   135.8720    -4.3540    -8.3090    66.8920    24.2760    22.7420    21.1600    22.5760   -20.8690     2.4430 
  136.6250   135.9950    -4.3600    -8.3280    65.3540    24.5740    23.0310    20.9550    22.8130   -21.0370     2.4240 
  136.7500   136.1190    -4.3670    -8.3470    65.0790    25.1710    23.6380    21.5100    22.8010   -21.2330     2.4110 
  136.8750   136.2420    -4.3740    -8.3650    68.9590    25.8480    24.3950    23.3330    22.5820   -21.4560     2.4070 
  137.0000   136.3660    -4.3800    -8.3840    73.7450    26.3100    24.9880    25.7740    22.5040   -21.6570     2.4100 
  137.1250   136.4890    -4.3870    -8.4030    74.4460    26.2550    25.0190    27.1610    22.4930   -21.8340     2.4200 
  137.2500   136.6120    -4.3930    -8.4220    72.8140    25.7710    24.5210    26.0160    22.4890   -21.9990     2.4320 
  137.3750   136.7360    -4.4000    -8.4410    71.2860    25.0600    23.6930    22.9840    22.4710   -22.1640     2.4380 
  137.5000   136.8590    -4.4060    -8.4590    71.1540    24.3480    22.8040    19.8900    22.3430   -22.2930     2.4300 
  137.6250   136.9830    -4.4130    -8.4780    70.7960    23.8010    22.1020    19.3830    22.2990   -22.4360     2.4010 
  137.7500   137.1060    -4.4190    -8.4970    68.1630    23.4060    21.6170    20.1290    22.2350   -22.5620     2.3620 
  137.8750   137.2290    -4.4260    -8.5160    65.6260    23.0670    21.2770    21.0880    22.1440   -22.6590     2.3280 
  138.0000   137.3530    -4.4330    -8.5340    67.1350    22.6250    20.9460    21.4180    22.0870   -22.7690     2.3150 
  138.1250   137.4760    -4.4390    -8.5530    72.5320    21.8760    20.4510    21.1750    22.1170   -22.8430     2.3450 
  138.2500   137.6000    -4.4460    -8.5720    76.5250    20.8730    19.7650    20.5840    22.1940   -22.8580     2.4110 
  138.3750   137.7230    -4.4520    -8.5910    79.2780    19.8210    18.9700    19.5350    22.1190   -22.8100     2.4950 
  138.5000   137.8460    -4.4590    -8.6090    80.3520    18.9840    18.2140    18.3000    21.8230   -22.7090     2.5620 
  138.6250   137.9700    -4.4650    -8.6280    78.4260    18.6440    17.7050    17.9470    21.4570   -22.5770     2.5750 
  138.7500   138.0930    -4.4720    -8.6470    77.0330    18.7650    17.5150    18.7710    21.2570   -22.4380     2.5340 
  138.8750   138.2170    -4.4780    -8.6660    77.6930    19.2110    17.6310    20.1110    21.2320   -22.2900     2.4560 
  139.0000   138.3400    -4.4850    -8.6850    76.4650    19.7530    17.9290    20.3680    21.2890   -22.1360     2.3760 
  139.1250   138.4630    -4.4920    -8.7030    70.8370    20.0900    18.1650    20.5510    21.2860   -22.0110     2.3400 
  139.2500   138.5870    -4.4980    -8.7220    67.1110    20.0670    18.1430    20.4740    21.2480   -21.9230     2.3650 
  139.3750   138.7100    -4.5050    -8.7410    67.9000    19.6390    17.8240    20.3700    21.2190   -21.8760     2.4340 
  139.5000   138.8340    -4.5110    -8.7600    68.9810    18.9190    17.3130    20.1740    21.2030   -21.8740     2.5040 
  139.6250   138.9570    -4.5180    -8.7780    67.8770    18.1250    16.7760    18.7470    21.1390   -21.8580     2.5280 
  139.7500   139.0800    -4.5240    -8.7970    67.7150    17.4150    16.2920    17.6890    21.1150   -21.8570     2.5070 
  139.8750   139.2040    -4.5310    -8.8160    70.0950    16.8320    15.8360    17.0840    21.0720   -21.8780     2.4570 
  140.0000   139.3270    -4.5370    -8.8350    73.1630    16.3850    15.3580    17.1790    21.0520   -21.8690     2.4060 
  140.1250   139.4510    -4.5440    -8.8540    73.9020    16.0200    14.8320    17.6970    21.0720   -21.8340     2.3860 
  140.2500   139.5740    -4.5510    -8.8720    72.3870    15.6430    14.3040    17.3180    21.1160   -21.7600     2.4120 
  140.3750   139.6970    -4.5570    -8.8910    69.0850    15.2390    13.8430    15.3230    21.0970   -21.6120     2.4700 
  140.5000   139.8210    -4.5640    -8.9100    65.6950    14.7990    13.4880    14.2010    21.0040   -21.4180     2.5250 
  140.6250   139.9440    -4.5700    -8.9290    66.2010    14.1830    13.1480    14.8980    20.9740   -21.1560     2.5380 
  140.7500   140.0680    -4.5770    -8.9470    69.7790    13.2680    12.5950    15.1310    21.0040   -20.8020     2.5120 
  140.8750   140.1910    -4.5830    -8.9660    75.3200    11.9810    11.6490    14.0330    21.0370   -20.3840     2.4680 
  141.0000   140.3140    -4.5900    -8.9850    80.4420    10.3610    10.2970    12.4520    21.0490   -19.9180     2.4230 
  141.1250   140.4380    -4.5960    -9.0040    82.3310     9.6220     8.7470    10.5810    21.1220   -19.4430     2.3820 
  141.2500   140.5610    -4.6030    -9.0220    81.1840     8.0810     7.3460     8.3330    21.4070   -18.9780     2.3460 
  141.3750   140.6850    -4.6100    -9.0410    80.3620     6.9060     6.2780     6.4760    21.6920   -18.5490     2.3130 
  141.5000   140.8080    -4.6160    -9.0600    82.1470     6.1600     5.6000     5.4330    21.6790   -18.1790     2.2920 
  141.6250   140.9320    -4.6230    -9.0790    82.7570     5.8420     5.3110     5.2910    21.6320   -17.9260     2.2890 
  141.7500   141.0550    -4.6290    -9.0980    80.1290     5.7670     5.2420     5.4970    21.5950   -17.7430     2.2960 
  141.8750   141.1780    -4.6360    -9.1160    77.1030     5.8080     5.2800     5.6450    21.5900   -17.5960     2.3040 
  142.0000   141.3020    -4.6420    -9.1350    77.1610     5.8480     5.3160     5.5680    21.6250   -17.5140     2.3060 
  142.1250   141.4250    -4.6490    -9.1540    81.2790     5.7970     5.2700     5.1560    21.6420   -17.4410     2.2980 
  142.2500   141.5490    -4.6550    -9.1730    83.0260     5.6710     5.1550     4.8790    21.6790   -17.3710     2.2850 
  142.3750   141.6720    -4.6620    -9.1910    79.4920     5.5080     5.0070     4.7860    21.6840   -17.3420     2.2740 
  142.5000   141.7950    -4.6690    -9.2100    74.5750     5.3400     4.8540     4.8280    21.6430   -17.2890     2.2690 
  142.6250   141.9190    -4.6750    -9.2290    73.9210     5.1850     4.7130     4.9120    21.6450   -17.1870     2.2730 
  142.7500   142.0420    -4.6820    -9.2480    75.7330     5.0490     4.5900     4.8760    21.6820   -17.1160     2.2800 
  142.8750   142.1660    -4.6880    -9.2670    75.6400     4.9290     4.4810     4.7510    21.6550   -17.0300     2.2870 
  143.0000   142.2890    -4.6960    -9.2860    73.9440     4.8160     4.3780     4.6300    21.6220   -16.9240     2.2920 
  143.1250   142.4120    -4.7040    -9.3070    72.1840     4.7120     4.2830     4.6330    21.5840   -16.8690     2.2930 
  143.2500   142.5350    -4.7120    -9.3270    70.9780     4.6250     4.2050     4.6630    21.5030   -16.8420     2.2930 
  143.3750   142.6580    -4.7210    -9.3470    72.6590     4.5640     4.1490     4.6370    21.5080   -16.8050     2.2920 
  143.5000   142.7810    -4.7290    -9.3680    76.9800     4.5360     4.1240     4.6230    21.4330   -16.7840     2.2930 
  143.6250   142.9040    -4.7370    -9.3880    78.2070     4.5440     4.1310     4.6280    21.4270   -16.7630     2.3000 
