~V
VERS. 2.00: Ver 2.00
~W
STRT.M 25.0000:
STOP.M 287.0000:
STEP.M 0.1250:
NULL. -999.2500:
UWI. FD11174:
~C
DEPT.M :
TVD. :
DX. :
DY. :
SP.MV :
GR.API :
RI. :
RML.OHMM :
RXO.OHMM :
DEN.GM/CC :
~A
# ...
  198.3750   189.5280   -17.3170   -43.1680    -8.7320    64.4400    72.6400    82.8830    85.0880     2.2110 
  198.5000   189.6400   -17.3350   -43.2200    -8.6530    63.4840    76.3970    87.4100   100.3290     2.2080 
  198.6250   189.7520   -17.3540   -43.2730    -8.5460    63.0380    83.8520    95.9610   115.2660     2.1990 
  198.7500   189.8630   -17.3720   -43.3270    -8.4660    63.0090    94.3600   107.9050   127.9510     2.1890 
  198.8750   189.9750   -17.3910   -43.3800    -8.4030    64.5780   106.3750   120.8090   137.9040     2.1810 
  199.0000   190.0870   -17.4090   -43.4320    -8.2660    65.7000   115.3150   129.5590   146.8610     2.1750 
  199.1250   190.1980   -17.4280   -43.4850    -8.0730    64.1790   116.6440   128.9620   151.5720     2.1670 
  199.2500   190.3100   -17.4470   -43.5380    -7.8420    61.3360   107.8930   116.8070   148.5190     2.1610 
  199.3750   190.4220   -17.4660   -43.5910    -7.6250    60.0810    92.8890    98.7750   137.5740     2.1630 
  199.5000   190.5330   -17.4840   -43.6440    -7.4320    60.3210    78.5250    84.8410   121.0400     2.1780 
  199.6250   190.6450   -17.5030   -43.6970    -7.1930    61.7640    70.2510    76.1030   107.5370     2.1950 
  199.7500   190.7570   -17.5220   -43.7500    -6.9230    64.6660    68.1080    74.1410   100.1750     2.2010 
  199.8750   190.8680   -17.5400   -43.8030    -6.6660    64.7630    63.7490    68.7100    94.4200     2.1960 
  200.0000   190.9800   -17.5590   -43.8560    -6.5710    62.4910    55.9550    59.0980    90.7870     2.1980 
  200.1250   191.0920   -17.5790   -43.9090    -6.7110    62.0110    44.3380    45.4190    68.6130     2.2230 
  200.2500   191.2030   -17.5980   -43.9620    -6.9510    65.9850    34.1730    34.2670    51.6150     2.2610 
  200.3750   191.3150   -17.6180   -44.0140    -7.2610    71.3380    28.7720    28.9330    38.7560     2.2880 
  200.5000   191.4270   -17.6370   -44.0670    -7.6390    74.7340    26.9630    27.4310    34.4530     2.2870 
  200.6250   191.5380   -17.6570   -44.1200    -8.0000    75.1780    29.5110    30.6960    35.4310     2.2560 
  200.7500   191.6500   -17.6770   -44.1720    -8.3540    73.4430    36.7950    39.1040    39.2530     2.2160 
  200.8750   191.7620   -17.6960   -44.2250    -8.6980    69.9000    46.7010    50.1630    42.5920     2.1890 
  201.0000   191.8730   -17.7160   -44.2770    -8.9270    65.8910    56.9860    61.1220    43.1060     2.1830 
  201.1250   191.9850   -17.7360   -44.3300    -9.0210    63.2360    65.7530    70.0470    48.6300     2.1890 
  201.2500   192.0970   -17.7570   -44.3820    -9.0630    63.5210    70.1360    74.1500    52.6030     2.1930 
  201.3750   192.2080   -17.7770   -44.4340    -9.1360    65.8730    70.4260    74.3000    58.4190     2.1890 
  201.5000   192.3200   -17.7970   -44.4860    -9.1550    68.9140    67.9620    71.9490    67.8990     2.1850 
  201.6250   192.4320   -17.8170   -44.5390    -9.2330    71.4430    64.0600    68.4470    62.1500     2.1890 
  201.7500   192.5440   -17.8380   -44.5910    -9.3580    71.6980    60.1800    65.1330    51.5520     2.1970 
  201.8750   192.6560   -17.8580   -44.6430    -9.5240    70.8990    57.0560    62.6230    56.8280     2.2050 
  202.0000   192.7670   -17.8790   -44.6950    -9.7310    71.9190    54.8230    61.2100    76.4200     2.2120 
  202.1250   192.8790   -17.9000   -44.7470    -9.9530    74.0370    54.7470    62.3380   117.0230     2.2150 
  202.2500   192.9910   -17.9200   -44.7990   -10.1380    73.0550    57.6590    66.8240   161.6050     2.2120 
  202.3750   193.1030   -17.9410   -44.8510   -10.2970    70.6620    64.0860    74.3300   153.4640     2.2000 
  202.5000   193.2150   -17.9620   -44.9030   -10.4500    71.2070    72.9270    84.3190   107.4280     2.1880 
  202.6250   193.3260   -17.9820   -44.9550   -10.6350    73.2470    83.2960    96.8270    83.3180     2.1820 
  202.7500   193.4380   -18.0030   -45.0060   -10.8600    72.0320    92.7790   107.8110    85.7760     2.1830 
  202.8750   193.5500   -18.0240   -45.0580   -11.1600    68.8880    98.4650   113.7090    92.9180     2.1800 
  203.0000   193.6620   -18.0450   -45.1100   -11.5150    67.2230   100.1900   114.6100    93.5640     2.1700 
  203.1250   193.7740   -18.0660   -45.1620   -11.9600    66.3660    99.2760   112.3160    84.7750     2.1680 
  203.2500   193.8850   -18.0870   -45.2130   -12.4570    64.1120    96.7660   108.0610    90.9090     2.1760 
  203.3750   193.9970   -18.1090   -45.2650   -12.8400    62.9130    92.9970   103.4310   101.6490     2.1840 
  203.5000   194.1090   -18.1290   -45.3170   -13.0400    62.7880    87.7740    97.1710    95.0620     2.1810 
  203.6250   194.2210   -18.1500   -45.3690   -13.1270    61.1470    81.0090    91.0680    77.0630     2.1730 
  203.7500   194.3320   -18.1710   -45.4210   -13.2910    60.0980    73.8190    81.8320    79.5070     2.1700 
  203.8750   194.4440   -18.1920   -45.4730   -13.6320    63.8180    67.0990    73.5940   101.3040     2.1790 
  204.0000   194.5560   -18.2130   -45.5250   -14.0310    68.8610    61.3490    66.7010    87.2710     2.1950 
  204.1250   194.6680   -18.2330   -45.5770   -14.5360    71.5440    55.2230    59.4140    59.9320     2.2130 
  204.2500   194.7790   -18.2540   -45.6300   -15.0510    72.8980    49.3930    52.5300    53.8290     2.2240 
  204.3750   194.8910   -18.2740   -45.6820   -15.1730    74.5080    43.5370    45.6740    54.7260     2.2270 
  204.5000   195.0030   -18.2940   -45.7340   -14.9730    75.3130    38.2180    39.6140    53.5090     2.2300 
  204.6250   195.1140   -18.3140   -45.7870   -14.2590    74.3450    35.1280    36.3450    51.4170     2.2360 
  204.7500   195.2260   -18.3350   -45.8390   -13.8310    74.9720    34.7950    36.2620    48.5570     2.2390 
  204.8750   195.3380   -18.3550   -45.8920   -13.7900    78.9490    37.4350    39.3980    45.4080     2.2310 
  205.0000   195.4490   -18.3750   -45.9440   -13.8470    82.4090    43.5460    46.2350    44.7610     2.2180 
  205.1250   195.5610   -18.3960   -45.9970   -14.0930    79.9070    51.4260    54.7360    47.7680     2.2060 
  205.2500   195.6720   -18.4160   -46.0490   -14.3800    74.9160    59.3060    62.9450    51.8700     2.1960 
  205.3750   195.7840   -18.4360   -46.1020   -14.6120    72.4180    65.1970    68.9430    53.3830     2.1910 
  205.5000   195.8950   -18.4570   -46.1550   -14.8310    71.6270    68.7390    72.6550    50.7130     2.1920 
  205.6250   196.0070   -18.4770   -46.2070   -14.9460    71.3680    70.6040    74.9480    45.7840     2.1960 
  205.7500   196.1180   -18.4970   -46.2600   -15.0170    71.8990    72.2460    77.3870    42.5170     2.1970 
  205.8750   196.2300   -18.5170   -46.3130   -15.0410    72.0830    74.7640    81.0070    45.4710     2.1930 
  206.0000   196.3410   -18.5370   -46.3660   -15.0580    68.9750    77.8350    85.1950    56.8660     2.1890 
  206.1250   196.4530   -18.5580   -46.4180   -15.2020    64.3820    80.9890    89.4060    67.0160     2.1900 
  206.2500   196.5640   -18.5780   -46.4710   -15.3770    62.8480    83.9630    88.9510    62.9480     2.1960 
  206.3750   196.6760   -18.5990   -46.5240   -15.4800    65.1560    86.2320    91.9110    52.3330     2.2010 
  206.5000   196.7870   -18.6190   -46.5770   -15.5900    67.6310    87.8470    93.9720    48.5130     2.2020 
  206.6250   196.8990   -18.6400   -46.6290   -15.7730    70.1960    89.0700    95.3660    47.4970     2.1980 
  206.7500   197.0100   -18.6610   -46.6820   -15.9900    73.5800    91.1830    97.6100    45.4980     2.1920 
  206.8750   197.1210   -18.6820   -46.7350   -16.3160    73.7330    95.1130   102.0950    51.8870     2.1820 
  207.0000   197.2330   -18.7030   -46.7870   -16.7260    68.3650   103.0530   111.4300    61.6790     2.1700 
  207.1250   197.3440   -18.7240   -46.8400   -17.0840    61.9200   115.6470   126.1260    66.2580     2.1590 
  207.2500   197.4560   -18.7450   -46.8930   -17.3740    59.4270   131.2100   143.9980    69.5540     2.1490 
  207.3750   197.5670   -18.7660   -46.9450   -17.5150    58.8060   148.2290   162.9940    74.1860     2.1390 
