~V
VERS. 2.00: Ver 2.00
~W
STRT.M 20.0000:
STOP.M 286.0000:
STEP.M 0.1250:
NULL. -999.2500:
UWI. FD11156:
~C
DEPT.M :
TVD. :
DX. :
DY. :
DEN.GM/CC :
GR.API :
RML.OHMM :
RI. :
RXO.OHMM :
CALI.CM :
SP.MV :
~A
# ...
  160.2500   159.5580     2.5380    -8.5350     2.1520    54.4290    58.4590    47.5380    35.4640    22.6400   -17.5180 
  160.3750   159.6800     2.5480    -8.5600     2.1550    54.3510    57.3540    47.4460    35.3320    22.6010   -17.5050 
  160.5000   159.8020     2.5590    -8.5850     2.1590    51.8480    55.3290    46.7120    35.0680    22.4820   -17.4780 
  160.6250   159.9240     2.5690    -8.6100     2.1650    49.6540    51.5100    44.3820    33.4260    22.1810   -17.4380 
  160.7500   160.0460     2.5790    -8.6360     2.1730    51.1790    45.9500    40.3720    30.4710    21.9710   -17.3890 
  160.8750   160.1680     2.5890    -8.6610     2.1840    54.1640    39.4820    35.2830    27.1210    21.8110   -17.3440 
  161.0000   160.2900     2.6000    -8.6860     2.1980    55.2830    33.6330    30.2530    23.8920    21.7590   -17.3180 
  161.1250   160.4120     2.6100    -8.7110     2.2100    56.7650    30.1350    26.5570    20.4220    21.7520   -17.3320 
  161.2500   160.5340     2.6200    -8.7360     2.2170    60.0200    29.0100    24.4990    18.2980    21.7530   -17.3420 
  161.3750   160.6560     2.6310    -8.7620     2.2150    62.4000    29.9190    24.1300    18.6740    21.7650   -17.4120 
  161.5000   160.7770     2.6420    -8.7900     2.2040    61.0500    32.2830    25.3060    23.2880    21.8200   -17.5250 
  161.6250   160.8980     2.6540    -8.8190     2.1890    58.5920    35.4890    27.8340    27.8060    21.9850   -17.6150 
  161.7500   161.0190     2.6660    -8.8480     2.1780    59.0180    38.7160    30.8640    29.6940    22.1220   -17.7320 
  161.8750   161.1400     2.6780    -8.8770     2.1740    59.7060    41.3560    33.6520    30.2510    22.2880   -17.8580 
  162.0000   161.2610     2.6900    -8.9060     2.1770    58.8570    42.9350    35.5840    29.2170    22.4350   -17.9690 
  162.1250   161.3820     2.7010    -8.9340     2.1860    57.5960    43.1090    36.2540    27.5540    22.5020   -18.0550 
  162.2500   161.5030     2.7130    -8.9630     2.1970    55.7200    42.2300    35.9250    26.3780    22.4550   -18.1280 
  162.3750   161.6240     2.7250    -8.9920     2.2090    52.3350    40.3840    34.5930    25.3660    22.2890   -18.1270 
  162.5000   161.7450     2.7370    -9.0210     2.2230    52.3150    37.5370    32.1600    24.5580    21.9590   -18.0480 
  162.6250   161.8660     2.7490    -9.0500     2.2430    61.1160    33.6600    28.6870    23.5410    21.7630   -17.9610 
  162.7500   161.9870     2.7610    -9.0790     2.2660    70.4080    29.4620    25.0000    21.8440    21.6880   -17.8490 
  162.8750   162.1080     2.7720    -9.1070     2.2890    73.2660    25.7080    21.7820    18.8470    21.6800   -17.7420 
  163.0000   162.2300     2.7840    -9.1360     2.3060    72.6250    23.0750    19.4990    16.3630    21.6950   -17.6440 
  163.1250   162.3510     2.7960    -9.1650     2.3120    72.0270    22.2060    18.5200    15.3820    21.7430   -17.5770 
  163.2500   162.4720     2.8080    -9.1940     2.3060    71.9240    22.7940    18.5970    16.6780    21.7510   -17.5460 
  163.3750   162.5930     2.8200    -9.2230     2.2940    73.0430    24.4640    19.5170    18.6630    21.7610   -17.5520 
  163.5000   162.7140     2.8320    -9.2520     2.2800    74.5630    26.6260    20.9400    20.8970    21.7990   -17.6070 
  163.6250   162.8350     2.8430    -9.2800     2.2690    72.3870    28.5040    22.4000    20.9580    21.9810   -17.6980 
  163.7500   162.9560     2.8550    -9.3090     2.2610    68.3550    29.6580    23.4860    20.1260    22.0980   -17.8500 
  163.8750   163.0770     2.8670    -9.3380     2.2570    68.7050    29.9990    24.0430    19.6400    22.1810   -17.9840 
  164.0000   163.1980     2.8790    -9.3670     2.2530    73.5030    29.7130    24.1190    19.9110    22.2060   -18.1250 
  164.1250   163.3190     2.8910    -9.3960     2.2470    74.2420    29.1950    23.8440    19.9470    22.2100   -18.2770 
  164.2500   163.4400     2.9020    -9.4250     2.2420    71.2640    28.8360    23.4580    20.1230    22.2100   -18.3930 
  164.3750   163.5610     2.9140    -9.4530     2.2360    68.5190    28.6670    23.0370    20.1900    22.2100   -18.5220 
  164.5000   163.6820     2.9260    -9.4820     2.2320    68.0160    28.4600    22.5510    19.9380    22.2100   -18.6360 
  164.6250   163.8030     2.9380    -9.5110     2.2350    67.7400    27.8700    21.9210    18.9460    22.2100   -18.7450 
  164.7500   163.9240     2.9500    -9.5400     2.2440    66.6710    26.9500    21.1850    18.9530    22.2100   -18.8440 
  164.8750   164.0450     2.9620    -9.5690     2.2590    67.9240    26.0030    20.4580    18.6950    22.2100   -18.9380 
  165.0000   164.1660     2.9730    -9.5980     2.2720    72.3200    25.4140    19.9030    17.0090    22.2100   -19.0260 
  165.1250   164.2870     2.9850    -9.6260     2.2750    75.1650    25.5450    19.7540    14.9110    22.2100   -19.1010 
  165.2500   164.4080     2.9970    -9.6550     2.2680    71.4720    26.2940    20.0640    14.5010    22.2120   -19.2000 
  165.3750   164.5290     3.0090    -9.6840     2.2560    66.2340    27.4930    20.8320    16.3420    22.2200   -19.3030 
  165.5000   164.6510     3.0210    -9.7130     2.2450    66.1420    28.9260    21.9580    19.2670    22.2740   -19.4040 
  165.6250   164.7720     3.0330    -9.7420     2.2420    70.6470    30.3510    23.2510    20.6810    22.2830   -19.4950 
  165.7500   164.8930     3.0440    -9.7700     2.2430    72.4780    31.5750    24.4330    20.9820    22.2860   -19.5770 
  165.8750   165.0140     3.0560    -9.7990     2.2430    68.7180    32.5040    25.3440    21.2920    22.2860   -19.6460 
  166.0000   165.1350     3.0680    -9.8280     2.2390    62.9360    33.0700    25.9220    21.2730    22.2860   -19.7080 
  166.1250   165.2560     3.0800    -9.8570     2.2320    60.5100    33.0510    26.0990    20.9920    22.2860   -19.7430 
  166.2500   165.3770     3.0920    -9.8860     2.2250    62.2390    32.3570    25.9170    20.8110    22.2860   -19.7590 
  166.3750   165.4980     3.1030    -9.9150     2.2210    63.7570    31.0380    25.3920    21.1030    22.2870   -19.7580 
  166.5000   165.6190     3.1150    -9.9430     2.2210    62.1100    29.4330    24.6170    21.5980    22.2940   -19.7320 
  166.6250   165.7400     3.1270    -9.9720     2.2260    62.1800    28.0410    23.7530    21.7400    22.3320   -19.7210 
  166.7500   165.8610     3.1390   -10.0010     2.2330    65.1740    27.0730    22.9750    21.3450    22.3670   -19.6730 
  166.8750   165.9820     3.1510   -10.0300     2.2390    67.4590    26.4840    22.3760    19.9560    22.3690   -19.5940 
  167.0000   166.1030     3.1630   -10.0590     2.2410    65.9560    26.1580    22.0190    18.2830    22.3590   -19.5170 
  167.1250   166.2240     3.1740   -10.0880     2.2410    63.0130    26.0700    21.9670    17.3790    22.2970   -19.4130 
  167.2500   166.3450     3.1860   -10.1160     2.2400    62.4930    26.1830    22.1060    17.0880    22.2880   -19.2880 
  167.3750   166.4660     3.1980   -10.1450     2.2410    62.9610    26.3910    22.2930    17.3140    22.2860   -19.1670 
  167.5000   166.5870     3.2100   -10.1740     2.2450    65.8950    26.4360    22.3340    18.0340    22.2860   -19.0280 
  167.6250   166.7080     3.2220   -10.2030     2.2540    71.5080    25.9470    21.9800    18.8900    22.2860   -18.8570 
  167.7500   166.8290     3.2340   -10.2320     2.2630    75.6820    24.9720    21.2660    19.3210    22.2860   -18.7190 
  167.8750   166.9510     3.2450   -10.2610     2.2700    77.5640    23.7200    20.3440    18.4840    22.2860   -18.6140 
  168.0000   167.0720     3.2570   -10.2890     2.2730    79.4820    22.4400    19.4330    16.6330    22.2860   -18.5140 
  168.1250   167.1930     3.2690   -10.3180     2.2740    84.0040    21.3740    18.7910    14.8990    22.2860   -18.4670 
  168.2500   167.3140     3.2810   -10.3470     2.2740    87.5010    20.6720    18.4850    14.3690    22.2860   -18.4380 
  168.3750   167.4350     3.2930   -10.3760     2.2750    88.5260    20.4580    18.4980    14.6370    22.2860   -18.4450 
