~V
VERS. 2.00: Ver 2.00
~W
STRT.M 20.0000:
STOP.M 292.0000:
STEP.M 0.1250:
NULL. -999.2500:
UWI. FD11146:
~C
DEPT.M :
TVD. :
DX. :
DY. :
GR.API :
RML.OHMM :
RI. :
RXO.OHMM :
CALI.CM :
SP.MV :
DEN.GM/CC :
~A
# ...
   36.5000    36.5000     0.0000     0.0000    47.3660    27.3270    17.1290     8.7480    32.1070   -33.6570     2.0890 
   36.6250    36.6250     0.0000     0.0000    45.2580    27.4290    17.1280     9.2100    31.6470   -33.6400     2.0680 
   36.7500    36.7500     0.0000     0.0000    45.8340    27.4680    17.1190     9.5650    30.9060   -33.6100     2.0340 
   36.8750    36.8750     0.0000     0.0000    47.1430    27.4340    17.1040     9.2900    29.8600   -33.5500     1.9970 
   37.0000    37.0000     0.0000     0.0000    47.6150    27.4690    17.1490     8.6580    28.9680   -33.4440     1.9700 
   37.1250    37.1250     0.0000     0.0000    46.3010    27.8850    17.4070     7.9670    28.6250   -33.2630     1.9590 
   37.2500    37.2500     0.0000     0.0000    45.1400    28.7560    17.9330     7.3440    28.5180   -33.0040     1.9570 
   37.3750    37.3750     0.0000     0.0000    46.0830    29.8870    18.6650     7.0470    28.3420   -32.6680     1.9640 
   37.5000    37.5000     0.0000     0.0000    49.8430    30.7660    19.3540     7.1920    27.9360   -32.2470     1.9780 
   37.6250    37.6250     0.0000     0.0000    53.8380    30.4770    19.4710     8.2650    27.4550   -31.7380     2.0020 
   37.7500    37.7500     0.0000     0.0000    56.4630    28.7880    18.7690    10.9790    27.0840   -31.1760     2.0320 
   37.8750    37.8750     0.0000     0.0000    58.3990    25.9700    17.3090    14.8560    26.8720   -30.5660     2.0590 
   38.0000    38.0000     0.0000     0.0000    58.8770    22.7290    15.4570    16.1590    26.7670   -29.9190     2.0720 
   38.1250    38.1250     0.0000     0.0000    56.3630    19.9320    13.7060    14.3870    26.6610   -29.2440     2.0720 
   38.2500    38.2500     0.0000     0.0000    53.4170    17.9440    12.3380    12.8760    26.5400   -28.5470     2.0790 
   38.3750    38.3750     0.0000     0.0000    52.9030    16.8300    11.4390    12.0410    26.4580   -27.8440     2.0960 
   38.5000    38.5000     0.0000     0.0000    56.1640    16.4910    11.0010    12.0480    26.4280   -27.1630     2.1160 
   38.6250    38.6250     0.0000     0.0000    60.4100    16.8060    11.0030    11.9080    26.4270   -26.5410     2.1350 
   38.7500    38.7500     0.0000     0.0000    61.6080    17.4120    11.2440    12.2240    26.4270   -25.9870     2.1550 
   38.8750    38.8750     0.0000     0.0000    60.2270    18.0050    11.5550    12.7540    26.4270   -25.5150     2.1820 
   39.0000    39.0000     0.0000     0.0000    59.9700    18.2000    11.7130    13.3340    26.4340   -25.1400     2.2220 
   39.1250    39.1250     0.0000     0.0000    60.0580    17.4970    11.4170    13.2640    26.4570   -24.8940     2.2580 
   39.2500    39.2500     0.0000     0.0000    58.7910    16.0720    10.7080    12.7530    26.4810   -24.7510     2.2570 
   39.3750    39.3750     0.0000     0.0000    59.3630    14.4030     9.8050    12.1720    26.4690   -24.7060     2.2130 
   39.5000    39.5000     0.0000     0.0000    63.7180    13.0800     9.0030    10.9350    26.4270   -24.7680     2.1620 
   39.6250    39.6250     0.0000     0.0000    66.8400    12.6710     8.5980     9.3450    26.4880   -24.9520     2.1380 
   39.7500    39.7500     0.0000     0.0000    65.3210    13.0510     8.5860     9.4390    26.7200   -25.2040     2.1260 
   39.8750    39.8750     0.0000     0.0000    61.3340    13.8410     8.8330    10.6500    27.0610   -25.4880     2.1090 
   40.0000    40.0000     0.0000     0.0000    56.8860    14.4740     9.0930    11.3610    27.3520   -25.7720     2.0950 
   40.1250    40.1250     0.0000     0.0000    53.4790    14.3350     9.0630    11.0100    27.5350   -26.0600     2.1080 
   40.2500    40.2500     0.0000     0.0000    53.6090    13.5150     8.7190    10.1480    27.6760   -26.3970     2.1380 
   40.3750    40.3750     0.0000     0.0000    57.3470    12.4320     8.2120     8.5840    27.8010   -26.8170     2.1660 
   40.5000    40.5000     0.0000     0.0000    60.2440    11.6120     7.7670     7.5940    27.9490   -27.3100     2.1780 
   40.6250    40.6250     0.0000     0.0000    58.1890    11.4770     7.5930     8.3110    28.2250   -27.8280     2.1660 
   40.7500    40.7500     0.0000     0.0000    54.4470    11.8980     7.6800     9.9860    28.4770   -28.3350     2.1340 
   40.8750    40.8750     0.0000     0.0000    52.4880    12.6700     7.9690    10.8660    28.5280   -28.8150     2.0980 
   41.0000    41.0000     0.0000     0.0000    53.1680    13.5520     8.3620    11.0650    28.3790   -29.2600     2.0790 
   41.1250    41.1250     0.0000     0.0000    54.6690    14.2780     8.7260    11.4580    28.2310   -29.6460     2.0830 
   41.2500    41.2500     0.0000     0.0000    54.9320    14.7510     8.9700    11.9860    28.2100   -29.9590     2.0930 
   41.3750    41.3750     0.0000     0.0000    53.8060    14.9890     9.0750    12.4270    28.2290   -30.1710     2.1060 
   41.5000    41.5000     0.0000     0.0000    51.3760    15.0450     9.0620    12.5190    28.1120   -30.2820     2.1220 
   41.6250    41.6250     0.0000     0.0000    50.9910    14.9420     8.9540    12.0170    27.7540   -30.3240     2.1340 
   41.7500    41.7500     0.0000     0.0000    53.7480    14.7700     8.8090    11.0880    27.2800   -30.3550     2.1410 
   41.8750    41.8750     0.0000     0.0000    57.2710    14.6220     8.6770    10.7800    26.8050   -30.4120     2.1480 
   42.0000    42.0000     0.0000     0.0000    59.6590    14.5900     8.6010    11.1110    26.3910   -30.5110     2.1510 
   42.1250    42.1250     0.0000     0.0000    59.1190    14.7510     8.6200    11.8600    26.1760   -30.6380     2.1380 
   42.2500    42.2500     0.0040    -0.0030    56.7590    15.0620     8.7200    12.1740    26.0710   -30.7410     2.1140 
   42.3750    42.3750     0.0080    -0.0050    54.2550    15.4860     8.8930    12.0380    26.0660   -30.7800     2.0920 
   42.5000    42.5000     0.0120    -0.0080    52.2140    16.0160     9.1370    12.3360    26.2190   -30.7150     2.0830 
   42.6250    42.6250     0.0160    -0.0100    49.4760    16.7170     9.4770    12.6860    26.4840   -30.4930     2.0840 
   42.7500    42.7500     0.0200    -0.0130    47.9750    17.5910     9.9020    12.8610    26.5050   -30.1340     2.0860 
   42.8750    42.8740     0.0240    -0.0150    49.8870    18.5100    10.3510    12.6550    26.2880   -29.6530     2.0890 
   43.0000    42.9990     0.0280    -0.0180    52.3330    19.1210    10.6660    12.3450    26.1700   -29.0640     2.0980 
   43.1250    43.1240     0.0320    -0.0200    51.3870    18.6940    10.5050    12.5270    26.3310   -28.3910     2.1170 
   43.2500    43.2490     0.0360    -0.0230    52.0810    17.0970     9.7920    12.0500    26.6060   -27.7280     2.1430 
   43.3750    43.3740     0.0400    -0.0250    57.4730    14.7290     8.6910    10.5630    26.7310   -27.1610     2.1750 
   43.5000    43.4990     0.0440    -0.0280    64.3420    12.3750     7.5390     8.7520    26.6570   -26.7730     2.2040 
   43.6250    43.6240     0.0480    -0.0300    69.1070    10.9170     6.7090     6.8540    26.5840   -26.6760     2.2120 
   43.7500    43.7490     0.0520    -0.0330    70.4750    10.5500     6.3110     6.6740    26.5560   -26.8460     2.1920 
   43.8750    43.8740     0.0560    -0.0350    68.4080    11.2200     6.3630     8.0840    26.6040   -27.2690     2.1530 
   44.0000    43.9990     0.0600    -0.0380    63.1880    12.6540     6.8120    11.1640    26.7430   -27.9260     2.1100 
   44.1250    44.1230     0.0640    -0.0400    58.1970    14.4080     7.5500    12.3860    26.9240   -28.8110     2.0810 
   44.2500    44.2480     0.0680    -0.0430    55.9440    15.9080     8.3180    12.7570    27.0690   -29.8290     2.0680 
   44.3750    44.3730     0.0720    -0.0450    56.1490    16.8520     8.9260    13.8150    27.3000   -30.8740     2.0610 
   44.5000    44.4980     0.0760    -0.0470    56.7540    17.2110     9.2710    14.9180    27.6840   -31.8450     2.0510 
   44.6250    44.6230     0.0800    -0.0500    54.9310    17.1590     9.3480    14.7190    28.2100   -32.6280     2.0340 
