~V
VERS. 2.00: Ver 2.00
~W
STRT.M 20.0000:
STOP.M 292.0000:
STEP.M 0.1250:
NULL. -999.2500:
UWI. FD11146:
~C
DEPT.M :
TVD. :
DX. :
DY. :
GR.API :
RML.OHMM :
RI. :
RXO.OHMM :
CALI.CM :
SP.MV :
DEN.GM/CC :
~A
# ...
   94.2500    93.7220     5.2490    -4.2610    65.9790     9.2940     7.4080    10.5040    24.1270   -21.9890     2.1480 
   94.3750    93.8450     5.2670    -4.2770    63.7200     9.1210     7.3720    10.4320    24.1250   -22.0580     2.1530 
   94.5000    93.9670     5.2860    -4.2930    59.9170     8.9880     7.3200    10.4130    24.1250   -22.1220     2.1510 
   94.6250    94.0900     5.3050    -4.3080    58.4690     8.9690     7.2800    10.5700    24.1260   -22.1470     2.1440 
   94.7500    94.2130     5.3240    -4.3240    60.6810     9.0310     7.2540    10.7360    24.1270   -22.1410     2.1360 
   94.8750    94.3350     5.3430    -4.3390    62.8500     9.1210     7.2270    10.8940    24.1260   -22.1160     2.1290 
   95.0000    94.4580     5.3620    -4.3550    62.6000     9.1780     7.1820    10.9830    24.1270   -22.0820     2.1250 
   95.1250    94.5800     5.3810    -4.3700    62.9520     9.1530     7.1080    10.8510    24.1270   -22.0390     2.1270 
   95.2500    94.7030     5.4000    -4.3860    64.6750     9.0700     7.0130    10.7320    24.1270   -21.9900     2.1320 
   95.3750    94.8260     5.4190    -4.4020    65.0740     8.9570     6.9070    10.6760    24.1260   -21.9280     2.1380 
   95.5000    94.9480     5.4380    -4.4170    62.8490     8.8410     6.8040    10.6270    24.1260   -21.8590     2.1410 
   95.6250    95.0710     5.4560    -4.4330    61.8370     8.7520     6.7180    10.6510    24.1270   -21.8150     2.1390 
   95.7500    95.1930     5.4750    -4.4480    63.7760     8.6950     6.6590    10.5430    24.1250   -21.8040     2.1330 
   95.8750    95.3160     5.4940    -4.4640    65.8470     8.6670     6.6330    10.2990    24.1250   -21.8260     2.1290 
   96.0000    95.4380     5.5130    -4.4790    66.1960     8.6680     6.6400    10.2670    24.1250   -21.8680     2.1280 
   96.1250    95.5610     5.5320    -4.4950    65.7000     8.7180     6.6820    10.6940    24.1250   -21.9270     2.1310 
   96.2500    95.6840     5.5510    -4.5110    65.2440     8.8260     6.7440    11.1190    24.1260   -21.9920     2.1350 
   96.3750    95.8060     5.5700    -4.5260    64.1960     8.9840     6.8160    11.3740    24.1260   -22.0450     2.1400 
   96.5000    95.9290     5.5890    -4.5420    63.9520     9.1640     6.8830    11.4450    24.1250   -22.0700     2.1500 
   96.6250    96.0510     5.6080    -4.5570    66.0300     9.3080     6.9220    11.8270    24.1250   -22.0550     2.1640 
   96.7500    96.1740     5.6260    -4.5730    66.4020     9.3780     6.9250    12.0370    24.1250   -21.9930     2.1770 
   96.8750    96.2960     5.6450    -4.5880    63.1380     9.3620     6.8890    11.6670    24.1250   -21.8840     2.1820 
   97.0000    96.4190     5.6640    -4.6040    60.4940     9.2720     6.8190    11.1080    24.1250   -21.7250     2.1810 
   97.1250    96.5420     5.6830    -4.6200    62.0760     9.1200     6.7280    10.8490    24.1250   -21.5150     2.1780 
   97.2500    96.6640     5.7020    -4.6350    63.8180     8.9340     6.6280    10.7080    24.1250   -21.2660     2.1720 
   97.3750    96.7870     5.7210    -4.6510    63.8290     8.7300     6.5290    10.5420    24.1250   -21.0050     2.1650 
   97.5000    96.9090     5.7400    -4.6660    63.2390     8.5280     6.4370    10.3230    24.1260   -20.7700     2.1600 
   97.6250    97.0320     5.7590    -4.6820    62.9170     8.3590     6.3730     9.8890    24.1270   -20.5900     2.1630 
   97.7500    97.1540     5.7790    -4.6990    62.5930     8.2510     6.3440     9.4650    24.1250   -20.4450     2.1700 
   97.8750    97.2760     5.7990    -4.7170    62.2390     8.2210     6.3560     9.2190    24.1250   -20.3200     2.1720 
   98.0000    97.3980     5.8190    -4.7350    61.4360     8.2680     6.3950     9.2720    24.1250   -20.2080     2.1650 
   98.1250    97.5200     5.8390    -4.7520    60.4790     8.3540     6.4340     9.5660    24.1250   -20.0850     2.1530 
   98.2500    97.6420     5.8600    -4.7700    61.0380     8.4100     6.4410     9.8700    24.1250   -19.9260     2.1430 
   98.3750    97.7640     5.8800    -4.7880    63.9530     8.3890     6.4070     9.6590    24.1250   -19.7070     2.1390 
   98.5000    97.8860     5.9000    -4.8060    67.9150     8.2950     6.3440     9.0960    24.1260   -19.4120     2.1390 
   98.6250    98.0090     5.9200    -4.8230    69.4890     8.1840     6.2800     9.0820    24.1270   -19.0140     2.1430 
   98.7500    98.1310     5.9410    -4.8410    67.9910     8.0920     6.2280     8.9260    24.1250   -18.5530     2.1510 
   98.8750    98.2530     5.9610    -4.8590    66.0270     8.0050     6.1820     8.9840    24.1250   -18.0570     2.1620 
   99.0000    98.3750     5.9810    -4.8770    66.6080     7.8790     6.1220     9.2720    24.1250   -17.5500     2.1730 
   99.1250    98.4970     6.0010    -4.8940    69.5620     7.6750     6.0240     9.2070    24.1250   -17.0910     2.1890 
   99.2500    98.6190     6.0220    -4.9120    71.6750     7.4540     5.9090     8.4140    24.1250   -16.7580     2.2130 
   99.3750    98.7410     6.0420    -4.9300    73.8420     7.3160     5.8180     7.5480    24.1250   -16.6090     2.2360 
   99.5000    98.8630     6.0620    -4.9470    75.5500     7.3440     5.7920     7.4010    24.1250   -16.6560     2.2410 
   99.6250    98.9850     6.0830    -4.9650    74.7810     7.5680     5.8650     7.9880    24.1250   -16.9090     2.2170 
   99.7500    99.1070     6.1030    -4.9830    72.2260     7.8760     6.0080     9.1770    24.1250   -17.2850     2.1840 
   99.8750    99.2290     6.1230    -5.0010    69.3340     8.1500     6.1740    10.9190    24.1250   -17.7320     2.1570 
  100.0000    99.3510     6.1430    -5.0180    66.2180     8.2720     6.3010    12.0550    24.1250   -18.2280     2.1490 
  100.1250    99.4730     6.1640    -5.0360    60.9130     8.1640     6.3290    11.2890    24.1250   -18.7360     2.1590 
  100.2500    99.5950     6.1840    -5.0540    56.7430     7.9460     6.2890    10.6140    24.1250   -19.1920     2.1750 
  100.3750    99.7170     6.2040    -5.0720    56.3130     7.7540     6.2370    10.1320    24.1250   -19.5440     2.1910 
  100.5000    99.8390     6.2240    -5.0890    57.6900     7.7090     6.2350     9.6230    24.1250   -19.7720     2.1970 
  100.6250    99.9610     6.2450    -5.1070    59.1540     7.9050     6.3450    10.1690    24.1460   -19.8400     2.1900 
  100.7500   100.0840     6.2650    -5.1250    60.0310     8.2860     6.5540    11.0580    24.1960   -19.7810     2.1830 
  100.8750   100.2060     6.2850    -5.1430    59.6750     8.8000     6.8460    11.4250    24.2490   -19.6140     2.1880 
  101.0000   100.3280     6.3050    -5.1600    57.0710     9.4030     7.2090    11.5980    24.2790   -19.3350     2.2070 
  101.1250   100.4500     6.3260    -5.1780    54.3720    10.0350     7.6200    11.7010    24.3260   -18.9170     2.2310 
  101.2500   100.5720     6.3460    -5.1960    54.3860    10.5430     7.9850    11.5330    24.4220   -18.3650     2.2610 
  101.3750   100.6940     6.3660    -5.2130    55.8180    10.7200     8.1730    11.2910    24.5170   -17.6850     2.3050 
  101.5000   100.8160     6.3860    -5.2310    56.0350    10.3830     8.0580    11.2940    24.5630   -16.9150     2.3630 
  101.6250   100.9380     6.4070    -5.2490    55.5500     9.4790     7.5790    10.5230    24.5690   -16.1470     2.4030 
  101.7500   101.0600     6.4270    -5.2670    57.9430     8.4210     6.9580     8.6490    24.5670   -15.4860     2.3940 
  101.8750   101.1820     6.4470    -5.2840    63.2500     7.5810     6.4130     7.1920    24.5440   -14.9960     2.3420 
  102.0000   101.3040     6.4670    -5.3020    66.6460     7.1570     6.0910     6.7460    24.4700   -14.6940     2.2800 
  102.1250   101.4260     6.4880    -5.3200    63.0170     7.1940     6.0680     7.3430    24.3330   -14.6050     2.2410 
  102.2500   101.5480     6.5080    -5.3380    57.6010     7.4610     6.2400     8.1080    24.2370   -14.6850     2.2270 
  102.3750   101.6700     6.5280    -5.3550    55.8710     7.7920     6.5090     8.7570    24.2010   -14.8940     2.2250 
