~V
VERS. 2.00: Ver 2.00
~W
STRT.M 15.0000:
STOP.M 219.0000:
STEP.M 0.1250:
NULL. -999.2500:
UWI. FD11101:
~C
DEPT.M :
TVD. :
DX. :
DY. :
GR.API :
RML.OHMM :
RI. :
RXO.OHMM :
CALI.CM :
SP.MV :
DEN.GM/CC :
~A
# ...
  122.2500   119.5970     3.9760    17.7020    71.2050    14.3480    13.1330    16.8120    21.6000   -27.3350     2.2350 
  122.3750   119.7110     3.9840    17.7540    69.3350    14.9650    13.8120    16.6930    21.5000   -26.7700     2.2710 
  122.5000   119.8240     3.9910    17.8050    67.2870    15.2610    14.2410    15.9350    21.2190   -26.1240     2.3090 
  122.6250   119.9380     3.9980    17.8560    67.3880    15.1200    14.2770    15.2020    20.7640   -25.3780     2.3400 
  122.7500   120.0520     4.0060    17.9070    68.2320    14.6780    14.0170    14.6340    20.4900   -24.5190     2.3630 
  122.8750   120.1660     4.0130    17.9580    68.4020    14.0740    13.5730    14.4040    20.4890   -23.5690     2.3850 
  123.0000   120.2800     4.0200    18.0100    67.3650    13.4580    13.0710    13.8710    20.6840   -22.6210     2.4090 
  123.1250   120.3930     4.0280    18.0610    65.3470    13.0010    12.6530    13.1320    21.0170   -21.7660     2.4290 
  123.2500   120.5070     4.0350    18.1120    64.7920    12.7880    12.4110    12.1750    21.4270   -21.0100     2.4340 
  123.3750   120.6210     4.0420    18.1630    66.0820    12.8780    12.4080    11.4970    21.7060   -20.3330     2.4210 
  123.5000   120.7350     4.0500    18.2140    67.4500    13.2750    12.6720    11.3210    21.7340   -19.7170     2.3940 
  123.6250   120.8490     4.0570    18.2650    65.3900    13.9310    13.2060    11.9080    21.5200   -19.1840     2.3670 
  123.7500   120.9620     4.0640    18.3170    60.1380    14.6310    13.8540    13.1170    21.3000   -18.7220     2.3530 
  123.8750   121.0760     4.0720    18.3680    57.0100    15.1600    14.4580    14.4830    21.1730   -18.3380     2.3550 
  124.0000   121.1900     4.0790    18.4190    58.6570    15.3900    14.8600    14.8000    21.1980   -18.0510     2.3720 
  124.1250   121.3040     4.0860    18.4700    61.6690    15.5020    14.9160    14.1750    21.3640   -17.8380     2.3950 
  124.2500   121.4180     4.0940    18.5210    61.5860    15.6530    14.7000    12.8550    21.5350   -17.6790     2.4140 
  124.3750   121.5310     4.1010    18.5720    60.5280    15.6910    14.3210    11.9200    21.7390   -17.5430     2.4200 
  124.5000   121.6450     4.1090    18.6250    61.8090    15.4970    13.9370    11.5740    21.9300   -17.4470     2.4100 
  124.6250   121.7560     4.1170    18.6810    63.3740    15.3460    13.7630    11.4210    21.8810   -17.4400     2.3910 
  124.7500   121.8670     4.1250    18.7370    63.5130    15.6520    13.9260    11.0400    21.5110   -17.4350     2.3790 
  124.8750   121.9780     4.1330    18.7940    62.7190    16.5400    14.5330    10.9550    21.1270   -17.4130     2.3870 
  125.0000   122.0900     4.1410    18.8500    61.4660    17.9970    15.6410    10.8580    20.8870   -17.3810     2.4170 
  125.1250   122.2010     4.1490    18.9060    58.9170    19.8100    17.1820    12.6640    20.8310   -17.3490     2.4570 
  125.2500   122.3120     4.1570    18.9620    57.6370    21.2670    18.5910    14.3820    20.9110   -17.2800     2.4840 
  125.3750   122.4240     4.1650    19.0190    59.1370    21.6200    19.1770    16.2350    21.2260   -17.2030     2.4850 
  125.5000   122.5350     4.1730    19.0750    63.3040    20.4170    18.4300    16.9180    21.7210   -17.1250     2.4590 
  125.6250   122.6460     4.1810    19.1310    69.6840    17.8160    16.3320    16.2680    21.9570   -17.0280     2.4140 
  125.7500   122.7580     4.1890    19.1880    76.5620    15.0640    13.9080    14.5330    21.7860   -16.9730     2.3710 
  125.8750   122.8690     4.1970    19.2440    80.3470    13.0850    11.9420    11.7620    21.3860   -16.9820     2.3440 
  126.0000   122.9800     4.2050    19.3000    78.4300    12.3970    10.9090     8.5980    21.0760   -17.0160     2.3440 
  126.1250   123.0920     4.2140    19.3560    72.9090    13.2770    11.1450     9.0020    20.9740   -17.0540     2.3800 
  126.2500   123.2030     4.2220    19.4130    69.4550    15.2030    12.3870    12.3210    21.0030   -17.1110     2.4330 
  126.3750   123.3140     4.2300    19.4690    68.8320    17.6830    14.3730    16.4120    21.2170   -17.1860     2.4820 
  126.5000   123.4260     4.2380    19.5250    67.9730    20.0590    16.6070    18.1650    21.5970   -17.2730     2.5030 
  126.6250   123.5370     4.2460    19.5810    65.3710    21.5080    18.3020    17.4700    21.8790   -17.3380     2.4870 
  126.7500   123.6480     4.2540    19.6380    65.8530    21.9220    19.0960    17.0700    21.8490   -17.4190     2.4530 
  126.8750   123.7600     4.2620    19.6940    69.8200    21.6420    19.1110    16.6460    21.5320   -17.5190     2.4250 
  127.0000   123.8710     4.2700    19.7500    71.7580    21.2530    18.8050    16.1680    21.0740   -17.6150     2.4160 
  127.1250   123.9820     4.2780    19.8060    66.0290    21.2970    18.7030    15.8780    20.7890   -17.7460     2.4370 
  127.2500   124.0940     4.2860    19.8630    59.2770    21.7420    18.9400    16.1100    20.7530   -17.8900     2.4770 
  127.3750   124.2050     4.2940    19.9190    57.9820    22.3050    19.3610    16.2590    20.8970   -18.0110     2.5260 
  127.5000   124.3160     4.3020    19.9750    60.5200    22.6440    19.7010    17.2290    21.1770   -18.1340     2.5640 
  127.6250   124.4270     4.3100    20.0310    63.1780    22.5220    19.7010    18.5790    21.4750   -18.2640     2.5690 
  127.7500   124.5390     4.3180    20.0880    66.5190    22.1700    19.4660    17.9110    21.6330   -18.3540     2.5390 
  127.8750   124.6500     4.3270    20.1440    69.9040    21.8980    19.2380    15.6160    21.5340   -18.3850     2.4930 
  128.0000   124.7610     4.3350    20.2000    69.3360    21.8710    19.2190    14.6640    21.1260   -18.3790     2.4580 
  128.1250   124.8730     4.3430    20.2570    63.3270    21.8100    19.2970    15.5210    20.6920   -18.3870     2.4630 
  128.2500   124.9840     4.3510    20.3130    59.4870    21.0950    18.9480    16.9770    20.4490   -18.4040     2.4950 
  128.3750   125.0950     4.3590    20.3690    61.0660    19.3000    17.7100    17.6390    20.5220   -18.4210     2.5250 
  128.5000   125.2070     4.3670    20.4250    67.8290    16.4840    15.4910    17.8770    20.7810   -18.4650     2.5250 
  128.6250   125.3180     4.3750    20.4820    77.4350    13.2560    12.6900    15.1250    21.0720   -18.5970     2.4820 
  128.7500   125.4290     4.3830    20.5380    87.7220    10.4590    10.0850    11.6480    21.2400   -18.7800     2.4220 
  128.8750   125.5410     4.3910    20.5940    96.5800     8.4580     8.0670     8.2410    21.2450   -18.9680     2.3680 
  129.0000   125.6520     4.3990    20.6500   101.9840     7.2600     6.7240     6.6860    21.0420   -19.1680     2.3360 
  129.1250   125.7630     4.4070    20.7070   102.0390     6.7390     6.0240     6.5650    20.6990   -19.3540     2.3300 
  129.2500   125.8750     4.4150    20.7630   100.0240     6.5520     5.6970     6.5470    20.5920   -19.4940     2.3390 
  129.3750   125.9860     4.4230    20.8190    98.3410     6.5310     5.6000     6.4880    20.9840   -19.6170     2.3500 
  129.5000   126.0970     4.4310    20.8750    96.6830     6.5540     5.6120     6.4950    21.6710   -19.6930     2.3500 
  129.6250   126.2090     4.4400    20.9320    93.9720     6.5380     5.6400     6.6010    22.3400   -19.7040     2.3230 
  129.7500   126.3200     4.4480    20.9880    90.6560     6.4910     5.6420     6.6910    22.8710   -19.7030     2.2730 
  129.8750   126.4310     4.4560    21.0440    88.9050     6.4830     5.6550     6.6820    23.0320   -19.6690     2.2120 
  130.0000   126.5430     4.4640    21.1010    91.8350     6.6340     5.7690     6.6780    22.5670   -19.6200     2.1610 
  130.1250   126.6540     4.4720    21.1570    97.5940     7.1260     6.1570     6.7020    21.7750   -19.5700     2.1470 
  130.2500   126.7650     4.4800    21.2130    97.1700     7.9510     6.8630     6.7900    21.1270   -19.5200     2.1810 
  130.3750   126.8760     4.4880    21.2690    87.6500     8.9840     7.8300     7.3870    20.7560   -19.4840     2.2620 
