~V
VERS. 2.00: Ver 2.00
~W
STRT.M 45.0000:
STOP.M 272.0000:
STEP.M 0.1250:
NULL. -999.2500:
UWI. FD11191:
~C
DEPT.M :
TVD. :
DX. :
DY. :
SP.MV :
GR.API :
RI. :
RML.OHMM :
RXO.OHMM :
DEN.GM/CC :
~A
# ...
  136.2500   135.6170    -7.3270     1.1000   -42.3950    78.7320     3.8670     3.9740     5.3400     2.2010 
  136.3750   135.7380    -7.3570     1.0970   -42.3280    77.6860     3.5550     3.6410     4.7600     2.2130 
  136.5000   135.8590    -7.3870     1.0940   -42.2320    80.5470     3.1890     3.2590     4.2080     2.2240 
  136.6250   135.9800    -7.4170     1.0900   -42.1390    84.5980     2.8080     2.8660     3.9730     2.2400 
  136.7500   136.1020    -7.4470     1.0870   -42.0790    87.3820     2.5120     2.5700     3.8420     2.2530 
  136.8750   136.2230    -7.4770     1.0840   -42.0750    89.7500     2.4160     2.4880     3.5610     2.2610 
  137.0000   136.3440    -7.5070     1.0810   -42.1270    91.7290     2.6070     2.7330     3.2320     2.3040 
  137.1250   136.4660    -7.5370     1.0780   -42.2370    90.7620     3.2700     3.5570     3.8260     2.3880 
  137.2500   136.5870    -7.5670     1.0740   -42.3900    84.5110     4.3920     4.9610     9.5440     2.4350 
  137.3750   136.7080    -7.5970     1.0710   -42.5730    76.8530     5.6870     6.5280    18.9820     2.3690 
  137.5000   136.8300    -7.6270     1.0680   -42.7620    72.1880     6.6370     7.5580    20.4300     2.2490 
  137.6250   136.9510    -7.6570     1.0640   -42.9320    72.0790     6.8150     7.6010    13.3210     2.1630 
  137.7500   137.0720    -7.6880     1.0610   -43.0630    72.8270     6.4910     7.0270     8.1450     2.1460 
  137.8750   137.1930    -7.7180     1.0570   -43.1360    71.2330     6.2410     6.6350     6.9360     2.2130 
  138.0000   137.3150    -7.7480     1.0540   -43.1520    69.5380     6.6290     7.0960     7.5360     2.3540 
  138.1250   137.4360    -7.7780     1.0510   -43.1190    70.0820     8.0030     8.7630    12.7800     2.5130 
  138.2500   137.5570    -7.8080     1.0470   -43.0560    70.6940     9.8460    10.9780    21.1490     2.6070 
  138.3750   137.6780    -7.8390     1.0440   -42.9780    69.3710    11.0880    12.4150    27.8280     2.5740 
  138.5000   137.7990    -7.8690     1.0410   -42.8980    66.3920    11.0770    12.3490    31.6450     2.4310 
  138.6250   137.9210    -7.9000     1.0370   -42.8250    64.1100     9.8730    10.8700    26.5670     2.2540 
  138.7500   138.0420    -7.9300     1.0340   -42.7640    62.6890     8.1190     8.8140    15.0630     2.1320 
  138.8750   138.1630    -7.9600     1.0310   -42.7180    61.6160     6.8010     7.4010     8.4870     2.0970 
  139.0000   138.2840    -7.9910     1.0270   -42.6890    60.0280     6.1690     6.8270     7.1430     2.1020 
  139.1250   138.4050    -8.0210     1.0240   -42.6790    60.5870     5.9690     6.7480     7.1160     2.1000 
  139.2500   138.5270    -8.0520     1.0200   -42.6900    61.1550     6.0690     6.9610     7.4270     2.0920 
  139.3750   138.6480    -8.0820     1.0170   -42.7280    60.8340     6.2300     7.1760     7.4610     2.0950 
  139.5000   138.7690    -8.1130     1.0130   -42.7940    60.5070     6.3310     7.2810     7.4290     2.1170 
  139.6250   138.8900    -8.1430     1.0090   -42.8830    64.8540     6.3820     7.3080     7.6390     2.1400 
  139.7500   139.0110    -8.1730     1.0060   -42.9840    71.8570     6.4090     7.3010     7.5960     2.1480 
  139.8750   139.1330    -8.2040     1.0020   -43.0720    75.9000     6.4410     7.2940     7.3520     2.1450 
  140.0000   139.2540    -8.2340     0.9980   -43.1230    76.6350     6.4770     7.3120     7.4210     2.1420 
  140.1250   139.3750    -8.2650     0.9950   -43.1140    76.6360     6.5160     7.3450     7.5830     2.1350 
  140.2500   139.4960    -8.2950     0.9910   -43.0420    76.3850     6.5300     7.3650     7.5780     2.1210 
  140.3750   139.6170    -8.3260     0.9870   -42.9140    73.5310     6.4040     7.1990     7.5370     2.0980 
  140.5000   139.7380    -8.3560     0.9840   -42.7580    67.9760     6.0250     6.7170     7.4740     2.0830 
  140.6250   139.8600    -8.3870     0.9800   -42.6050    64.1790     5.3630     5.9110     7.3710     2.0990 
  140.7500   139.9810    -8.4170     0.9760   -42.4900    65.6980     4.5980     4.9930     7.0430     2.1460 
  140.8750   140.1020    -8.4480     0.9720   -42.4480    71.3540     3.9330     4.2430     6.2480     2.1870 
  141.0000   140.2230    -8.4780     0.9680   -42.4850    77.1820     3.5350     3.8370     5.1170     2.1930 
  141.1250   140.3440    -8.5090     0.9650   -42.5890    78.7130     3.4430     3.8040     4.2520     2.1760 
  141.2500   140.4650    -8.5390     0.9610   -42.7160    76.0770     3.5560     4.0130     4.4810     2.1680 
  141.3750   140.5870    -8.5700     0.9570   -42.8170    73.2220     3.6990     4.2090     6.4250     2.1810 
  141.5000   140.7080    -8.6010     0.9540   -42.8660    74.2570     3.7330     4.2220     8.0430     2.2010 
  141.6250   140.8290    -8.6310     0.9500   -42.8660    79.0880     3.5570     3.9550     6.8730     2.2230 
  141.7500   140.9500    -8.6620     0.9470   -42.8590    83.4790     3.2400     3.5340     4.9530     2.2420 
  141.8750   141.0710    -8.6930     0.9430   -42.8890    84.9990     2.9770     3.2180     4.1630     2.2430 
  142.0000   141.1920    -8.7240     0.9390   -42.9790    83.5420     2.8360     3.0670     3.7120     2.2270 
  142.1250   141.3130    -8.7550     0.9360   -43.1310    79.9620     2.8570     3.1210     3.4540     2.2140 
  142.2500   141.4340    -8.7860     0.9320   -43.3150    78.4540     2.9920     3.3030     3.7440     2.2120 
  142.3750   141.5550    -8.8170     0.9290   -43.4960    80.8950     3.2270     3.6050     4.1950     2.1950 
  142.5000   141.6760    -8.8480     0.9250   -43.6400    84.0780     3.4990     3.9430     4.2620     2.1580 
  142.6250   141.7970    -8.8780     0.9220   -43.7170    84.2130     3.6920     4.1910     4.4410     2.1290 
  142.7500   141.9180    -8.9090     0.9180   -43.7190    81.2970     3.7490     4.2670     5.0560     2.1340 
  142.8750   142.0390    -8.9400     0.9150   -43.6440    78.2240     3.5900     4.0700     5.3090     2.1670 
  143.0000   142.1610    -8.9710     0.9110   -43.5240    78.3910     3.3190     3.7430     4.8460     2.2050 
  143.1250   142.2820    -9.0020     0.9080   -43.4070    82.2960     3.0760     3.4520     4.1550     2.2280 
  143.2500   142.4030    -9.0330     0.9050   -43.3480    87.3140     2.9320     3.2960     3.7280     2.2280 
  143.3750   142.5240    -9.0640     0.9010   -43.3880    88.8680     3.0300     3.4530     4.0080     2.1980 
  143.5000   142.6450    -9.0950     0.8980   -43.5190    87.8070     3.2820     3.8080     4.8150     2.1580 
  143.6250   142.7660    -9.1260     0.8940   -43.7040    85.9110     3.6500     4.3040     5.3130     2.1200 
  143.7500   142.8870    -9.1570     0.8910   -43.8900    83.7490     4.0490     4.8190     5.3810     2.0890 
  143.8750   143.0080    -9.1880     0.8870   -44.0330    80.4450     4.4020     5.2490     5.4850     2.0650 
  144.0000   143.1290    -9.2190     0.8830   -44.1200    75.8770     4.6850     5.5640     5.7740     2.0520 
  144.1250   143.2500    -9.2500     0.8790   -44.1430    72.0780     4.8430     5.7390     6.0520     2.0530 
  144.2500   143.3710    -9.2810     0.8760   -44.1160    70.0670     4.9340     5.8320     6.1750     2.0610 
  144.3750   143.4920    -9.3120     0.8720   -44.0430    70.2250     4.9530     5.8510     6.2550     2.0690 
  144.5000   143.6130    -9.3430     0.8680   -43.9330    70.9850     4.9350     5.8290     6.2720     2.0760 
  144.6250   143.7340    -9.3740     0.8640   -43.7870    71.2870     4.8750     5.7540     6.3030     2.0770 
  144.7500   143.8550    -9.4050     0.8610   -43.6110    70.9560     4.7950     5.6610     6.4030     2.0810 
  144.8750   143.9760    -9.4360     0.8570   -43.4120    70.6760     4.7520     5.6140     6.3270     2.0880 
  145.0000   144.0970    -9.4670     0.8540   -43.2100    72.1310     4.7890     5.6790     5.9630     2.0900 
  145.1250   144.2180    -9.4980     0.8500   -43.0360    75.6000     4.9510     5.9050     6.1450     2.0790 
  145.2500   144.3390    -9.5290     0.8470   -42.9190    77.7730     5.1860     6.2320     7.3310     2.0680 
