~V
VERS. 2.00: Ver 2.00
~W
STRT.M 30.0000:
STOP.M 284.0000:
STEP.M 0.1250:
NULL. -999.2500:
UWI. FD11172:
~C
DEPT.M :
TVD. :
DX. :
DY. :
SP.MV :
GR.API :
RI. :
RML.OHMM :
RXO.OHMM :
DEN.GM/CC :
~A
   30.0000    30.0000     0.0000     0.0000    63.8990    40.5700     0.1230     0.3190     1.8220     2.3500 
   30.1250    30.1250     0.0010     0.0000    62.5340    39.7490     0.1240     0.3160     1.8040     2.3550 
   30.2500    30.2500     0.0030     0.0000    61.3090    38.7860     0.1240     0.3130     1.7900     2.3680 
   30.3750    30.3750     0.0040    -0.0010    60.2970    37.8030     0.1250     0.3130     1.7790     2.3700 
   30.5000    30.5000     0.0060    -0.0010    59.5320    37.4050     0.1250     0.3100     1.7670     2.3600 
   30.6250    30.6250     0.0080    -0.0010    59.0780    37.2520     0.1260     0.3150     1.7660     2.3440 
   30.7500    30.7500     0.0100    -0.0010    58.9420    36.4450     0.1270     0.3110     1.7660     2.3320 
   30.8750    30.8750     0.0110    -0.0010    59.1620    36.2080     0.1280     0.3070     1.7520     2.3290 
   31.0000    31.0000     0.0130    -0.0010    59.7030    37.0550     0.1390     0.3020     1.7200     2.3280 
   31.1250    31.1250     0.0150    -0.0020    60.5600    37.5000     0.1420     0.2950     1.6410     2.3350 
   31.2500    31.2500     0.0170    -0.0020    61.6670    37.4440     0.1530     0.2940     1.5030     2.3540 
   31.3750    31.3750     0.0190    -0.0020    62.9900    38.3070     0.1540     0.2900     1.3300     2.3730 
   31.5000    31.5000     0.0210    -0.0020    64.4660    40.6400     0.1550     0.2820     1.1380     2.3710 
   31.6250    31.6250     0.0230    -0.0020    66.0540    43.5680     0.1600     0.2750     0.9140     2.3570 
   31.7500    31.7500     0.0260    -0.0020    67.6920    46.3130     0.1600     0.2700     0.7140     2.3530 
   31.8750    31.8750     0.0280    -0.0020    69.3070    47.4500     0.1690     0.2670     0.6710     2.3590 
   32.0000    32.0000     0.0300    -0.0020    70.8000    45.8440     0.1700     0.2660     0.7140     2.3610 
   32.1250    32.1250     0.0320    -0.0030    72.0510    43.6170     0.1690     0.2640     0.5950     2.3650 
   32.2500    32.2500     0.0340    -0.0030    73.0070    42.1450     0.1670     0.2600     0.3520     2.3790 
   32.3750    32.3750     0.0370    -0.0030    77.9470    41.4170     0.1650     0.2550     0.1940     2.3930 
   32.5000    32.5000     0.0390    -0.0030    79.8140    39.7140     0.1640     0.2510     0.1270     2.3890 
   32.6250    32.6250     0.0420    -0.0030    81.2120    38.7090     0.1730     0.2470     0.0820     2.3560 
   32.7500    32.7500     0.0440    -0.0030    81.8930    39.3340     0.1790     0.2450     0.0490     2.3130 
   32.8750    32.8750     0.0470    -0.0030    81.3350    39.2360     0.1950     0.2430     0.0310     2.2890 
   33.0000    33.0000     0.0490    -0.0030    79.1200    36.1680     0.2100     0.2430     0.0240     2.2850 
   33.1250    33.1250     0.0520    -0.0040    74.9780    33.5360     0.2150     0.2440     0.0230     2.2850 
   33.2500    33.2500     0.0540    -0.0040    69.6550    33.9220     0.2160     0.2430     0.0240     2.2820 
   33.3750    33.3750     0.0570    -0.0040    63.9720    35.7560     0.2120     0.2400     0.0290     2.2990 
   33.5000    33.4990     0.0600    -0.0040    58.2920    36.2570     0.1950     0.2410     0.0330     2.3480 
   33.6250    33.6240     0.0620    -0.0050    52.4900    36.3760     0.1730     0.2440     0.0370     2.4080 
   33.7500    33.7490     0.0650    -0.0050    46.5880    38.3570     0.1350     0.2120     0.0430     2.4350 
   33.8750    33.8740     0.0680    -0.0050    40.8750    41.4450     0.0870     0.1590     0.0540     2.4060 
   34.0000    33.9990     0.0710    -0.0050    35.5490    42.5180     0.0520     0.0930     0.0700     2.3610 
   34.1250    34.1240     0.0740    -0.0060    30.5640    40.6050     0.0410     0.0490     0.0940     2.3610 
   34.2500    34.2490     0.0770    -0.0060    25.6300    38.3790     0.0720     0.0660     0.1770     2.4500 
   34.3750    34.3740     0.0800    -0.0060    20.4530    36.9970     0.2030     0.2240     0.8930     2.5940 
   34.5000    34.4990     0.0830    -0.0060    14.8640    36.2240     0.6580     0.7580     3.4210     2.6250 
   34.6250    34.6240     0.0860    -0.0070     9.0150    38.3740     2.0290     2.1950     7.2830     2.4380 
   34.7500    34.7490     0.0890    -0.0070     3.7170    44.8680     5.5610    16.1660     9.5760     2.1740 
   34.8750    34.8740     0.0920    -0.0070    -0.0820    53.4360     8.5520    21.5790     9.5990     2.0200 
   35.0000    34.9990     0.0950    -0.0070    -2.5040    60.5890    10.2070    23.0950     9.2930     1.9910 
   35.1250    35.1240     0.0990    -0.0070    -4.1070    65.8920    10.2010    20.8250     9.3650     1.9970 
   35.2500    35.2490     0.1020    -0.0080    -5.3620    70.5980     8.7100     8.5280     9.4080     2.0050 
   35.3750    35.3740     0.1050    -0.0080    -6.3420    73.6650     8.3840     7.1820     9.2220     1.9980 
   35.5000    35.4990     0.1090    -0.0080    -7.1080    73.2210     8.6510     7.2460     8.9830     1.9620 
   35.6250    35.6240     0.1120    -0.0080    -7.6800    72.4740     9.2080     7.6400     8.8700     1.9540 
   35.7500    35.7490     0.1160    -0.0080    -8.1110    73.1630     9.8190     8.1300     8.9110     2.0650 
   35.8750    35.8740     0.1190    -0.0080    -8.4610    73.7830    10.4760     8.6940     8.9750     2.2980 
   36.0000    35.9990     0.1230    -0.0080    -8.8130    71.8960    11.1350     9.2510     9.1280     2.4960 
   36.1250    36.1240     0.1270    -0.0080    -9.2120    69.7830    11.8700     9.9070     9.4300     2.5120 
   36.2500    36.2490     0.1300    -0.0090    -9.6170    68.6590    12.7250    10.7140     9.4900     2.4290 
   36.3750    36.3740     0.1340    -0.0090    -9.9230    68.0930    13.2930    11.3220     9.1920     2.4060 
   36.5000    36.4980     0.1380    -0.0090   -10.0650    69.2350    13.3160    11.5980     8.8930     2.4400 
   36.6250    36.6230     0.1420    -0.0090   -10.1070    71.5400    12.6080    11.3650     8.8640     2.3860 
   36.7500    36.7480     0.1460    -0.0090   -10.2540    73.2290    11.4930    10.7910     9.0600     2.2280 
   36.8750    36.8730     0.1500    -0.0090   -10.6520    75.9320    10.5860    10.4040     9.1520     2.0860 
   37.0000    36.9980     0.1540    -0.0090   -11.1950    78.4370    10.1770    10.4100     9.1150     2.0450 
   37.1250    37.1230     0.1580    -0.0090   -11.6810    78.1890    10.5370    11.2010     9.6440     2.1200 
   37.2500    37.2480     0.1620    -0.0090   -11.9970    74.7270    11.4820    12.6080    11.2960     2.2460 
   37.3750    37.3730     0.1660    -0.0090   -12.1700    69.6040    12.7320    14.3520    12.5690     2.3060 
   37.5000    37.4980     0.1700    -0.0090   -12.3930    64.0300    13.6410    15.5540    11.6450     2.2330 
   37.6250    37.6230     0.1750    -0.0090   -12.8800    60.1630    13.7510    15.7700    10.2200     2.0890 
   37.7500    37.7480     0.1790    -0.0090   -13.5970    61.6520    13.2470    15.2160    10.3040     1.9910 
   37.8750    37.8730     0.1830    -0.0090   -14.3320    65.5590    12.3760    14.2740    10.9090     1.9670 
   38.0000    37.9980     0.1880    -0.0090   -14.9220    65.7550    11.6020    13.5320    10.9300     1.9680 
   38.1250    38.1230     0.1920    -0.0090   -15.3520    63.0090    11.0130    12.9370    10.6060     1.9740 
   38.2500    38.2470     0.1970    -0.0090   -15.6720    62.5300    10.5360    12.4190    10.3420     1.9840 
   38.3750    38.3720     0.2010    -0.0090   -15.8930    64.1700    10.2230    12.0350    10.2220     1.9940 
   38.5000    38.4970     0.2060    -0.0090   -16.0540    65.0310    10.0810    11.8260    10.2050     2.0010 
   38.6250    38.6220     0.2100    -0.0090   -16.2400    65.6550    10.1270    11.9630    10.1820     2.0030 
   38.7500    38.7470     0.2150    -0.0090   -16.5420    66.8140    10.3460    12.3500    10.2520     1.9970 
   38.8750    38.8720     0.2200    -0.0090   -16.9380    68.1140    10.7440    12.9030    10.5950     1.9880 
   39.0000    38.9970     0.2240    -0.0090   -17.2560    68.5320    11.1590    13.4850    10.9050     1.9820 
