~V
VERS. 2.00: Ver 2.00
~W
STRT.M 20.0000:
STOP.M 292.0000:
STEP.M 0.1250:
NULL. -999.2500:
UWI. FD11146:
~C
DEPT.M :
TVD. :
DX. :
DY. :
GR.API :
RML.OHMM :
RI. :
RXO.OHMM :
CALI.CM :
SP.MV :
DEN.GM/CC :
~A
# ...
  209.7500   203.5450    30.5960   -28.7970    45.0770     8.0630     8.0180     7.5790    23.4420   -18.3790     2.4250 
  209.8750   203.6620    30.6290   -28.8260    46.6600     8.2840     8.4950     7.8210    23.7110   -18.5820     2.4170 
  210.0000   203.7790    30.6620   -28.8540    48.2070     8.2860     8.6680     8.2100    23.9540   -18.7820     2.4070 
  210.1250   203.8960    30.6950   -28.8830    48.7250     8.1170     8.5720     8.4740    24.0640   -18.9530     2.3960 
  210.2500   204.0140    30.7280   -28.9120    47.7130     7.8680     8.3260     8.6910    24.0740   -19.1020     2.3870 
  210.3750   204.1310    30.7610   -28.9410    45.6200     7.5990     7.9960     8.5460    24.0190   -19.2380     2.3820 
  210.5000   204.2480    30.7940   -28.9700    44.1910     7.3770     7.6480     8.0820    23.8900   -19.3370     2.3820 
  210.6250   204.3650    30.8270   -28.9980    44.2860     7.2790     7.3530     7.2800    23.8050   -19.3780     2.3840 
  210.7500   204.4820    30.8600   -29.0270    45.1590     7.3030     7.1430     6.9860    23.8350   -19.3980     2.3840 
  210.8750   204.5990    30.8930   -29.0560    46.5780     7.4250     7.0280     7.0370    23.9090   -19.3860     2.3860 
  211.0000   204.7160    30.9260   -29.0850    47.5500     7.6040     7.0000     7.1270    23.9450   -19.3190     2.3930 
  211.1250   204.8330    30.9590   -29.1130    46.8400     7.7990     7.0430     7.1490    23.9460   -19.2180     2.4050 
  211.2500   204.9500    30.9920   -29.1420    46.3850     7.9800     7.1170     7.0940    23.9460   -19.1140     2.4150 
  211.3750   205.0670    31.0250   -29.1710    49.0140     8.1560     7.2080     7.0140    23.9400   -19.0330     2.4200 
  211.5000   205.1840    31.0580   -29.2000    53.4960     8.3560     7.3190     7.0960    23.9230   -19.0010     2.4190 
  211.6250   205.3010    31.0910   -29.2290    55.6180     8.6280     7.4720     7.2670    23.8940   -19.0440     2.4130 
  211.7500   205.4190    31.1240   -29.2570    54.8880     8.9780     7.6750     7.4600    23.9110   -19.1630     2.4090 
  211.8750   205.5360    31.1570   -29.2860    53.8060     9.3920     7.9260     7.7570    23.9840   -19.3690     2.4100 
  212.0000   205.6530    31.1900   -29.3150    54.4210     9.8310     8.2100     8.4080    24.0570   -19.6670     2.4150 
  212.1250   205.7700    31.2230   -29.3440    56.5290    10.2400     8.4960     9.1070    24.0740   -20.0590     2.4230 
  212.2500   205.8870    31.2560   -29.3720    60.7730    10.5870     8.7530     9.5510    24.0490   -20.5090     2.4350 
  212.3750   206.0040    31.2890   -29.4010    65.7160    10.8650     8.9630     9.6280    24.0090   -21.0000     2.4450 
  212.5000   206.1210    31.3220   -29.4300    69.3630    11.0760     9.1160     9.5690    23.9670   -21.5220     2.4470 
  212.6250   206.2380    31.3550   -29.4590    70.8650    11.2240     9.2090     9.8610    23.9510   -22.0380     2.4420 
  212.7500   206.3550    31.3880   -29.4880    72.4790    11.3270     9.2600    10.1630    23.9510   -22.5320     2.4350 
  212.8750   206.4720    31.4210   -29.5160    74.2330    11.3780     9.2750    10.3080    23.9820   -23.0130     2.4320 
  213.0000   206.5890    31.4540   -29.5450    74.6310    11.3570     9.2440    10.2510    24.0700   -23.4870     2.4330 
  213.1250   206.7060    31.4870   -29.5740    75.2910    11.2350     9.1380    10.1990    24.1790   -23.9410     2.4340 
  213.2500   206.8240    31.5200   -29.6030    79.5620    11.0320     8.9680     9.9150    24.1490   -24.4150     2.4310 
  213.3750   206.9410    31.5530   -29.6310    85.2310    10.7890     8.7600     9.4690    23.9410   -24.9170     2.4240 
  213.5000   207.0580    31.5860   -29.6600    87.9460    10.5620     8.5560     8.8580    23.7310   -25.4530     2.4130 
  213.6250   207.1750    31.6190   -29.6890    86.0210    10.4280     8.4150     8.5300    23.7520   -26.0570     2.4030 
  213.7500   207.2920    31.6520   -29.7180    82.8080    10.4130     8.3660     8.5680    23.9010   -26.7100     2.4000 
  213.8750   207.4090    31.6850   -29.7470    80.9260    10.5230     8.4240     8.9210    24.0310   -27.3680     2.3990 
  214.0000   207.5260    31.7180   -29.7750    80.6720    10.7360     8.5800     9.2110    24.0840   -27.9800     2.3970 
  214.1250   207.6430    31.7510   -29.8040    79.7710    11.0130     8.8100     9.4390    24.0590   -28.5010     2.3950 
  214.2500   207.7600    31.7840   -29.8330    76.4970    11.2690     9.0420     9.7930    23.9630   -28.8980     2.3990 
  214.3750   207.8770    31.8170   -29.8620    73.8590    11.4240     9.2100    10.2450    23.8110   -29.1580     2.4050 
  214.5000   207.9940    31.8500   -29.8900    75.5420    11.4470     9.2770    10.5030    23.6900   -29.2800     2.4100 
  214.6250   208.1110    31.8830   -29.9190    78.4160    11.4110     9.2830    10.3650    23.6100   -29.2250     2.4150 
  214.7500   208.2290    31.9160   -29.9480    78.0750    11.4590     9.3250    10.0740    23.5800   -29.0230     2.4250 
  214.8750   208.3460    31.9490   -29.9770    76.5270    11.6450     9.4470     9.9230    23.5300   -28.6940     2.4400 
  215.0000   208.4630    31.9820   -30.0060    75.3400    11.9050     9.6190    10.0550    23.4020   -28.2850     2.4570 
  215.1250   208.5800    32.0150   -30.0340    74.0900    12.0150     9.7060    11.2410    23.2280   -27.8320     2.4750 
  215.2500   208.6970    32.0480   -30.0630    74.4380    11.8000     9.5890    12.3150    23.1510   -27.3720     2.4840 
  215.3750   208.8140    32.0800   -30.0920    77.3520    11.2660     9.2580    11.0010    23.1380   -26.9410     2.4780 
  215.5000   208.9310    32.1130   -30.1210    79.8530    10.6390     8.8390     8.5650    23.1520   -26.5580     2.4650 
  215.6250   209.0480    32.1460   -30.1490    77.7420    10.3080     8.5660     7.4160    23.1850   -26.2630     2.4590 
  215.7500   209.1650    32.1790   -30.1780    74.2580    10.4560     8.5840     7.1420    23.2100   -26.0260     2.4590 
  215.8750   209.2820    32.2120   -30.2070    73.8460    11.1130     8.9480     7.3730    23.2460   -25.8170     2.4620 
  216.0000   209.3990    32.2450   -30.2360    77.6140    12.1260     9.6130     8.0250    23.3240   -25.5990     2.4660 
  216.1250   209.5170    32.2780   -30.2650    81.8390    13.0640    10.3520     9.0840    23.4140   -25.3570     2.4740 
  216.2500   209.6340    32.3110   -30.2930    81.5850    13.4030    10.7730    10.0000    23.5240   -25.0680     2.4800 
  216.3750   209.7510    32.3440   -30.3220    79.6650    12.8850    10.6260    10.0430    23.6070   -24.7110     2.4800 
  216.5000   209.8680    32.3770   -30.3510    78.5150    11.6590     9.9270     9.7090    23.6420   -24.2810     2.4720 
  216.6250   209.9850    32.4100   -30.3800    75.7420    10.1810     8.9290     8.7520    23.6230   -23.8230     2.4530 
  216.7500   210.1020    32.4430   -30.4080    69.2240     8.9300     8.0010     7.2570    23.5540   -23.4390     2.4310 
  216.8750   210.2190    32.4760   -30.4370    61.2820     8.0940     7.3070     6.0110    23.4830   -23.2280     2.4100 
  217.0000   210.3360    32.5090   -30.4660    56.1750     7.6880     6.8960     5.7130    23.5170   -23.2620     2.3910 
  217.1250   210.4530    32.5420   -30.4950    55.2180     7.6430     6.7600     5.7780    23.6580   -23.5910     2.3710 
  217.2500   210.5700    32.5750   -30.5240    55.9520     7.7360     6.7710     5.6190    23.6370   -24.1400     2.3530 
  217.3750   210.6870    32.6080   -30.5520    57.2300     7.8270     6.8420     5.1920    23.3870   -24.8270     2.3460 
  217.5000   210.8040    32.6420   -30.5820    59.6260     7.8150     6.8990     4.9250    23.0830   -25.5320     2.3490 
  217.6250   210.9210    32.6760   -30.6110    65.9600     7.6590     6.8920     4.9510    22.9080   -26.0590     2.3490 
  217.7500   211.0380    32.7090   -30.6400    72.3370     7.4430     6.8370     4.9670    22.8670   -26.2860     2.3390 
  217.8750   211.1540    32.7430   -30.6690    75.0250     7.2380     6.7620     4.7770    22.8550   -26.1100     2.3300 
