~V
VERS. 2.00: Ver 2.00
~W
STRT.M 35.0000:
STOP.M 279.0000:
STEP.M 0.1250:
NULL. -999.2500:
UWI. FD11183:
~C
DEPT.M :
TVD. :
DX. :
DY. :
SP.MV :
GR.API :
RI. :
RML.OHMM :
RXO.OHMM :
DEN.GM/CC :
~A
# ...
   80.6250    80.5580    -1.4360     0.7240  -105.2300    61.0570     5.6180     6.3770     6.0400     2.0940 
   80.7500    80.6820    -1.4510     0.7330  -105.1810    61.4540     5.5650     6.3440     5.8370     2.1030 
   80.8750    80.8050    -1.4660     0.7420  -105.2010    64.2250     5.4760     6.2610     5.6480     2.1060 
   81.0000    80.9290    -1.4800     0.7510  -105.2620    69.5610     5.3680     6.1510     5.6000     2.1060 
   81.1250    81.0530    -1.4960     0.7600  -105.3790    74.9590     5.2390     6.0180     5.6640     2.1170 
   81.2500    81.1770    -1.5110     0.7690  -105.4760    77.8100     5.1300     5.9000     5.4770     2.1350 
   81.3750    81.3000    -1.5260     0.7780  -105.4850    77.0360     5.0860     5.8540     5.2880     2.1460 
   81.5000    81.4240    -1.5410     0.7870  -105.4120    75.3080     5.1160     5.9010     5.2750     2.1420 
   81.6250    81.5480    -1.5570     0.7960  -105.2800    75.2360     5.2420     6.0590     5.3390     2.1280 
   81.7500    81.6720    -1.5720     0.8050  -105.1550    73.9880     5.4240     6.2820     5.4410     2.1190 
   81.8750    81.7950    -1.5880     0.8150  -105.0840    70.0810     5.6370     6.5210     5.6480     2.1160 
   82.0000    81.9190    -1.6030     0.8240  -105.1080    66.7840     5.8290     6.7160     5.9420     2.1130 
   82.1250    82.0430    -1.6190     0.8330  -105.1610    64.5000     5.9550     6.8180     6.2610     2.1140 
   82.2500    82.1660    -1.6350     0.8430  -105.2200    62.9890     6.0120     6.8410     6.6140     2.1230 
   82.3750    82.2900    -1.6510     0.8520  -105.3130    64.3590     6.0040     6.7910     6.8010     2.1330 
   82.5000    82.4130    -1.6670     0.8620  -105.3730    67.9600     5.9420     6.6850     6.8120     2.1300 
   82.6250    82.5370    -1.6830     0.8720  -105.3580    69.3370     5.8690     6.5680     6.8820     2.1150 
   82.7500    82.6610    -1.6990     0.8810  -105.2780    67.1260     5.8060     6.4640     6.9370     2.1010 
   82.8750    82.7840    -1.7150     0.8910  -105.1630    65.8420     5.7880     6.4400     6.5490     2.0960 
   83.0000    82.9080    -1.7320     0.9010  -105.0010    67.8230     5.8450     6.5260     6.1710     2.0980 
   83.1250    83.0310    -1.7480     0.9110  -104.7770    70.1840     5.9030     6.6330     6.1930     2.1040 
   83.2500    83.1550    -1.7650     0.9200  -104.5400    71.4590     5.8240     6.5590     6.3150     2.1090 
   83.3750    83.2780    -1.7810     0.9300  -104.3540    70.6080     5.5680     6.2660     6.3700     2.1120 
   83.5000    83.4020    -1.7980     0.9400  -104.1370    71.8580     5.1220     5.7360     6.0030     2.1230 
   83.6250    83.5250    -1.8150     0.9500  -103.8400    77.3640     4.5970     5.1220     5.1140     2.1590 
   83.7500    83.6480    -1.8320     0.9600  -103.5100    83.3730     4.1990     4.6730     4.4220     2.2130 
   83.8750    83.7720    -1.8490     0.9700  -103.1130    86.9930     3.9510     4.4200     4.1880     2.2600 
   84.0000    83.8950    -1.8660     0.9800  -102.7470    90.4020     3.9380     4.4420     4.1850     2.2770 
   84.1250    84.0190    -1.8840     0.9910  -102.5150    95.0860     4.0820     4.6370     4.5370     2.2680 
   84.2500    84.1420    -1.9010     1.0010  -102.4520    97.2550     4.3680     4.9800     5.0840     2.2500 
   84.3750    84.2650    -1.9180     1.0110  -102.4780    93.7050     4.7870     5.4520     5.3120     2.2340 
   84.5000    84.3890    -1.9360     1.0210  -102.6400    89.6380     5.2200     5.9440     5.1940     2.2230 
   84.6250    84.5120    -1.9540     1.0320  -102.9110    87.2670     5.6230     6.3970     5.2810     2.2310 
   84.7500    84.6350    -1.9710     1.0420  -103.2230    85.0100     5.9080     6.7070     5.6470     2.2560 
   84.8750    84.7590    -1.9890     1.0530  -103.5740    81.3560     6.0180     6.8080     5.8860     2.2590 
   85.0000    84.8820    -2.0070     1.0630  -103.8540    77.5860     5.9800     6.7270     5.9780     2.2150 
   85.1250    85.0050    -2.0250     1.0740  -104.0510    75.6050     5.8130     6.5120     5.9970     2.1540 
   85.2500    85.1280    -2.0430     1.0840  -104.2040    76.6510     5.5990     6.2600     5.9500     2.1190 
   85.3750    85.2520    -2.0610     1.0950  -104.3260    81.4970     5.4320     6.0910     5.8820     2.1120 
   85.5000    85.3750    -2.0800     1.1050  -104.4110    85.5670     5.3450     6.0210     5.7300     2.1110 
   85.6250    85.4980    -2.0980     1.1150  -104.4600    83.9740     5.2920     5.9910     5.5560     2.1120 
   85.7500    85.6210    -2.1170     1.1260  -104.4420    79.1720     5.3020     6.0400     5.5060     2.1120 
   85.8750    85.7440    -2.1350     1.1370  -104.4490    76.6540     5.4280     6.2260     5.5430     2.1110 
   86.0000    85.8670    -2.1540     1.1470  -104.4620    78.1760     5.6010     6.4410     5.6120     2.1220 
   86.1250    85.9910    -2.1730     1.1580  -104.4690    79.6920     5.7140     6.5570     5.7010     2.1770 
   86.2500    86.1140    -2.1920     1.1690  -104.3920    79.4740     5.7260     6.5370     5.6090     2.2720 
   86.3750    86.2370    -2.2110     1.1800  -104.1780    77.6140     5.5690     6.2940     5.2390     2.3410 
   86.5000    86.3600    -2.2300     1.1900  -103.8770    77.9340     5.3290     5.9560     4.9930     2.3260 
   86.6250    86.4830    -2.2490     1.2010  -103.5360    80.6110     5.1080     5.6670     5.0850     2.2510 
   86.7500    86.6060    -2.2680     1.2120  -103.2800    82.6480     4.9990     5.5390     5.2400     2.1880 
   86.8750    86.7290    -2.2880     1.2230  -103.1720    80.4610     5.1060     5.6900     5.4010     2.1630 
   87.0000    86.8520    -2.3070     1.2340  -103.2060    76.2420     5.3460     5.9860     5.5490     2.1550 
   87.1250    86.9750    -2.3270     1.2450  -103.2550    73.7880     5.5570     6.2310     5.4750     2.1650 
   87.2500    87.0980    -2.3460     1.2560  -103.2910    72.7170     5.5890     6.2430     5.3010     2.1900 
   87.3750    87.2210    -2.3660     1.2670  -103.2960    73.4650     5.3190     5.8990     5.3690     2.2130 
   87.5000    87.3440    -2.3860     1.2780  -103.2170    78.1060     4.8570     5.3380     5.8280     2.2230 
   87.6250    87.4670    -2.4060     1.2890  -102.9870    85.9380     4.2610     4.6370     5.8910     2.2320 
   87.7500    87.5890    -2.4260     1.3000  -102.6270    91.7270     3.7560     4.0590     4.8870     2.2520 
   87.8750    87.7120    -2.4460     1.3110  -102.2270    95.3490     3.4610     3.7440     3.8250     2.2700 
   88.0000    87.8350    -2.4660     1.3220  -101.8100    99.4550     3.3900     3.6960     3.5010     2.2740 
   88.1250    87.9580    -2.4870     1.3330  -101.3580   104.6520     3.5350     3.8810     3.6800     2.2610 
   88.2500    88.0810    -2.5070     1.3440  -100.9660   108.2740     3.7480     4.1240     4.2300     2.2370 
   88.3750    88.2040    -2.5280     1.3550  -100.7630   109.6660     4.0140     4.3980     4.8720     2.2080 
   88.5000    88.3260    -2.5480     1.3660  -100.7570   107.6670     4.3250     4.7030     4.8880     2.1910 
   88.6250    88.4490    -2.5690     1.3770  -100.9130   102.3820     4.6280     4.9930     4.3820     2.1910 
   88.7500    88.5720    -2.5900     1.3890  -101.1500    96.5980     4.9150     5.3020     4.4810     2.1900 
   88.8750    88.6950    -2.6110     1.4000  -101.3300    90.2870     5.1270     5.5480     5.3350     2.1770 
   89.0000    88.8170    -2.6320     1.4110  -101.4120    81.9790     5.2080     5.6420     5.8490     2.1610 
   89.1250    88.9400    -2.6530     1.4230  -101.4470    75.6490     5.0610     5.4700     5.5470     2.1600 
   89.2500    89.0630    -2.6740     1.4340  -101.5270    76.3250     4.7350     5.0890     4.9140     2.1790 
   89.3750    89.1850    -2.6950     1.4460  -101.6140    84.2240     4.3590     4.6750     4.3820     2.2100 
   89.5000    89.3080    -2.7170     1.4570  -101.6970    93.4710     4.1170     4.4470     4.1030     2.2370 
   89.6250    89.4300    -2.7380     1.4680  -101.7640    99.4120     4.1970     4.5960     4.1670     2.2350 
