~V
VERS. 2.00: Ver 2.00
~W
STRT.M 15.0000:
STOP.M 224.0000:
STEP.M 0.1250:
NULL. -999.2500:
UWI. FD11007:
~C
DEPT.M :
TVD. :
DX. :
DY. :
DEN.GM/CC :
GR.API :
RML.OHMM :
RI. :
RXO.OHMM :
CALI.CM :
SP.MV :
~A
# ...
  213.0000   210.0330    19.1920   -16.8080     2.4760    97.8930    13.4110    10.4150    11.6900    24.6570   -11.5910 
  213.1250   210.1530    19.2200   -16.8300     2.4780    97.8930    13.7950    10.7570    10.7610    24.6740   -11.6170 
  213.2500   210.2720    19.2480   -16.8530     2.4850    97.8930    13.8880    10.8810    10.4280    24.6910   -11.6660 
  213.3750   210.3920    19.2770   -16.8750     2.4950    97.8930    13.8980    10.9150    11.1370    24.7010   -11.7310 
  213.5000   210.5120    19.3050   -16.8980     2.5050    97.8930    13.9890    10.9660    12.3610    24.7090   -11.7890 
  213.6250   210.6310    19.3330   -16.9200     2.5120    97.8930    14.2480    11.1040    13.0410    24.7310   -11.8280 
  213.7500   210.7510    19.3610   -16.9420     2.5140    97.8930    14.6080    11.3140    12.9870    24.7630   -11.8580 
  213.8750   210.8710    19.3890   -16.9650     2.5130    97.8930    14.9890    11.5590    12.6300    24.7910   -11.8780 
  214.0000   210.9900    19.4180   -16.9870     2.5110    97.8930    15.3160    11.7900    11.7540    24.8020   -11.8620 
  214.1250   211.1100    19.4460   -17.0090     2.5110    97.8930    15.5260    11.9540    11.1350    24.7970   -11.7700 
  214.2500   211.2300    19.4740   -17.0320     2.5110    97.8930    15.6260    12.0510    11.0510    24.7920   -11.5570 
  214.3750   211.3500    19.5020   -17.0540     2.5100    97.8930    15.6380    12.0980    11.1850    24.7930   -11.2480 
  214.5000   211.4690    19.5300   -17.0770     2.5080    97.8930    15.6090    12.1300    11.6750    24.8020   -10.8810 
  214.6250   211.5890    19.5590   -17.0990     2.5050    97.8930    15.6120    12.1960    12.4060    24.8200   -10.5000 
  214.7500   211.7090    19.5870   -17.1210     2.4980    97.8930    15.6880    12.3180    13.7070    24.8390   -10.1640 
  214.8750   211.8280    19.6150   -17.1440     2.4860    97.8930    15.8380    12.4980    14.4560    24.8500    -9.8920 
  215.0000   211.9480    19.6430   -17.1660     2.4720    97.8930    16.0240    12.7110    14.8710    24.8520    -9.6940 
  215.1250   212.0680    19.6710   -17.1890     2.4720    97.8930    16.1910    12.9120    16.4010    24.8510    -9.5580 
  215.2500   212.1870    19.6990   -17.2110     2.4970    97.8930    16.3140    13.0610    16.5640    24.8530    -9.4690 
  215.3750   212.3070    19.7280   -17.2330     2.5430    97.8930    16.3950    13.1460    13.2280    24.8640    -9.4000 
  215.5000   212.4270    19.7560   -17.2560     2.5940    97.8930    16.4480    13.1740     9.8860    24.8840    -9.3340 
  215.6250   212.5470    19.7840   -17.2780     2.6170    97.8930    16.4750    13.1650     9.2100    24.8980    -9.2700 
  215.7500   212.6660    19.8120   -17.3000     2.6030    97.8930    16.4790    13.1460     9.8730    24.9010    -9.2050 
  215.8750   212.7860    19.8400   -17.3230     2.5610    97.8930    16.4390    13.1220    10.1800    24.8990    -9.1890 
  216.0000   212.9060    19.8690   -17.3450     2.5070    97.8930    16.3270    13.0890     8.7420    24.8990    -9.2230 
  216.1250   213.0250    19.8970   -17.3680     2.4620    97.8930    16.1330    13.0470     7.3880    24.8990    -9.2850 
  216.2500   213.1450    19.9250   -17.3900     2.4390    97.8930    15.9390    13.0110     6.7410    24.8970    -9.3450 
  216.3750   213.2650    19.9530   -17.4120     2.4380    97.8930    15.8540    13.0000     6.5290    24.8980    -9.3810 
  216.5000   213.3840    19.9810   -17.4350     2.4530    97.8930    15.9540    13.0230     6.6610    24.9230    -9.4150 
  216.6250   213.5040    20.0100   -17.4570     2.4760    97.8930    16.2070    13.0770     7.3410    24.9970    -9.4420 
  216.7500   213.6240    20.0380   -17.4800     2.4950    97.8930    16.4510    13.1320     8.4750    25.0850    -9.4700 
  216.8750   213.7440    20.0660   -17.5020     2.5020    97.8930    16.6100    13.1720     9.5660    25.1450    -9.5030 
  217.0000   213.8630    20.0940   -17.5240     2.4920    97.8930    16.6730    13.1890    10.5990    25.1630    -9.5530 
  217.1250   213.9830    20.1220   -17.5470     2.4740    97.8930    16.6630    13.1910    11.0530    25.1610    -9.6410 
  217.2500   214.1030    20.1510   -17.5690     2.4610    97.8930    16.6250    13.1900    10.9070    25.1600    -9.7390 
  217.3750   214.2220    20.1790   -17.5920     2.4620    97.8930    16.5820    13.1880    10.5930    25.1550    -9.8380 
  217.5000   214.3420    20.2070   -17.6140     2.4780    97.8930    16.5520    13.1870    10.3930    25.1500    -9.9300 
  217.6250   214.4620    20.2350   -17.6360     2.4940    97.8930    16.5430    13.1860    10.0750    25.1550    -9.9980 
  217.7500   214.5820    20.2630   -17.6590     2.4900    97.8930    16.5420    13.1870    10.2120    25.1770   -10.0420 
  217.8750   214.7010    20.2920   -17.6810     2.4640    97.8930    16.5410    13.1870    10.5290    25.2090   -10.0280 
  218.0000   214.8210    20.3200   -17.7030     2.4240    97.8930    16.5380    13.1870    10.3210    25.2380    -9.9870 
  218.1250   214.9410    20.3480   -17.7260     2.3830    97.8930    16.5330    13.1880     8.9100    25.2500    -9.9400 
  218.2500   215.0600    20.3760   -17.7480     2.3440    97.8930    16.5320    13.1880     8.1800    25.2350    -9.8810 
  218.3750   215.1800    20.4040   -17.7710     2.3060    97.8930    16.5380    13.1880     7.5980    25.1870    -9.8160 
  218.5000   215.3000    20.4330   -17.7930     2.2670    97.8930    16.5400    13.1880     7.1550    25.1010    -9.7480 
  218.6250   215.4190    20.4610   -17.8150     2.2350    97.8930    16.5400    13.1880     7.5450    24.9430    -9.7170 
  218.7500   215.5390    20.4890   -17.8380     2.2180    97.8930    16.5400    13.1880     8.8790    24.7080    -9.7160 
  218.8750   215.6590    20.5170   -17.8600     2.2180    97.8930    16.5400    13.1880     9.7940    24.3820    -9.7160 
  219.0000   215.7790    20.5450   -17.8830     2.2340    97.8930    16.5400    13.1880    10.4000    23.9340    -9.7160 
  219.1250   215.8980    20.5740   -17.9050     2.2540    97.8930    16.5400    13.1880    11.0460    23.4030  -999.2500 
  219.2500   216.0180    20.6020   -17.9270     2.2680    97.8930    16.5400    13.1880    11.8940    22.9030  -999.2500 
  219.3750   216.1380    20.6300   -17.9500     2.2730    97.8930    16.5400    13.1880    12.1030    22.3570  -999.2500 
  219.5000   216.2570    20.6580   -17.9720     2.2740    97.8930    16.5400    13.1880    11.2540    21.5570  -999.2500 
  219.6250   216.3770    20.6860   -17.9950     2.2770    97.8930    16.5400    13.1880     9.8030    20.5280  -999.2500 
  219.7500   216.4970    20.7150   -18.0170     2.2840    97.8930    16.5400    13.1880     8.7200    19.6410  -999.2500 
  219.8750   216.6160    20.7430   -18.0390     2.2920    97.8930    16.5400    13.1880     7.8250    18.9760  -999.2500 
  220.0000   216.7360    20.7710   -18.0620     2.2950    97.8930    16.5400    13.1880     7.2690    18.4070  -999.2500 
  220.1250   216.8560    20.7990   -18.0840     2.2950    97.8930    16.5400    13.1880     7.4950    17.9730  -999.2500 
  220.2500   216.9760    20.8270   -18.1060     2.2950    97.8930    16.5400    13.1880     7.6670    17.7780  -999.2500 
  220.3750   217.0950    20.8560   -18.1290     2.2970    97.8930    16.5400    13.1880     7.7290    17.7580  -999.2500 
  220.5000   217.2150    20.8840   -18.1510     2.3000    97.8930    16.5400    13.1880     7.7280    17.7710  -999.2500 
  220.6250   217.3350    20.9120   -18.1740     2.3000    97.8930    16.5400    13.1880     7.7280    17.7680  -999.2500 
  220.7500   217.4540    20.9400   -18.1960     2.2980    97.8930    16.5400    13.1880     7.7290    17.7660  -999.2500 
  220.8750   217.5740    20.9680   -18.2180     2.2970    97.8930    16.5400    13.1880     7.7290    17.7650  -999.2500 
  221.0000   217.6940    20.9970   -18.2410     2.2920    97.8930    16.5400    13.1880     7.7280    17.7660  -999.2500 
  221.1250   217.8130    21.0250   -18.2630     2.2900    97.8930    16.5400    13.1880     7.7280    17.7670  -999.2500 
