~V
VERS. 2.00: Ver 2.00
~W
STRT.M 45.0000:
STOP.M 272.0000:
STEP.M 0.1250:
NULL. -999.2500:
UWI. FD11191:
~C
DEPT.M :
TVD. :
DX. :
DY. :
SP.MV :
GR.API :
RI. :
RML.OHMM :
RXO.OHMM :
DEN.GM/CC :
~A
# ...
   99.7500    99.7120    -1.1250     0.2390   -53.1250    64.5160     5.4090     6.0890     7.3580     2.0310 
   99.8750    99.8360    -1.1370     0.2450   -53.1490    65.4720     5.4150     6.1050     7.3000     2.0410 
  100.0000    99.9600    -1.1490     0.2510   -53.1690    67.7280     5.4230     6.1220     7.2930     2.0500 
  100.1250   100.0850    -1.1610     0.2570   -53.1900    67.2880     5.4230     6.1200     7.3020     2.0510 
  100.2500   100.2090    -1.1730     0.2630   -53.2130    63.9990     5.4130     6.1080     7.2100     2.0500 
  100.3750   100.3330    -1.1850     0.2690   -53.2410    62.4420     5.4010     6.0900     7.0670     2.0510 
  100.5000   100.4580    -1.1970     0.2750   -53.2710    62.1440     5.4010     6.0940     7.0350     2.0510 
  100.6250   100.5820    -1.2090     0.2810   -53.2950    60.3900     5.4230     6.1300     7.1130     2.0560 
  100.7500   100.7060    -1.2210     0.2870   -53.3060    57.9770     5.4640     6.1920     7.2160     2.0630 
  100.8750   100.8300    -1.2330     0.2930   -53.2950    60.3460     5.5020     6.2480     7.2760     2.0650 
  101.0000   100.9550    -1.2450     0.2990   -53.2600    65.5190     5.4830     6.2210     7.2680     2.0630 
  101.1250   101.0790    -1.2580     0.3060   -53.2010    68.0890     5.4020     6.1170     7.2380     2.0650 
  101.2500   101.2030    -1.2700     0.3120   -53.1300    68.2890     5.3040     5.9830     7.2720     2.0730 
  101.3750   101.3270    -1.2820     0.3180   -53.0620    67.5450     5.2190     5.8660     7.0250     2.0770 
  101.5000   101.4520    -1.2950     0.3240   -53.0090    67.0460     5.1850     5.8200     6.7220     2.0750 
  101.6250   101.5760    -1.3070     0.3310   -52.9780    67.3560     5.2100     5.8470     6.9990     2.0700 
  101.7500   101.7000    -1.3200     0.3370   -52.9550    67.1810     5.2820     5.9370     7.1960     2.0640 
  101.8750   101.8240    -1.3330     0.3430   -52.9190    65.8360     5.3790     6.0470     7.0560     2.0570 
  102.0000   101.9480    -1.3450     0.3490   -52.8470    63.8910     5.4670     6.1370     7.0780     2.0530 
  102.1250   102.0730    -1.3580     0.3560   -52.7240    63.5140     5.5060     6.1720     7.2210     2.0560 
  102.2500   102.1970    -1.3710     0.3620   -52.5520    64.6530     5.4900     6.1510     7.2480     2.0680 
  102.3750   102.3210    -1.3830     0.3690   -52.3360    66.3400     5.4060     6.0690     7.1690     2.0830 
  102.5000   102.4450    -1.3960     0.3750   -52.0910    67.0880     5.2400     5.8930     7.1990     2.1030 
  102.6250   102.5690    -1.4090     0.3820   -51.8310    66.6290     4.9710     5.5910     7.2760     2.1320 
  102.7500   102.6930    -1.4220     0.3880   -51.5760    67.2810     4.6550     5.2190     7.0790     2.1680 
  102.8750   102.8180    -1.4350     0.3950   -51.3560    72.8050     4.3550     4.8690     6.2990     2.1890 
  103.0000   102.9420    -1.4480     0.4010   -51.2040    79.9430     4.1730     4.6660     5.4060     2.1860 
  103.1250   103.0660    -1.4610     0.4080   -51.1610    83.3210     4.1430     4.6570     5.3790     2.1690 
  103.2500   103.1900    -1.4750     0.4140   -51.2340    82.1130     4.3190     4.9160     6.4220     2.1470 
  103.3750   103.3140    -1.4880     0.4210   -51.4160    77.1960     4.7090     5.4230     8.1650     2.1180 
  103.5000   103.4380    -1.5010     0.4270   -51.6580    71.8000     5.1710     5.9820     9.0510     2.0910 
  103.6250   103.5620    -1.5150     0.4340   -51.9080    67.7520     5.5620     6.4100     8.3290     2.0790 
  103.7500   103.6860    -1.5280     0.4410   -52.1200    65.2440     5.7740     6.5870     7.6940     2.0820 
  103.8750   103.8100    -1.5410     0.4480   -52.2630    61.8430     5.7680     6.5030     7.6630     2.0910 
  104.0000   103.9350    -1.5550     0.4540   -52.3340    58.5970     5.6760     6.3330     7.6140     2.0990 
  104.1250   104.0590    -1.5690     0.4610   -52.3350    57.5670     5.5850     6.1950     7.3220     2.0960 
  104.2500   104.1830    -1.5820     0.4680   -52.2850    57.9070     5.5540     6.1470     6.9730     2.0820 
  104.3750   104.3070    -1.5960     0.4750   -52.1950    58.5890     5.5940     6.2040     7.1780     2.0700 
  104.5000   104.4310    -1.6100     0.4820   -52.0720    60.3160     5.6570     6.3050     7.5900     2.0730 
  104.6250   104.5550    -1.6240     0.4890   -51.9070    61.6800     5.6950     6.3800     7.4490     2.0860 
  104.7500   104.6790    -1.6370     0.4960   -51.6930    61.3160     5.6130     6.3070     6.8910     2.0900 
  104.8750   104.8030    -1.6510     0.5030   -51.4180    60.5960     5.3920     6.0630     6.5590     2.0920 
  105.0000   104.9270    -1.6650     0.5100   -51.0930    61.9100     5.0200     5.6320     6.5740     2.1090 
  105.1250   105.0510    -1.6790     0.5170   -50.7500    66.4370     4.5170     5.0490     6.2960     2.1430 
  105.2500   105.1750    -1.6930     0.5240   -50.4380    71.5040     4.0260     4.4750     5.4530     2.1730 
  105.3750   105.2990    -1.7070     0.5300   -50.2220    75.9370     3.6290     4.0230     4.4500     2.1850 
  105.5000   105.4230    -1.7220     0.5370   -50.1430    78.5160     3.4230     3.8090     3.8780     2.1760 
  105.6250   105.5470    -1.7360     0.5440   -50.2370    81.0210     3.4950     3.9470     4.0230     2.1490 
  105.7500   105.6710    -1.7500     0.5510   -50.4800    82.5510     3.8150     4.3790     4.7910     2.1180 
  105.8750   105.7950    -1.7640     0.5580   -50.8390    80.3180     4.2970     4.9780     5.7700     2.0980 
  106.0000   105.9190    -1.7780     0.5650   -51.2370    73.0910     4.7660     5.5260     6.3220     2.0890 
  106.1250   106.0430    -1.7930     0.5720   -51.6010    64.3010     5.0970     5.8770     6.5060     2.0870 
  106.2500   106.1670    -1.8070     0.5790   -51.8830    57.7770     5.2610     6.0110     6.5520     2.0870 
  106.3750   106.2910    -1.8220     0.5860   -52.0540    55.5380     5.3270     6.0310     6.3700     2.0920 
  106.5000   106.4150    -1.8360     0.5930   -52.1260    55.8430     5.3840     6.0470     6.3310     2.0960 
  106.6250   106.5390    -1.8510     0.6000   -52.1090    58.3210     5.4530     6.0960     6.6970     2.0980 
  106.7500   106.6630    -1.8660     0.6070   -52.0200    61.7640     5.5370     6.1760     6.9580     2.1030 
  106.8750   106.7870    -1.8800     0.6140   -51.8510    65.1250     5.6290     6.2790     6.9120     2.1050 
  107.0000   106.9110    -1.8950     0.6210   -51.5970    66.2570     5.7050     6.3850     6.8850     2.0940 
  107.1250   107.0340    -1.9100     0.6280   -51.2330    64.1230     5.6990     6.4040     6.8420     2.0710 
  107.2500   107.1580    -1.9250     0.6340   -50.7610    61.6420     5.5360     6.2310     6.7580     2.0670 
  107.3750   107.2820    -1.9400     0.6410   -50.1850    61.8110     5.1730     5.8160     6.7400     2.0980 
  107.5000   107.4060    -1.9550     0.6480   -49.5460    63.7190     4.6960     5.2490     6.4850     2.1420 
  107.6250   107.5300    -1.9710     0.6550   -48.8970    65.5090     4.1710     4.6360     5.4260     2.1630 
  107.7500   107.6540    -1.9860     0.6620   -48.3050    67.6220     3.7370     4.1480     4.2150     2.1590 
  107.8750   107.7780    -2.0010     0.6690   -47.8440    71.2520     3.4470     3.8390     3.9840     2.1560 
  108.0000   107.9020    -2.0170     0.6760   -47.5480    75.1780     3.3180     3.7250     4.2650     2.1650 
  108.1250   108.0250    -2.0320     0.6820   -47.4480    77.5920     3.3270     3.7450     4.4010     2.1780 
  108.2500   108.1490    -2.0480     0.6890   -47.5150    78.0580     3.4000     3.8240     4.5130     2.1820 
  108.3750   108.2730    -2.0630     0.6960   -47.7300    77.1720     3.5280     3.9450     4.5460     2.1670 
  108.5000   108.3970    -2.0790     0.7030   -48.0410    76.6680     3.7630     4.1960     4.4300     2.1420 
  108.6250   108.5210    -2.0950     0.7090   -48.4070    77.5440     4.1140     4.6030     4.6060     2.1290 
  108.7500   108.6450    -2.1110     0.7160   -48.7730    77.5180     4.5290     5.0970     5.2470     2.1380 
