~V
VERS. 2.00: Ver 2.00
~W
STRT.M 10.0000:
STOP.M 249.0000:
STEP.M 0.1250:
NULL. -999.2500:
UWI. FD11114:
~C
DEPT.M :
TVD. :
DX. :
DY. :
GR.API :
RML.OHMM :
RI. :
RXO.OHMM :
CALI.CM :
SP.MV :
DEN.GM/CC :
~A
# ...
   92.5000    92.4990     0.1840     0.2240    65.1770     9.5510     6.7800     7.8790    27.1920   -31.2060     2.1690 
   92.6250    92.6240     0.1860     0.2240    62.8980     9.4260     6.7050     7.7700    27.1670   -30.8620     2.1620 
   92.7500    92.7490     0.1870     0.2240    61.4340     9.3050     6.6320     7.8490    27.1520   -30.5150     2.1660 
   92.8750    92.8740     0.1890     0.2240    60.7700     9.2080     6.5730     7.8170    27.1970   -30.1840     2.1750 
   93.0000    92.9990     0.1900     0.2240    62.3460     9.1520     6.5400     7.7340    27.3250   -29.8670     2.1820 
   93.1250    93.1240     0.1920     0.2240    66.5860     9.1450     6.5410     7.6730    27.5060   -29.5530     2.1810 
   93.2500    93.2490     0.1940     0.2240    69.3910     9.1850     6.5780     7.7000    27.6630   -29.2230     2.1730 
   93.3750    93.3740     0.1950     0.2240    68.5060     9.2370     6.6290     7.9030    27.7600   -28.8750     2.1640 
   93.5000    93.4990     0.1970     0.2240    67.7410     9.2690     6.6780     7.8780    27.8110   -28.5070     2.1620 
   93.6250    93.6240     0.1980     0.2240    68.8260     9.2540     6.7040     7.9570    27.8440   -28.1210     2.1720 
   93.7500    93.7490     0.2000     0.2240    68.6550     9.1680     6.6910     7.9120    27.8730   -27.7320     2.1940 
   93.8750    93.8740     0.2010     0.2240    66.8560     9.0340     6.6430     7.9250    27.8910   -27.3570     2.2190 
   94.0000    93.9990     0.2030     0.2240    65.6460     8.8760     6.5700     7.8670    27.8980   -26.9930     2.2410 
   94.1250    94.1240     0.2040     0.2240    66.2110     8.7260     6.4910     7.8570    27.9310   -26.6320     2.2540 
   94.2500    94.2490     0.2060     0.2240    67.1160     8.6180     6.4270     7.6500    28.1770   -26.2680     2.2530 
   94.3750    94.3740     0.2070     0.2240    68.7080     8.5490     6.3820     7.3270    28.7030   -25.8950     2.2460 
   94.5000    94.4990     0.2090     0.2240    69.8920     8.5020     6.3490     7.1120    29.2690   -25.5090     2.2370 
   94.6250    94.6240     0.2100     0.2250    68.8490     8.4590     6.3150     7.1630    29.5600   -25.1120     2.2330 
   94.7500    94.7490     0.2120     0.2250    67.1490     8.3960     6.2680     7.2920    29.7100   -24.6980     2.2370 
   94.8750    94.8740     0.2130     0.2250    66.7810     8.2800     6.1850     7.0280    30.0700   -24.2670     2.2400 
   95.0000    94.9990     0.2150     0.2250    67.8370     8.0750     6.0390     6.3870    30.4340   -23.8330     2.2390 
   95.1250    95.1240     0.2190     0.2250    70.6590     7.7630     5.8110     5.7730    30.2460   -23.4200     2.2370 
   95.2500    95.2490     0.2230     0.2250    78.3610     7.3390     5.4950     5.8810    29.2210   -23.0810     2.2450 
   95.3750    95.3740     0.2270     0.2250    86.7920     6.8690     5.1400     5.4470    28.0610   -22.8470     2.2660 
   95.5000    95.4990     0.2310     0.2250    88.9110     6.4460     4.8050     4.7050    27.3110   -22.7510     2.2960 
   95.6250    95.6230     0.2350     0.2250    87.0820     6.2010     4.5750     4.3520    27.0830   -22.8110     2.3190 
   95.7500    95.7480     0.2390     0.2250    88.0770     6.3420     4.5880     4.4560    27.1200   -23.0610     2.3210 
   95.8750    95.8730     0.2430     0.2250    90.1910     6.9220     4.8940     4.6740    27.0860   -23.4770     2.3170 
   96.0000    95.9980     0.2470     0.2250    88.3850     7.9390     5.5130     5.1790    26.9290   -24.0380     2.3330 
   96.1250    96.1230     0.2510     0.2240    81.7750     9.2430     6.3770     6.5580    26.6970   -24.7210     2.3800 
   96.2500    96.2480     0.2550     0.2240    75.5420    10.4110     7.2500     9.2340    26.5280   -25.4990     2.4350 
   96.3750    96.3730     0.2590     0.2240    72.6200    10.9930     7.8050    10.9070    26.4650   -26.3210     2.4540 
   96.5000    96.4980     0.2630     0.2240    71.5830    10.8420     7.8820    10.1050    26.4420   -27.1380     2.4210 
   96.6250    96.6230     0.2670     0.2240    70.5340    10.1880     7.5620     8.3350    26.4090   -27.8950     2.3550 
   96.7500    96.7480     0.2710     0.2240    68.9140     9.4980     7.1000     7.7320    26.3840   -28.5170     2.2890 
   96.8750    96.8730     0.2750     0.2240    67.2710     9.1040     6.7570     7.9600    26.3580   -29.0050     2.2440 
   97.0000    96.9980     0.2790     0.2240    65.5130     9.0610     6.6150     8.3920    26.3000   -29.3670     2.2200 
   97.1250    97.1230     0.2830     0.2240    64.8650     9.2600     6.6510     8.6470    26.1880   -29.6230     2.2110 
   97.2500    97.2480     0.2880     0.2240    67.5400     9.5090     6.7740     8.7140    26.0290   -29.7800     2.2100 
   97.3750    97.3720     0.2920     0.2240    70.2190     9.6560     6.8770     8.6710    25.8820   -29.8840     2.2140 
   97.5000    97.4970     0.2960     0.2240    70.7570     9.6850     6.9320     8.5230    25.7900   -29.9740     2.2190 
   97.6250    97.6220     0.3000     0.2240    70.3740     9.6590     6.9620     8.3380    25.7570   -30.0850     2.2240 
   97.7500    97.7470     0.3040     0.2240    70.8980     9.6730     7.0130     8.1850    25.7570   -30.2240     2.2280 
   97.8750    97.8720     0.3080     0.2240    71.4960     9.7640     7.1130     8.3160    25.7580   -30.3660     2.2320 
   98.0000    97.9970     0.3120     0.2240    71.2220     9.9160     7.2530     8.7760    25.7610   -30.4960     2.2370 
   98.1250    98.1220     0.3160     0.2240    68.7070    10.0840     7.4040     9.2260    25.7660   -30.5930     2.2400 
   98.2500    98.2470     0.3200     0.2240    64.3830    10.2080     7.5180     9.3080    25.7670   -30.6240     2.2360 
   98.3750    98.3720     0.3240     0.2240    62.2460    10.2490     7.5660     8.9400    25.7450   -30.5750     2.2260 
   98.5000    98.4970     0.3280     0.2240    64.2770    10.1590     7.5170     8.7560    25.6920   -30.4370     2.2130 
   98.6250    98.6220     0.3320     0.2240    66.7780     9.8840     7.3370     8.8700    25.6240   -30.2300     2.2040 
   98.7500    98.7470     0.3360     0.2240    65.4270     9.3760     6.9940     8.9230    25.5800   -30.0070     2.2060 
   98.8750    98.8720     0.3400     0.2240    65.7380     8.7610     6.5640     8.5580    25.5710   -29.8230     2.2120 
   99.0000    98.9970     0.3440     0.2240    69.7680     8.2180     6.1550     7.7570    25.5690   -29.7100     2.2150 
   99.1250    99.1210     0.3480     0.2240    74.6350     7.9380     5.8940     6.5920    25.5490   -29.6930     2.2150 
   99.2500    99.2460     0.3520     0.2240    75.6480     8.1140     5.9180     6.2980    25.5100   -29.8090     2.2320 
   99.3750    99.3710     0.3560     0.2240    75.5630     8.6660     6.2010     7.2800    25.4810   -30.0390     2.2700 
   99.5000    99.4960     0.3600     0.2240    76.1050     9.4390     6.6720     9.3830    25.4710   -30.3720     2.3180 
   99.6250    99.6210     0.3650     0.2240    74.7810    10.1720     7.1870    11.9440    25.4720   -30.7630     2.3450 
   99.7500    99.7460     0.3690     0.2240    69.4900    10.5090     7.5250    10.2910    25.5050   -31.1570     2.3290 
   99.8750    99.8710     0.3730     0.2240    63.9140    10.3990     7.5960     9.2260    25.5850   -31.5210     2.2870 
  100.0000    99.9960     0.3770     0.2240    62.8840     9.9710     7.4330     8.7440    25.6950   -31.8320     2.2420 
  100.1250   100.1210     0.3810     0.2240    67.3440     9.4390     7.1440     8.4930    25.8040   -32.0690     2.2100 
  100.2500   100.2460     0.3850     0.2240    72.4970     9.0000     6.8570     8.2480    25.8860   -32.2290     2.1970 
  100.3750   100.3710     0.3890     0.2240    74.3480     8.6940     6.6340     8.1490    25.9510   -32.3450     2.1990 
  100.5000   100.4960     0.3930     0.2240    71.8240     8.4960     6.4770     8.1380    25.9960   -32.4460     2.2110 
  100.6250   100.6210     0.3970     0.2240    66.9560     8.3720     6.3730     8.0640    26.0180   -32.5490     2.2250 
