~V
VERS. 2.00: Ver 2.00
~W
STRT.M 50.0000:
STOP.M 286.0000:
STEP.M 0.1250:
NULL. -999.2500:
UWI. FD11181:
~C
DEPT.M :
TVD. :
DX. :
DY. :
SP.MV :
GR.API :
RI. :
RML.OHMM :
RXO.OHMM :
DEN.GM/CC :
~A
# ...
  113.8750   113.6700    -3.9710     1.2610   -28.2620    59.3160     5.0080     5.6580     5.8590     2.1250 
  114.0000   113.7940    -3.9900     1.2660   -28.4330    55.8470     5.0530     5.7020     6.3400     2.1300 
  114.1250   113.9170    -4.0080     1.2700   -28.5050    56.3260     5.1140     5.7480     6.6150     2.1340 
  114.2500   114.0410    -4.0270     1.2750   -28.4860    59.2860     5.1650     5.7770     6.7680     2.1330 
  114.3750   114.1640    -4.0460     1.2790   -28.3060    58.9770     5.2090     5.8040     6.5520     2.1320 
  114.5000   114.2880    -4.0650     1.2830   -28.0370    56.7500     5.2630     5.8600     6.1890     2.1340 
  114.6250   114.4110    -4.0840     1.2880   -27.8200    56.6390     5.3310     5.9530     6.1220     2.1360 
  114.7500   114.5350    -4.1030     1.2920   -27.7620    56.4410     5.4120     6.0560     6.1300     2.1310 
  114.8750   114.6580    -4.1220     1.2970   -27.8220    53.7690     5.4710     6.1360     6.2260     2.1210 
  115.0000   114.7820    -4.1420     1.3010   -27.9130    52.1750     5.5180     6.1880     6.5350     2.1190 
  115.1250   114.9050    -4.1610     1.3050   -27.9080    55.9790     5.5510     6.2220     6.7950     2.1300 
  115.2500   115.0280    -4.1800     1.3100   -27.8040    61.0640     5.5770     6.2550     7.0240     2.1440 
  115.3750   115.1520    -4.1990     1.3140   -27.5390    61.4220     5.6190     6.3000     7.2740     2.1500 
  115.5000   115.2750    -4.2180     1.3180   -27.1180    58.7080     5.6750     6.3590     7.3520     2.1480 
  115.6250   115.3990    -4.2380     1.3220   -26.5440    57.1910     5.7450     6.4300     7.2470     2.1430 
  115.7500   115.5220    -4.2570     1.3270   -25.9740    58.0120     5.8200     6.5010     7.1270     2.1370 
  115.8750   115.6450    -4.2770     1.3310   -25.5330    59.6690     5.8590     6.5410     6.9210     2.1300 
  116.0000   115.7690    -4.2960     1.3350   -25.2170    60.1960     5.8450     6.5230     6.8260     2.1270 
  116.1250   115.8920    -4.3160     1.3390   -25.0760    59.3410     5.7660     6.4330     7.1010     2.1290 
  116.2500   116.0160    -4.3350     1.3430   -25.0260    58.7990     5.6420     6.2960     7.2830     2.1330 
  116.3750   116.1390    -4.3550     1.3470   -24.9850    58.0950     5.5170     6.1490     7.1470     2.1370 
  116.5000   116.2620    -4.3750     1.3520   -24.9440    57.2020     5.4140     6.0300     6.9070     2.1400 
  116.6250   116.3860    -4.3950     1.3560   -24.9820    57.5470     5.3690     5.9870     6.6720     2.1410 
  116.7500   116.5090    -4.4140     1.3600   -25.0410    60.4910     5.4130     6.0440     6.3650     2.1410 
  116.8750   116.6320    -4.4340     1.3640   -25.0340    62.2200     5.5480     6.1960     6.0750     2.1400 
  117.0000   116.7560    -4.4540     1.3680   -25.0230    59.9550     5.7150     6.3680     6.2390     2.1400 
  117.1250   116.8790    -4.4740     1.3720   -25.0070    56.0930     5.8190     6.4560     6.9410     2.1410 
  117.2500   117.0020    -4.4940     1.3760   -24.9780    54.0540     5.8190     6.4210     7.5270     2.1450 
  117.3750   117.1260    -4.5140     1.3800   -24.8340    53.1480     5.7280     6.2790     7.4300     2.1490 
  117.5000   117.2490    -4.5350     1.3840   -24.5260    52.9240     5.5760     6.0610     6.7170     2.1500 
  117.6250   117.3720    -4.5550     1.3880   -24.1850    54.5380     5.3700     5.8060     5.8390     2.1500 
  117.7500   117.4960    -4.5750     1.3920   -23.7830    56.1330     5.1670     5.5640     5.5170     2.1510 
  117.8750   117.6190    -4.5960     1.3960   -23.3310    57.5960     4.9890     5.3820     5.7260     2.1580 
  118.0000   117.7420    -4.6160     1.3990   -22.9140    58.7980     4.8940     5.3050     5.8950     2.1710 
  118.1250   117.8650    -4.6370     1.4030   -22.6320    60.5670     4.9060     5.3570     6.3500     2.1870 
  118.2500   117.9890    -4.6570     1.4070   -22.4950    62.7210     4.9980     5.5100     6.9610     2.1940 
  118.3750   118.1120    -4.6780     1.4110   -22.5320    65.0800     5.1780     5.7560     6.7720     2.1850 
  118.5000   118.2350    -4.6990     1.4150   -22.7110    66.8390     5.4030     6.0420     6.2420     2.1620 
  118.6250   118.3580    -4.7200     1.4190   -22.9940    65.5460     5.5910     6.2850     6.4830     2.1390 
  118.7500   118.4810    -4.7410     1.4220   -23.2870    61.5590     5.7130     6.4150     6.9270     2.1280 
  118.8750   118.6040    -4.7610     1.4260   -23.5560    56.0990     5.6860     6.3520     6.7120     2.1280 
  119.0000   118.7280    -4.7820     1.4300   -23.8900    50.9200     5.5660     6.1740     6.3720     2.1300 
  119.1250   118.8510    -4.8040     1.4330   -24.2710    50.7500     5.5730     6.1400     6.8190     2.1330 
  119.2500   118.9740    -4.8250     1.4370   -24.5160    54.7050     5.9820     6.6270     7.7370     2.1530 
  119.3750   119.0970    -4.8460     1.4410   -24.5370    57.4970     7.2240     8.1530     7.8320     2.2230 
  119.5000   119.2200    -4.8670     1.4450   -24.3720    54.9680     9.7950    11.2670     9.7640     2.3500 
  119.6250   119.3430    -4.8890     1.4480   -24.1620    49.1790    14.0870    15.7980    24.2970     2.5010 
  119.7500   119.4660    -4.9100     1.4520   -23.9540    45.1040    17.7340    19.6050    51.4310     2.6140 
  119.8750   119.5900    -4.9310     1.4550   -23.5720    43.6240    18.9780    20.5150    76.0310     2.6440 
  120.0000   119.7130    -4.9530     1.4590   -23.0890    45.3870    17.0350    18.1360    78.5810     2.5830 
  120.1250   119.8360    -4.9750     1.4630   -22.8440    49.7460    12.8600    13.6930    53.6990     2.4410 
  120.2500   119.9590    -4.9960     1.4660   -23.0710    52.9840     9.0520     9.7050    26.1130     2.2780 
  120.3750   120.0820    -5.0180     1.4700   -23.7690    52.5140     6.8700     7.3690    11.9110     2.1680 
  120.5000   120.2050    -5.0400     1.4730   -24.6910    51.4980     5.7980     6.3390     7.4340     2.1260 
  120.6250   120.3280    -5.0620     1.4760   -25.5260    53.6460     5.4630     6.1160     7.1710     2.1210 
  120.7500   120.4510    -5.0840     1.4800   -25.9950    56.9800     5.4920     6.2220     6.9760     2.1180 
  120.8750   120.5740    -5.1060     1.4830   -26.1610    57.7900     5.6380     6.4040     6.6920     2.1150 
  121.0000   120.6970    -5.1280     1.4870   -26.1840    57.4020     5.7950     6.5530     6.4250     2.1160 
  121.1250   120.8200    -5.1500     1.4900   -26.1450    56.6150     5.9310     6.6370     6.3580     2.1210 
  121.2500   120.9430    -5.1720     1.4930   -26.1120    54.4550     5.9830     6.6320     6.5750     2.1240 
  121.3750   121.0660    -5.1940     1.4970   -26.0550    51.0040     5.9430     6.5370     6.8580     2.1240 
  121.5000   121.1890    -5.2170     1.5000   -26.0330    49.8540     5.8500     6.4030     6.8140     2.1250 
  121.6250   121.3120    -5.2390     1.5030   -25.9950    52.5410     5.7430     6.2770     6.4210     2.1270 
  121.7500   121.4340    -5.2620     1.5070   -25.8790    55.6240     5.6810     6.2020     6.1220     2.1290 
  121.8750   121.5570    -5.2840     1.5100   -25.5720    56.4320     5.6590     6.1910     6.2090     2.1310 
  122.0000   121.6800    -5.3070     1.5130   -25.1970    56.6280     5.6610     6.1980     6.3860     2.1320 
  122.1250   121.8030    -5.3300     1.5170   -24.8440    54.4990     5.6280     6.1540     6.3600     2.1300 
  122.2500   121.9260    -5.3520     1.5200   -24.4460    51.6280     5.5310     6.0210     6.2920     2.1300 
  122.3750   122.0490    -5.3750     1.5230   -24.1090    51.7930     5.3480     5.8100     6.0140     2.1350 
  122.5000   122.1720    -5.3980     1.5260   -23.9030    55.6740     5.1520     5.6050     5.4650     2.1420 
  122.6250   122.2950    -5.4210     1.5300   -23.8230    58.3280     5.0120     5.4930     5.4260     2.1480 
  122.7500   122.4170    -5.4440     1.5330   -23.7630    57.4820     4.9650     5.4850     5.9280     2.1460 
  122.8750   122.5400    -5.4670     1.5360   -23.6230    56.7920     4.9920     5.5380     6.2230     2.1320 
