~V
VERS. 2.00: Ver 2.00
~W
STRT.M 30.0000:
STOP.M 272.0000:
STEP.M 0.1250:
NULL. -999.2500:
UWI. FD11176:
~C
DEPT.M :
TVD. :
DX. :
DY. :
SP.MV :
GR.API :
RI. :
RML.OHMM :
RXO.OHMM :
DEN.GM/CC :
~A
# ...
  112.1250   110.4940    12.4980    -4.8920    -5.2100    96.9240     5.5600     6.6290     6.7920     2.3350 
  112.2500   110.6100    12.5370    -4.9150    -5.1970    93.1170     5.8930     6.9720     9.3680     2.3950 
  112.3750   110.7270    12.5760    -4.9380    -5.3650    92.7790     5.7760     6.7440    12.1190     2.4100 
  112.5000   110.8430    12.6150    -4.9610    -5.6900    95.5020     5.3000     6.0910    12.1120     2.3820 
  112.6250   110.9600    12.6550    -4.9840    -6.1450    96.9600     4.7530     5.4170     8.3230     2.3140 
  112.7500   111.0760    12.6940    -5.0070    -6.6800    95.7280     4.4470     5.0990     5.5290     2.2310 
  112.8750   111.1930    12.7330    -5.0300    -7.2350    93.8310     4.3370     5.0380     4.8330     2.1640 
  113.0000   111.3090    12.7720    -5.0530    -7.6970    91.6390     4.3180     5.0660     4.7400     2.1310 
  113.1250   111.4250    12.8120    -5.0760    -7.9010    90.4730     4.2830     5.0380     4.9520     2.1250 
  113.2500   111.5420    12.8510    -5.0990    -7.7560    91.8850     4.1510     4.8680     5.0010     2.1320 
  113.3750   111.6580    12.8910    -5.1220    -7.2810    93.3310     3.9550     4.6200     4.7980     2.1420 
  113.5000   111.7740    12.9310    -5.1450    -6.6710    93.2930     3.7650     4.3960     4.3560     2.1560 
  113.6250   111.8910    12.9700    -5.1680    -6.1100    92.0230     3.6450     4.2710     3.9090     2.1800 
  113.7500   112.0070    13.0100    -5.1910    -5.7040    89.4640     3.6220     4.2620     3.7120     2.2060 
  113.8750   112.1230    13.0490    -5.2140    -5.5050    87.4130     3.6420     4.3040     3.7840     2.2150 
  114.0000   112.2400    13.0890    -5.2370    -5.4840    90.0060     3.6870     4.3700     4.0040     2.2030 
  114.1250   112.3560    13.1280    -5.2610    -5.6130    96.2260     3.7420     4.4410     4.1400     2.1860 
  114.2500   112.4720    13.1680    -5.2840    -5.8290    98.9370     3.7840     4.4870     4.0910     2.1850 
  114.3750   112.5880    13.2080    -5.3070    -6.0800    96.2180     3.8100     4.5070     4.0180     2.1930 
  114.5000   112.7040    13.2470    -5.3300    -6.3300    93.1490     3.8450     4.5490     4.0430     2.1860 
  114.6250   112.8210    13.2870    -5.3540    -6.5680    92.0710     3.9710     4.7080     4.3490     2.1570 
  114.7500   112.9370    13.3270    -5.3770    -6.7770    92.1360     4.1640     4.9520     4.6490     2.1340 
  114.8750   113.0530    13.3670    -5.4010    -6.8940    91.8930     4.3740     5.2160     4.4070     2.1540 
  115.0000   113.1690    13.4070    -5.4240    -6.8950    91.9450     4.5340     5.4050     4.1840     2.2230 
  115.1250   113.2850    13.4470    -5.4470    -6.8180    92.5510     4.5680     5.4340     4.5490     2.3080 
  115.2500   113.4010    13.4870    -5.4700    -6.7450    91.9750     4.4930     5.3160     4.7350     2.3450 
  115.3750   113.5180    13.5270    -5.4930    -6.7000    90.6450     4.2760     5.0450     4.6320     2.3010 
  115.5000   113.6340    13.5670    -5.5170    -6.6410    91.8610     4.0100     4.7360     4.7790     2.2250 
  115.6250   113.7500    13.6070    -5.5400    -6.5180    96.1020     3.7600     4.4480     4.8520     2.1760 
  115.7500   113.8660    13.6470    -5.5630    -6.3290    99.7670     3.5980     4.2640     4.6050     2.1630 
  115.8750   113.9820    13.6870    -5.5860    -6.0940    99.4890     3.5940     4.2700     4.2010     2.1720 
  116.0000   114.0980    13.7280    -5.6090    -5.8580    97.5450     3.6990     4.4060     3.8720     2.1870 
  116.1250   114.2140    13.7680    -5.6330    -5.6590    93.4270     3.8950     4.6890     4.0620     2.1950 
  116.2500   114.3300    13.8080    -5.6560    -5.4960    88.9970     4.1090     4.9810     5.2690     2.1850 
  116.3750   114.4460    13.8480    -5.6800    -5.3850    85.6340     4.2340     5.1290     7.3660     2.1710 
  116.5000   114.5620    13.8880    -5.7030    -5.3630    85.3060     4.2260     5.0880     7.9360     2.1740 
  116.6250   114.6780    13.9280    -5.7260    -5.4880    88.6560     4.0660     4.8530     5.8520     2.1940 
  116.7500   114.7940    13.9680    -5.7490    -5.7500    93.6250     3.8560     4.5670     4.0190     2.2080 
  116.8750   114.9100    14.0080    -5.7730    -6.0900    98.4640     3.6560     4.3300     3.7110     2.2030 
  117.0000   115.0260    14.0490    -5.7960    -6.4050   100.2180     3.5640     4.2290     3.8680     2.1840 
  117.1250   115.1430    14.0890    -5.8190    -6.6160    98.8420     3.5700     4.2420     3.9510     2.1760 
  117.2500   115.2590    14.1290    -5.8420    -6.7010    96.1890     3.6370     4.3290     3.8690     2.1850 
  117.3750   115.3750    14.1690    -5.8650    -6.6770    93.3280     3.7310     4.4530     3.8870     2.1940 
  117.5000   115.4910    14.2090    -5.8880    -6.6060    92.2390     3.8200     4.5770     4.0860     2.1890 
  117.6250   115.6070    14.2500    -5.9110    -6.5270    93.2800     3.8630     4.6400     4.0680     2.1810 
  117.7500   115.7230    14.2900    -5.9340    -6.4510    94.7930     3.8350     4.5960     4.0670     2.1780 
  117.8750   115.8390    14.3300    -5.9570    -6.3680    94.6820     3.7220     4.4280     4.2920     2.1790 
  118.0000   115.9550    14.3710    -5.9800    -6.2640    95.1310     3.5520     4.1820     4.1880     2.1830 
  118.1250   116.0710    14.4110    -6.0030    -6.1140    97.0000     3.3970     3.9630     3.8470     2.1950 
  118.2500   116.1870    14.4510    -6.0270    -5.9230    96.2510     3.3000     3.8230     3.5640     2.2090 
  118.3750   116.3030    14.4920    -6.0500    -5.7380    93.4550     3.2910     3.8060     3.3600     2.2160 
  118.5000   116.4190    14.5320    -6.0730    -5.6110    92.2640     3.3640     3.8960     3.4410     2.2100 
  118.6250   116.5350    14.5730    -6.0960    -5.5540    93.0610     3.4940     4.0340     3.7540     2.2000 
  118.7500   116.6510    14.6130    -6.1190    -5.5260    92.5190     3.6150     4.1490     3.8500     2.1950 
  118.8750   116.7670    14.6540    -6.1430    -5.4710    90.3720     3.7040     4.2180     3.8580     2.1990 
  119.0000   116.8830    14.6940    -6.1660    -5.3700    91.4190     3.7360     4.2030     4.0230     2.2070 
  119.1250   116.9990    14.7350    -6.1890    -5.2390    97.1690     3.6930     4.1160     4.1780     2.2130 
  119.2500   117.1150    14.7760    -6.2120    -5.0950   101.3610     3.6130     3.9860     4.2090     2.2180 
  119.3750   117.2310    14.8170    -6.2350    -4.9260    99.8140     3.4710     3.7960     3.9630     2.2170 
  119.5000   117.3460    14.8580    -6.2580    -4.7200    98.0040     3.3000     3.5940     3.6870     2.2130 
  119.6250   117.4620    14.8990    -6.2810    -4.4930   102.4870     3.1450     3.4250     3.5550     2.2190 
  119.7500   117.5780    14.9400    -6.3040    -4.2900   108.1950     3.0370     3.3260     3.3520     2.2370 
  119.8750   117.6940    14.9810    -6.3270    -4.1490   107.3120     3.0030     3.3300     3.0570     2.2610 
  120.0000   117.8100    15.0220    -6.3500    -4.0700   102.5030     2.9970     3.3690     2.9780     2.2790 
  120.1250   117.9250    15.0630    -6.3720    -4.0540   100.2480     2.9830     3.3910     3.1820     2.2890 
  120.2500   118.0410    15.1040    -6.3950    -4.0980   101.4670     2.9430     3.3590     3.3170     2.2930 
  120.3750   118.1570    15.1450    -6.4180    -4.2090   101.6530     2.8870     3.2770     3.3010     2.2980 
  120.5000   118.2730    15.1860    -6.4410    -4.3660   100.0950     2.8740     3.2300     3.1620     2.3030 
  120.6250   118.3890    15.2280    -6.4640    -4.5600    98.1820     3.0880     3.4420     3.0010     2.3020 
  120.7500   118.5040    15.2690    -6.4870    -4.7860    92.6220     3.6540     4.0870     3.1050     2.2920 
  120.8750   118.6200    15.3100    -6.5090    -5.0530    84.1180     4.7430     5.3800     3.5680     2.2880 
  121.0000   118.7360    15.3520    -6.5320    -5.3660    76.9710     6.6730     7.6830     6.7630     2.3260 
  121.1250   118.8510    15.3930    -6.5550    -5.7260    74.8840     9.0110    10.4070    16.4180     2.4240 
