~V
VERS. 2.00: Ver 2.00
~W
STRT.M 11.0000:
STOP.M 273.0000:
STEP.M 0.1250:
NULL. -999.2500:
UWI. FD11023:
~C
DEPT.M :
TVD. :
DX. :
DY. :
GR.API :
RML.OHMM :
RI. :
RXO.OHMM :
CALI.CM :
DEN.GM/CC :
SP.MV :
~A
# ...
  167.7500   166.6420   -12.2960     4.0130    62.0480    17.9490    16.4260    10.6970    22.5190     2.2230   -28.6720 
  167.8750   166.7630   -12.3270     4.0230    65.9350    17.3060    15.8100    10.4450    22.5190     2.2250   -28.8030 
  168.0000   166.8840   -12.3580     4.0320    67.6520    16.8640    15.3270    10.2610    22.5190     2.2240   -28.9100 
  168.1250   167.0050   -12.3880     4.0420    67.8860    16.7880    15.1290    10.2600    22.5190     2.2200   -29.0170 
  168.2500   167.1250   -12.4190     4.0510    67.1120    17.0720    15.2350    10.4670    22.5190     2.2150   -29.1480 
  168.3750   167.2460   -12.4500     4.0600    67.4990    17.7040    15.6530    10.8520    22.5190     2.2130   -29.2990 
  168.5000   167.3670   -12.4810     4.0700    69.9200    18.6400    16.3690    11.3850    22.5190     2.2090   -29.4510 
  168.6250   167.4880   -12.5110     4.0790    69.6180    19.8740    17.3960    11.9420    22.5190     2.2040   -29.5940 
  168.7500   167.6090   -12.5420     4.0880    66.5240    21.3570    18.6750    12.4120    22.5200     2.2000   -29.7410 
  168.8750   167.7290   -12.5730     4.0980    64.3430    23.1330    20.2270    12.9110    22.5220     2.2000   -29.8990 
  169.0000   167.8500   -12.6030     4.1070    64.5750    25.2620    22.0950    13.5500    22.5240     2.2040   -30.0600 
  169.1250   167.9710   -12.6340     4.1170    64.2030    27.7690    24.3360    14.3550    22.5260     2.2010   -30.2070 
  169.2500   168.0920   -12.6650     4.1260    62.8340    30.3470    26.7410    15.1740    22.5280     2.1910   -30.3470 
  169.3750   168.2120   -12.6960     4.1350    60.9840    32.5590    28.9750    15.8470    22.5290     2.1780   -30.5000 
  169.5000   168.3330   -12.7260     4.1450    59.1320    33.8920    30.5970    16.1040    22.5200     2.1700   -30.6610 
  169.6250   168.4540   -12.7570     4.1540    59.7160    33.7790    31.0350    15.6360    22.5160     2.1690   -30.7950 
  169.7500   168.5750   -12.7880     4.1640    60.7420    32.5760    30.4500    14.7050    22.5290     2.1700   -30.8980 
  169.8750   168.6960   -12.8190     4.1730    59.2730    30.8630    29.2490    13.8090    22.5710     2.1690   -30.9820 
  170.0000   168.8160   -12.8490     4.1820    58.0200    29.3200    27.9990    13.4440    22.6360     2.1640   -31.0640 
  170.1250   168.9370   -12.8800     4.1920    61.3050    28.5270    27.2410    13.6540    22.6660     2.1590   -31.1570 
  170.2500   169.0580   -12.9110     4.2010    65.8120    28.4310    27.0580    14.0940    22.6740     2.1570   -31.2510 
  170.3750   169.1790   -12.9420     4.2110    67.0990    28.8630    27.3720    14.5040    22.6740     2.1590   -31.3400 
  170.5000   169.3000   -12.9720     4.2200    65.6530    29.6290    28.0490    14.7670    22.6740     2.1610   -31.4300 
  170.6250   169.4200   -13.0030     4.2290    64.4920    30.6980    29.0480    15.0020    22.6740     2.1580   -31.5440 
  170.7500   169.5410   -13.0340     4.2390    63.3310    32.1710    30.4040    15.6080    22.6740     2.1510   -31.6720 
  170.8750   169.6620   -13.0640     4.2480    60.6520    34.3290    32.3470    16.7570    22.6740     2.1470   -31.7980 
  171.0000   169.7830   -13.0950     4.2580    57.5010    37.4640    35.1610    18.4410    22.6740     2.1460   -31.9190 
  171.1250   169.9040   -13.1260     4.2670    56.8380    41.9310    39.2470    20.3740    22.6740     2.1470   -32.0120 
  171.2500   170.0240   -13.1570     4.2760    58.0690    47.4230    44.3850    22.7130    22.6740     2.1500   -32.0880 
  171.3750   170.1450   -13.1870     4.2860    58.5630    53.5620    50.2580    25.6070    22.6740     2.1570   -32.1660 
  171.5000   170.2660   -13.2180     4.2950    56.9560    59.7820    56.3270    28.4050    22.6740     2.1620   -32.2480 
  171.6250   170.3870   -13.2490     4.3050    54.4500    65.3190    61.8270    31.0890    22.6740     2.1630   -32.3310 
  171.7500   170.5070   -13.2800     4.3140    53.2480    69.9160    66.4260    33.6100    22.6740     2.1600   -32.4050 
  171.8750   170.6280   -13.3100     4.3230    52.8230    73.7370    70.2230    36.5980    22.6740     2.1600   -32.4590 
  172.0000   170.7490   -13.3410     4.3330    51.7090    77.2730    73.6710    40.2700    22.6740     2.1620   -32.5070 
  172.1250   170.8700   -13.3720     4.3420    51.1450    81.1390    77.4020    44.2930    22.6740     2.1630   -32.5940 
  172.2500   170.9910   -13.4030     4.3520    51.3970    85.4890    81.6740    48.9440    22.6740     2.1660   -32.7290 
  172.3750   171.1110   -13.4330     4.3610    50.5510    90.0950    86.3680    52.7560    22.6740     2.1700   -32.8710 
  172.5000   171.2320   -13.4640     4.3700    49.2600    94.5570    91.1680    54.0190    22.6740     2.1750   -32.9800 
  172.6250   171.3530   -13.4950     4.3800    50.8660    98.5300    95.7980    52.0930    22.6740     2.1760   -33.0440 
  172.7500   171.4740   -13.5250     4.3890    54.0740   102.2460   100.2960    49.3690    22.6740     2.1750   -33.0870 
  172.8750   171.5950   -13.5560     4.3990    54.8440   106.0480   104.7190    49.4590    22.6740     2.1720   -33.1310 
  173.0000   171.7150   -13.5870     4.4080    53.6460   109.9770   108.8040    51.3610    22.6740     2.1700   -33.1790 
  173.1250   171.8360   -13.6180     4.4170    54.6900   113.1460   111.2650    53.5070    22.6740     2.1760   -33.2210 
  173.2500   171.9570   -13.6480     4.4270    56.7410   114.1830   110.7190    53.6560    22.6740     2.1930   -33.2460 
  173.3750   172.0780   -13.6790     4.4360    57.8660   111.4090   106.4140    49.7840    22.6740     2.2120   -33.2530 
  173.5000   172.1990   -13.7100     4.4460    58.7780   104.4420    98.2480    42.9890    22.6740     2.2190   -33.2500 
  173.6250   172.3190   -13.7410     4.4550    60.9760    94.2350    87.6570    38.4950    22.6740     2.2060   -33.2430 
  173.7500   172.4400   -13.7710     4.4640    64.1630    84.0180    77.8370    36.0530    22.6740     2.1890   -33.2460 
  173.8750   172.5610   -13.8020     4.4740    65.3860    76.0750    70.7920    35.6390    22.6740     2.1800   -33.2740 
  174.0000   172.6810   -13.8340     4.4840    62.8670    71.6700    67.3990    36.8890    22.6740     2.1780   -33.3120 
  174.1250   172.8010   -13.8680     4.4950    58.6880    71.5840    68.1180    38.9950    22.6740     2.1780   -33.3200 
  174.2500   172.9210   -13.9020     4.5070    57.4210    74.5740    71.6410    41.8140    22.6740     2.1800   -33.2840 
  174.3750   173.0410   -13.9360     4.5180    58.3700    79.7580    77.1280    45.0750    22.6740     2.1920   -33.2140 
  174.5000   173.1600   -13.9700     4.5300    57.8890    86.1970    83.7300    47.7050    22.6750     2.2160   -33.1400 
  174.6250   173.2800   -14.0040     4.5410    55.8670    93.1250    90.7870    49.0370    22.6830     2.2380   -33.0960 
  174.7500   173.4000   -14.0380     4.5530    55.6360   100.1260    97.9750    50.4270    22.7070     2.2390   -33.0790 
  174.8750   173.5190   -14.0720     4.5640    56.5140   107.3590   105.5010    52.7990    22.7520     2.2180   -33.0680 
  175.0000   173.6390   -14.1060     4.5760    57.8090   115.1920   113.7600    55.4110    22.8270     2.1860   -33.0520 
  175.1250   173.7590   -14.1400     4.5870    57.8920   123.9750   123.0970    56.1300    22.8920     2.1620   -33.0300 
  175.2500   173.8790   -14.1740     4.5990    55.8790   133.2440   132.9530    54.0930    22.9300     2.1520   -32.9930 
  175.3750   173.9980   -14.2080     4.6100    52.9310   142.2830   142.4900    49.9600    22.9610     2.1530   -32.9480 
  175.5000   174.1180   -14.2420     4.6220    50.7280   150.2660   150.7340    44.4190    23.0170     2.1570   -32.9240 
  175.6250   174.2380   -14.2760     4.6340    50.5410   156.0800   156.3240    38.0890    23.0540     2.1630   -32.9300 
  175.7500   174.3580   -14.3100     4.6450    51.9440   159.4050   158.8970    31.7850    23.0710     2.1700   -32.9390 
  175.8750   174.4770   -14.3440     4.6570    54.2380   159.7390   157.9760    27.3380    23.0710     2.1810   -32.9450 
