~V
VERS. 2.00: Ver 2.00
~W
STRT.M 40.0000:
STOP.M 279.0000:
STEP.M 0.1250:
NULL. -999.2500:
UWI. FD11188:
~C
DEPT.M :
TVD. :
DX. :
DY. :
SP.MV :
GR.API :
RI. :
RML.OHMM :
RXO.OHMM :
DEN.GM/CC :
~A
# ...
  249.8750   237.8760    14.8280    59.5790    -3.1260    71.1240    16.9850    18.9070    22.9150     2.2070 
  250.0000   237.9900    14.8400    59.6290    -3.4440    71.5610    17.3980    19.4020    20.5190     2.1870 
  250.1250   238.1030    14.8530    59.6800    -3.6560    71.3960    18.7940    21.1560    20.4600     2.1740 
  250.2500   238.2170    14.8650    59.7300    -3.7820    71.1740    20.6330    23.3400    22.1770     2.1590 
  250.3750   238.3310    14.8780    59.7810    -3.8180    69.8780    22.1670    25.0330    23.2990     2.1490 
  250.5000   238.4450    14.8900    59.8310    -3.7740    69.4580    23.0560    25.8150    24.4100     2.1530 
  250.6250   238.5580    14.9030    59.8820    -3.6630    70.8920    23.0320    25.4520    24.4030     2.1680 
  250.7500   238.6720    14.9160    59.9320    -3.5260    73.2520    22.9770    25.0910    21.8050     2.1780 
  250.8750   238.7860    14.9280    59.9820    -3.4170    73.9750    23.4850    25.4210    19.7860     2.1710 
  251.0000   238.8990    14.9410    60.0320    -3.3800    74.6010    25.2360    27.2050    21.2490     2.1610 
  251.1250   239.0130    14.9540    60.0830    -3.4480    74.5430    28.4180    30.5800    25.8120     2.1590 
  251.2500   239.1270    14.9660    60.1330    -3.6040    70.9840    32.3050    34.6530    28.5420     2.1600 
  251.3750   239.2410    14.9790    60.1830    -3.8200    65.4720    35.6750    38.0150    29.3200     2.1540 
  251.5000   239.3550    14.9910    60.2330    -4.0490    62.8740    37.5790    39.7220    30.4030     2.1440 
  251.6250   239.4680    15.0040    60.2830    -4.2480    64.3310    37.8020    39.5970    30.3900     2.1380 
  251.7500   239.5820    15.0170    60.3340    -4.3950    65.8450    37.0120    38.4890    30.5950     2.1410 
  251.8750   239.6960    15.0290    60.3840    -4.4720    65.9430    35.6430    36.8380    31.4270     2.1500 
  252.0000   239.8100    15.0420    60.4340    -4.4820    65.9770    34.2260    35.2130    31.7890     2.1570 
  252.1250   239.9230    15.0550    60.4840    -4.4280    66.8060    33.1470    33.9670    31.2100     2.1600 
  252.2500   240.0370    15.0680    60.5340    -4.3250    66.6170    32.6520    33.3490    28.3520     2.1610 
  252.3750   240.1510    15.0800    60.5840    -4.1910    65.5460    32.8450    33.4770    24.6320     2.1570 
  252.5000   240.2650    15.0930    60.6350    -4.0450    65.1490    33.5930    34.2140    23.7680     2.1500 
  252.6250   240.3790    15.1050    60.6850    -3.8980    65.8140    34.8770    35.5170    26.4910     2.1460 
  252.7500   240.4920    15.1180    60.7350    -3.7420    66.0670    36.3300    36.9340    30.4420     2.1450 
  252.8750   240.6060    15.1310    60.7860    -3.5540    64.4540    37.4020    37.8780    32.9520     2.1450 
  253.0000   240.7200    15.1430    60.8360    -3.3180    63.5310    37.4940    37.7190    33.6130     2.1430 
  253.1250   240.8330    15.1560    60.8860    -3.0220    65.0170    36.3300    36.3350    32.7930     2.1430 
  253.2500   240.9470    15.1690    60.9370    -2.6830    68.0000    34.8250    34.6580    32.1600     2.1470 
  253.3750   241.0610    15.1810    60.9870    -2.3220    70.1890    33.4340    33.1650    32.7810     2.1590 
  253.5000   241.1750    15.1940    61.0370    -1.9710    69.5870    32.5390    32.2150    33.7560     2.1740 
  253.6250   241.2880    15.2070    61.0880    -1.6590    66.2840    32.0620    31.6950    35.4140     2.1820 
  253.7500   241.4020    15.2190    61.1380    -1.3980    63.4580    31.9520    31.5340    36.7290     2.1820 
  253.8750   241.5160    15.2320    61.1880    -1.1980    63.6980    31.9580    31.4650    36.8400     2.1740 
  254.0000   241.6290    15.2450    61.2390    -1.0470    66.4910    32.0330    31.4600    36.0620     2.1590 
  254.1250   241.7430    15.2580    61.2890    -0.9420    67.7590    32.0520    31.4020    35.0310     2.1470 
  254.2500   241.8570    15.2710    61.3400    -0.8770    67.0640    31.9550    31.2760    34.4900     2.1410 
  254.3750   241.9700    15.2840    61.3900    -0.8540    65.7180    31.7630    31.0680    34.1540     2.1380 
  254.5000   242.0840    15.2960    61.4410    -0.8620    65.5250    31.3800    30.6660    34.0360     2.1430 
  254.6250   242.1970    15.3090    61.4910    -0.8910    66.2090    30.7690    30.0020    32.9090     2.1550 
  254.7500   242.3110    15.3220    61.5420    -0.9200    66.8310    30.0360    29.2160    30.6890     2.1520 
  254.8750   242.4250    15.3350    61.5920    -0.9320    67.4890    29.3120    28.4630    30.0430     2.1280 
  255.0000   242.5380    15.3480    61.6430    -0.9160    66.8330    28.6610    27.8130    31.9030     2.1110 
  255.1250   242.6520    15.3610    61.6940    -0.8700    65.6230    28.1250    27.3360    33.1100     2.1200 
  255.2500   242.7650    15.3740    61.7440    -0.8010    65.5440    28.1500    27.4350    32.5030     2.1460 
  255.3750   242.8790    15.3870    61.7950    -0.7150    68.2810    28.4070    27.7150    30.8150     2.1770 
  255.5000   242.9920    15.4000    61.8460    -0.6230    72.3190    28.6330    27.9990    28.3610     2.2200 
  255.6250   243.1060    15.4130    61.8970    -0.5410    76.7940    29.1080    28.5360    32.1330     2.2670 
  255.7500   243.2190    15.4270    61.9470    -0.4850    80.6040    29.8330    29.3720    36.9810     2.2840 
  255.8750   243.3330    15.4400    61.9980    -0.4670    80.8820    30.7860    30.3640    31.5700     2.2420 
  256.0000   243.4460    15.4530    62.0490    -0.4790    77.0410    31.0500    30.6740    26.9380     2.1760 
  256.1250   243.5600    15.4660    62.1000    -0.4970    72.6610    30.8610    30.5670    32.0210     2.1350 
  256.2500   243.6730    15.4790    62.1510    -0.4940    70.8060    30.5700    30.3690    40.2910     2.1270 
  256.3750   243.7860    15.4920    62.2010    -0.4510    71.4880    31.0430    30.9840    42.3500     2.1300 
  256.5000   243.9000    15.5050    62.2520    -0.3760    69.9760    32.2000    32.2500    37.0790     2.1290 
  256.6250   244.0130    15.5190    62.3030    -0.2860    66.7040    35.1460    35.6150    37.6090     2.1230 
  256.7500   244.1270    15.5320    62.3540    -0.2060    64.7410    39.3150    40.2320    45.4840     2.1170 
  256.8750   244.2400    15.5450    62.4050    -0.1530    64.2760    42.2670    43.3320    49.3730     2.1130 
  257.0000   244.3540    15.5590    62.4550    -0.1320    63.5230    42.2740    43.1410    50.4040     2.1130 
  257.1250   244.4670    15.5720    62.5060    -0.1410    63.4460    38.1810    38.5070    51.8870     2.1170 
  257.2500   244.5800    15.5850    62.5570    -0.1610    65.8570    32.1900    32.0920    47.9910     2.1270 
  257.3750   244.6940    15.5990    62.6080    -0.1600    67.7400    27.9460    27.7640    36.9020     2.1440 
  257.5000   244.8070    15.6120    62.6590    -0.1020    68.6000    26.0310    25.9500    27.3030     2.1680 
  257.6250   244.9210    15.6250    62.7100     0.0470    70.1970    27.1360    27.4090    27.4410     2.1970 
  257.7500   245.0340    15.6390    62.7600     0.2770    72.1460    29.8550    30.4980    39.9730     2.2280 
  257.8750   245.1470    15.6520    62.8110     0.5530    72.9820    32.3070    33.1000    51.0640     2.2500 
  258.0000   245.2610    15.6660    62.8620     0.8090    74.1260    32.7970    33.4320    50.9970     2.2460 
  258.1250   245.3740    15.6790    62.9130     0.9860    76.1930    30.1120    30.3260    48.0200     2.2200 
  258.2500   245.4880    15.6930    62.9640     1.0710    76.1560    26.0630    25.9430    38.3610     2.1870 
  258.3750   245.6010    15.7060    63.0140     1.0800    73.5420    22.4560    22.2710    26.4400     2.1640 
  258.5000   245.7150    15.7200    63.0650     1.0600    72.4830    20.6770    20.5770    23.6190     2.1550 
  258.6250   245.8280    15.7330    63.1160     1.0450    74.9630    20.5870    20.6380    24.7770     2.1630 
  258.7500   245.9410    15.7470    63.1670     1.0560    76.9600    21.6710    21.8580    25.6370     2.1750 
  258.8750   246.0550    15.7600    63.2180     1.1000    74.6780    23.4520    23.7380    28.6390     2.1760 
