~V
VERS. 2.00: Ver 2.00
~W
STRT.M 45.0000:
STOP.M 272.0000:
STEP.M 0.1250:
NULL. -999.2500:
UWI. FD11191:
~C
DEPT.M :
TVD. :
DX. :
DY. :
SP.MV :
GR.API :
RI. :
RML.OHMM :
RXO.OHMM :
DEN.GM/CC :
~A
# ...
  172.7500   170.8690   -16.7420     0.4720   -39.3840    73.3000    26.0300    25.4250    33.3510     2.1510 
  172.8750   170.9880   -16.7800     0.4730   -39.3610    73.8910    25.9120    25.4050    31.6890     2.1470 
  173.0000   171.1080   -16.8170     0.4740   -39.3460    74.3220    26.0890    25.7030    29.9060     2.1440 
  173.1250   171.2270   -16.8550     0.4750   -39.3440    74.3460    26.4270    26.1540    29.0120     2.1430 
  173.2500   171.3460   -16.8930     0.4760   -39.3540    73.0110    26.5920    26.3820    29.7040     2.1420 
  173.3750   171.4650   -16.9310     0.4770   -39.3740    69.5860    26.2510    26.0630    31.2730     2.1420 
  173.5000   171.5840   -16.9690     0.4790   -39.4060    66.6220    25.5210    25.3290    31.8960     2.1480 
  173.6250   171.7030   -17.0070     0.4800   -39.4540    66.8780    24.7280    24.5350    31.4850     2.1580 
  173.7500   171.8220   -17.0450     0.4810   -39.5190    70.1340    24.2970    24.1460    30.8570     2.1610 
  173.8750   171.9410   -17.0830     0.4830   -39.6010    72.3030    24.8240    24.7760    29.1380     2.1520 
  174.0000   172.0600   -17.1210     0.4840   -39.6930    71.1560    26.1830    26.2910    28.3320     2.1350 
  174.1250   172.1790   -17.1600     0.4860   -39.7880    68.9480    28.3450    28.6370    31.1810     2.1220 
  174.2500   172.2980   -17.1980     0.4870   -39.8790    67.4530    30.7790    31.2050    34.2570     2.1210 
  174.3750   172.4170   -17.2370     0.4890   -39.9620    66.8720    32.6110    33.0700    34.6480     2.1280 
  174.5000   172.5360   -17.2760     0.4900   -40.0390    66.9150    33.5850    34.0130    34.6320     2.1390 
  174.6250   172.6550   -17.3140     0.4920   -40.1130    68.2550    33.5830    33.9660    35.6760     2.1480 
  174.7500   172.7730   -17.3530     0.4930   -40.1820    69.1290    33.1790    33.5810    35.6320     2.1530 
  174.8750   172.8920   -17.3920     0.4950   -40.2430    69.4690    32.8840    33.3890    33.7520     2.1500 
  175.0000   173.0110   -17.4310     0.4970   -40.2910    70.0000    32.9880    33.6460    32.6450     2.1460 
  175.1250   173.1290   -17.4700     0.4990   -40.3180    71.4090    33.5770    34.4420    33.0890     2.1470 
  175.2500   173.2480   -17.5100     0.5010   -40.3230    72.4040    34.3950    35.4590    32.9790     2.1460 
  175.3750   173.3670   -17.5490     0.5030   -40.3070    71.9620    35.2380    36.4660    31.9290     2.1390 
  175.5000   173.4850   -17.5880     0.5050   -40.2790    69.8190    35.8020    37.1550    31.6460     2.1350 
  175.6250   173.6040   -17.6280     0.5070   -40.2510    69.0100    36.1980    37.6630    31.8130     2.1450 
  175.7500   173.7230   -17.6670     0.5090   -40.2350    70.4180    36.5810    38.1560    31.4950     2.1540 
  175.8750   173.8410   -17.7070     0.5110   -40.2390    71.8630    37.1040    38.8270    31.8270     2.1500 
  176.0000   173.9600   -17.7470     0.5130   -40.2600    69.3510    37.9760    39.9060    33.3750     2.1420 
  176.1250   174.0780   -17.7860     0.5150   -40.2830    64.2370    39.3260    41.4950    35.4240     2.1370 
  176.2500   174.1970   -17.8260     0.5170   -40.2850    60.4170    40.8740    43.2300    36.5830     2.1290 
  176.3750   174.3150   -17.8660     0.5190   -40.2490    58.7120    42.1140    44.4690    36.9170     2.1150 
  176.5000   174.4330   -17.9060     0.5210   -40.1740    58.2270    42.6220    44.7850    37.4160     2.1040 
  176.6250   174.5520   -17.9460     0.5230   -40.0720    58.8240    42.2540    44.0700    36.9170     2.1050 
  176.7500   174.6700   -17.9870     0.5250   -39.9710    60.0700    41.3190    42.7800    35.4200     2.1120 
  176.8750   174.7880   -18.0270     0.5270   -39.8940    60.1560    40.4440    41.6670    34.3400     2.1200 
  177.0000   174.9070   -18.0670     0.5290   -39.8500    59.9300    39.8880    40.9980    33.9370     2.1220 
  177.1250   175.0250   -18.1080     0.5310   -39.8350    62.5980    40.1460    41.3290    34.0590     2.1200 
  177.2500   175.1430   -18.1480     0.5320   -39.8300    65.1540    41.0350    42.3610    34.8150     2.1190 
  177.3750   175.2610   -18.1890     0.5340   -39.8130    63.5740    42.1070    43.5190    35.6220     2.1230 
  177.5000   175.3790   -18.2300     0.5360   -39.7770    60.6960    42.5180    43.8110    35.5670     2.1370 
  177.6250   175.4970   -18.2710     0.5380   -39.7240    59.8220    41.7090    42.6540    34.7900     2.1600 
  177.7500   175.6160   -18.3120     0.5400   -39.6670    60.3470    39.4180    39.9160    33.9330     2.1830 
  177.8750   175.7340   -18.3530     0.5420   -39.6150    61.3270    36.1500    36.2800    33.8330     2.1950 
  178.0000   175.8520   -18.3940     0.5440   -39.5680    64.3540    33.0770    33.0680    34.0000     2.1990 
  178.1250   175.9690   -18.4360     0.5460   -39.5130    69.5210    31.1030    31.1380    33.3860     2.1960 
  178.2500   176.0870   -18.4770     0.5490   -39.4320    74.3920    31.4610    31.8080    32.5910     2.1790 
  178.3750   176.2050   -18.5190     0.5510   -39.3110    76.1650    34.1010    34.9460    32.4450     2.1620 
  178.5000   176.3230   -18.5600     0.5530   -39.1520    74.3390    38.4920    39.9570    34.4080     2.1590 
  178.6250   176.4410   -18.6020     0.5550   -38.9690    71.4760    43.6550    45.6650    37.7730     2.1620 
  178.7500   176.5590   -18.6440     0.5570   -38.7860    69.3320    47.7090    49.9190    38.3440     2.1510 
  178.8750   176.6760   -18.6860     0.5600   -38.6200    65.6980    49.7930    51.9600    37.5220     2.1330 
  179.0000   176.7940   -18.7280     0.5620   -38.4770    61.9180    49.9040    51.8630    38.2840     2.1330 
  179.1250   176.9120   -18.7700     0.5640   -38.3550    60.3620    48.5810    50.3400    37.5010     2.1430 
  179.2500   177.0300   -18.8120     0.5670   -38.2420    60.7820    46.8250    48.5040    35.8440     2.1450 
  179.3750   177.1470   -18.8540     0.5690   -38.1290    61.5660    45.2620    46.9590    35.6290     2.1400 
  179.5000   177.2650   -18.8970     0.5720   -38.0110    64.0690    44.1100    45.8880    34.5220     2.1360 
  179.6250   177.3820   -18.9390     0.5740   -37.8920    67.8440    42.9340    44.6600    32.1460     2.1400 
  179.7500   177.5000   -18.9820     0.5760   -37.7770    68.3970    40.9270    42.4310    30.1990     2.1490 
  179.8750   177.6170   -19.0240     0.5780   -37.6760    65.9480    38.1230    39.3910    31.7770     2.1640 
  180.0000   177.7350   -19.0670     0.5810   -37.5900    63.2220    35.0310    36.0630    35.6490     2.1760 
  180.1250   177.8520   -19.1100     0.5830   -37.5190    63.1510    32.6460    33.6370    35.0740     2.1740 
  180.2500   177.9690   -19.1530     0.5850   -37.4520    64.3380    31.4120    32.4290    32.4560     2.1620 
  180.3750   178.0870   -19.1960     0.5870   -37.3820    64.2860    31.4840    32.6390    33.9770     2.1500 
  180.5000   178.2040   -19.2400     0.5900   -37.3070    62.9250    32.4840    33.8870    36.0740     2.1430 
  180.6250   178.3210   -19.2830     0.5920   -37.2330    61.4330    33.8600    35.5350    35.2710     2.1430 
  180.7500   178.4380   -19.3260     0.5940   -37.1710    61.5150    35.2370    37.1610    34.4320     2.1480 
  180.8750   178.5550   -19.3700     0.5960   -37.1310    62.4710    36.0940    38.2340    33.6580     2.1500 
  181.0000   178.6730   -19.4140     0.5990   -37.1140    63.9830    36.7960    39.2130    32.4070     2.1440 
  181.1250   178.7900   -19.4570     0.6010   -37.1170    64.9440    37.5040    40.2340    33.3370     2.1320 
  181.2500   178.9070   -19.5010     0.6030   -37.1290    63.0500    38.1120    41.1360    34.4590     2.1220 
  181.3750   179.0240   -19.5450     0.6060   -37.1430    60.0130    38.2740    41.4650    33.8770     2.1120 
  181.5000   179.1410   -19.5890     0.6080   -37.1510    59.6550    37.9160    41.1590    34.1820     2.1120 
  181.6250   179.2580   -19.6330     0.6100   -37.1500    62.3970    37.1050    40.3540    34.7430     2.1280 
  181.7500   179.3750   -19.6770     0.6130   -37.1380    64.5340    36.1680    39.4240    34.3970     2.1440 
