~V
VERS. 2.00: Ver 2.00
~W
STRT.M 50.0000:
STOP.M 268.0000:
STEP.M 0.1250:
NULL. -999.2500:
UWI. FD11187:
~C
DEPT.M :
TVD. :
DX. :
DY. :
SP.MV :
GR.API :
RI. :
RML.OHMM :
RXO.OHMM :
DEN.GM/CC :
~A
   50.0000    50.0000     0.0000     0.0000   -24.1300    35.9660     0.1720     0.2220     0.1400     2.3220 
   50.1250    50.1250     0.0000    -0.0010   -23.9430    36.7430     0.1670     0.2090     0.3620     2.3070 
   50.2500    50.2500     0.0000    -0.0020   -24.4040    35.7550     0.1750     0.2310     0.0890     2.3240 
   50.3750    50.3750     0.0000    -0.0030   -24.3060    35.6520     0.1740     0.2290     0.1040     2.3240 
   50.5000    50.5000     0.0000    -0.0040   -24.3060    35.6520     0.1740     0.2290     0.1040     2.3240 
   50.6250    50.6250     0.0000    -0.0050   -24.4040    35.7550     0.1750     0.2310     0.0890     2.3240 
   50.7500    50.7500     0.0000    -0.0060   -24.3060    35.6520     0.1740     0.2290     0.1040     2.3240 
   50.8750    50.8750     0.0000    -0.0070   -24.3060    35.6520     0.1740     0.2290     0.1040     2.3240 
   51.0000    51.0000     0.0000    -0.0080   -24.4040    35.7550     0.1750     0.2310     0.0890     2.3240 
   51.1250    51.1250     0.0000    -0.0090   -24.3060    35.6520     0.1740     0.2290     0.1040     2.3240 
   51.2500    51.2500     0.0000    -0.0100   -24.3060    35.6520     0.1740     0.2290     0.1040     2.3240 
   51.3750    51.3750     0.0000    -0.0110   -24.4040    35.7550     0.1750     0.2310     0.0890     2.3240 
   51.5000    51.5000     0.0000    -0.0120   -24.3060    35.6520     0.1740     0.2290     0.1040     2.3240 
   51.6250    51.6250     0.0010    -0.0130   -24.4040    35.7550     0.1750     0.2310     0.0890     2.3240 
   51.7500    51.7500     0.0010    -0.0140   -24.4040    35.7550     0.1750     0.2310     0.0890     2.3240 
   51.8750    51.8750     0.0010    -0.0150   -24.4040    35.7550     0.1750     0.2310     0.0890     2.3240 
   52.0000    52.0000     0.0010    -0.0160   -24.4040    35.7550     0.1750     0.2310     0.0890     2.3240 
   52.1250    52.1250     0.0010    -0.0170   -24.4040    35.7550     0.1750     0.2310     0.0890     2.3240 
   52.2500    52.2500     0.0010    -0.0180   -24.1300    35.9660     0.1720     0.2220     0.1400     2.3220 
   52.3750    52.3750     0.0010    -0.0190   -23.9430    36.7430     0.1670     0.2090     0.3620     2.3070 
   52.5000    52.5000     0.0010    -0.0200   -23.8870    36.7940     0.1650     0.2030     0.5060     2.2910 
   52.6250    52.6250     0.0010    -0.0220   -23.9180    35.2840     0.1620     0.1970     0.4250     2.2780 
   52.7500    52.7500     0.0000    -0.0230   -24.0070    33.8880     0.1620     0.1980     0.3150     2.2920 
   52.8750    52.8750     0.0000    -0.0240   -24.2140    33.3850     0.1650     0.2030     0.1680     2.3450 
   53.0000    53.0000     0.0000    -0.0250   -24.3810    35.2680     0.1680     0.2050     0.1280     2.3800 
   53.1250    53.1250     0.0000    -0.0260   -24.6490    39.2480     0.1690     0.2010     0.3350     2.3930 
   53.2500    53.2500    -0.0010    -0.0270   -24.8360    40.8970     0.1660     0.1930     0.4170     2.3790 
   53.3750    53.3750    -0.0010    -0.0280   -25.1380    40.6550     0.1610     0.1820     0.3290     2.3740 
   53.5000    53.5000    -0.0020    -0.0290   -25.3670    40.7280     0.1610     0.1810     0.3080     2.3900 
   53.6250    53.6250    -0.0020    -0.0300   -25.7920    43.0050     0.1660     0.1930     0.3180     2.4000 
   53.7500    53.7500    -0.0030    -0.0310   -26.1520    43.9210     0.1660     0.2020     0.3310     2.3770 
   53.8750    53.8750    -0.0030    -0.0330   -26.8450    42.2960     0.1470     0.1880     0.3430     2.3210 
   54.0000    54.0000    -0.0040    -0.0340   -27.4210    40.0880     0.1210     0.1620     0.3830     2.3000 
   54.1250    54.1250    -0.0040    -0.0350   -28.4550    38.6440     0.0750     0.1080     0.3010     2.3100 
   54.2500    54.2500    -0.0050    -0.0360   -29.2440    38.7690     0.0500     0.0710     0.1880     2.3180 
   54.3750    54.3750    -0.0060    -0.0370   -30.5310    39.7810     0.0280     0.0390    11.2190     2.2800 
   54.5000    54.5000    -0.0060    -0.0380   -31.4180    40.4890     0.0250     0.0280    50.4910     2.2350 
   54.6250    54.6250    -0.0070    -0.0400   -32.7160    40.3580     0.0620     0.0490    89.4870     2.1290 
   54.7500    54.7500    -0.0080    -0.0410   -33.5210    40.0760     0.1400     0.1040    52.9730     2.0190 
   54.8750    54.8750    -0.0080    -0.0420   -34.5990    40.4130     0.4020     0.3110     6.6940     1.8720 
   55.0000    55.0000    -0.0090    -0.0430   -35.2290    41.8460     0.8270     0.6860     6.5330     1.8590 
   55.1250    55.1250    -0.0100    -0.0450   -36.0630    44.1100     3.8280     4.6990     7.1450     1.9440 
   55.2500    55.2500    -0.0110    -0.0460   -36.5560    45.1680     5.2550     6.2950     7.1540     1.9930 
   55.3750    55.3750    -0.0110    -0.0470   -37.2030    46.9820     6.5430     7.4560     6.4520     2.0340 
   55.5000    55.5000    -0.0120    -0.0480   -37.5570    48.3800     6.6680     7.2770     6.2980     2.0650 
   55.6250    55.6250    -0.0130    -0.0490   -37.9350    50.4650     4.4650     3.8400     4.9790     2.1180 
   55.7500    55.7500    -0.0140    -0.0510   -38.0770    51.2350     3.9180     3.1860     3.5490     2.1440 
   55.8750    55.8750    -0.0150    -0.0520   -38.1580    52.8080     3.4480     2.7460     2.8030     2.1760 
   56.0000    56.0000    -0.0160    -0.0530   -38.1670    54.8220     3.2870     2.6310     2.9400     2.1900 
   56.1250    56.1250    -0.0160    -0.0540   -38.2010    58.0760     3.3090     2.6890     2.8820     2.1820 
   56.2500    56.2500    -0.0170    -0.0560   -38.2740    58.8760     3.5430     2.9090     2.9620     2.1930 
   56.3750    56.3750    -0.0180    -0.0570   -38.4790    57.1880     4.2260     3.5480     4.0610     2.3100 
   56.5000    56.5000    -0.0190    -0.0580   -38.6740    55.5440     4.8650     4.1650     4.7290     2.4090 
   56.6250    56.6250    -0.0200    -0.0600   -39.0140    54.1620     5.7970     5.1560     5.2600     2.4100 
   56.7500    56.7500    -0.0210    -0.0610   -39.2500    53.8710     6.1390     5.5840     5.8960     2.2990 
   56.8750    56.8750    -0.0210    -0.0620   -39.5810    54.7130     6.1370     5.7040     6.7280     2.1310 
   57.0000    57.0000    -0.0220    -0.0640   -39.7750    56.3590     5.8260     5.5020     6.8420     2.0820 
   57.1250    57.1250    -0.0230    -0.0650   -40.0160    59.1670     5.2510     5.0290     6.7900     2.0680 
   57.2500    57.2500    -0.0240    -0.0660   -40.1440    59.4870     4.9890     4.8310     6.7970     2.0680 
   57.3750    57.3750    -0.0250    -0.0680   -40.2920    57.3150     5.0330     5.0370     6.6490     2.0850 
   57.5000    57.5000    -0.0250    -0.0690   -40.3660    55.8660     5.4250     5.5990     7.7720     2.1460 
   57.6250    57.6250    -0.0260    -0.0710   -40.4460    55.0760     6.2450     6.7490    22.6050     2.3240 
   57.7500    57.7500    -0.0270    -0.0720   -40.4800    55.0360     6.7700     7.5040    38.5750     2.4260 
   57.8750    57.8750    -0.0280    -0.0730   -40.5060    54.2900     7.1220     8.0990    36.9540     2.4080 
   58.0000    58.0000    -0.0290    -0.0750   -40.5110    55.7240     6.8760     7.8580    19.9220     2.2950 
   58.1250    58.1250    -0.0290    -0.0760   -40.5040    61.1770     6.0400     6.8990     6.5430     2.1270 
   58.2500    58.2500    -0.0300    -0.0780   -40.4930    63.5600     5.4000     6.1270     6.1080     2.0700 
   58.3750    58.3750    -0.0310    -0.0790   -40.4690    61.2180     4.6130     5.2550     5.8830     2.0440 
   58.5000    58.5000    -0.0320    -0.0810   -40.4450    58.1070     4.4050     5.0830     5.9880     2.0400 
   58.6250    58.6250    -0.0320    -0.0820   -40.3850    55.9350     4.4030     5.1840     6.1300     2.0360 
   58.7500    58.7490    -0.0330    -0.0840   -40.3200    56.0710     4.4490     5.2810     6.0410     2.0320 
   58.8750    58.8740    -0.0340    -0.0850   -40.1760    55.5350     4.5100     5.4040     5.7490     2.0340 
   59.0000    58.9990    -0.0340    -0.0870   -40.0560    54.6830     4.5210     5.4270     5.5240     2.0430 
