~V
VERS. 2.00: Ver 2.00
~W
STRT.M 40.0000:
STOP.M 259.0000:
STEP.M 0.1250:
NULL. -999.2500:
UWI. FD11192:
~C
DEPT.M :
TVD. :
DX. :
DY. :
SP.MV :
GR.API :
RI. :
RML.OHMM :
RXO.OHMM :
DEN.GM/CC :
~A
# ...
   85.6250    85.5100     2.0220     0.9440  -214.9000    76.6370     7.1970     8.1630    11.0190     2.3290 
   85.7500    85.6330     2.0380     0.9560  -214.9570    70.3860     6.5270     7.2390     5.9550     2.2040 
   85.8750    85.7560     2.0540     0.9670  -214.9620    66.1470     5.7380     6.2830     5.3810     2.1450 
   86.0000    85.8800     2.0700     0.9800  -214.9440    64.4800     5.3790     5.9020     5.2620     2.1320 
   86.1250    86.0030     2.0860     0.9920  -214.8520    65.4770     5.2530     5.7850     5.0120     2.1250 
   86.2500    86.1260     2.1020     1.0040  -214.7620    65.8840     5.2270     5.7600     4.9770     2.1200 
   86.3750    86.2500     2.1180     1.0160  -214.7320    66.2480     5.2640     5.8170     5.0500     2.1290 
   86.5000    86.3730     2.1340     1.0290  -214.8040    68.2800     5.4150     6.0200     4.9750     2.1530 
   86.6250    86.4960     2.1510     1.0410  -214.9660    71.7130     5.7360     6.4300     5.1120     2.1890 
   86.7500    86.6200     2.1670     1.0540  -215.1240    72.3530     6.0830     6.8590     6.6340     2.2200 
   86.8750    86.7430     2.1830     1.0660  -215.0690    70.4660     6.2610     7.0660    15.2130     2.2250 
   87.0000    86.8660     2.2000     1.0790  -214.8230    68.1040     6.1680     6.9230    29.1020     2.2190 
   87.1250    86.9890     2.2160     1.0920  -214.5190    68.2030     5.7350     6.3540    29.3350     2.2300 
   87.2500    87.1130     2.2330     1.1050  -214.2510    71.5720     5.1220     5.5940    14.9190     2.2530 
   87.3750    87.2360     2.2490     1.1180  -213.9590    78.3170     4.5410     4.9300     5.8260     2.2630 
   87.5000    87.3590     2.2660     1.1310  -213.7030    84.9140     4.1210     4.5040     4.6670     2.2540 
   87.6250    87.4820     2.2820     1.1440  -213.4800    88.2360     3.9270     4.3620     4.5440     2.2440 
   87.7500    87.6050     2.2990     1.1570  -213.3850    88.6280     3.9420     4.4420     4.4590     2.2390 
   87.8750    87.7290     2.3160     1.1710  -213.4010    87.4780     4.0480     4.5710     4.4640     2.2340 
   88.0000    87.8520     2.3320     1.1840  -213.4440    85.4700     4.1620     4.6670     4.5380     2.2280 
   88.1250    87.9750     2.3490     1.1970  -213.4940    81.4890     4.2580     4.7290     4.6010     2.2230 
   88.2500    88.0980     2.3660     1.2110  -213.6080    77.2350     4.3430     4.7710     4.6670     2.2260 
   88.3750    88.2210     2.3830     1.2250  -213.7680    76.4100     4.4080     4.8020     4.7170     2.2350 
   88.5000    88.3440     2.4000     1.2380  -213.9920    79.3520     4.4580     4.8290     4.6930     2.2410 
   88.6250    88.4670     2.4170     1.2520  -214.2130    81.4720     4.5370     4.8950     4.6300     2.2430 
   88.7500    88.5900     2.4340     1.2660  -214.3970    80.2490     4.6560     5.0230     4.6420     2.2380 
   88.8750    88.7130     2.4510     1.2800  -214.4700    77.7270     4.7930     5.1800     4.7850     2.2340 
   89.0000    88.8360     2.4680     1.2940  -214.4900    78.4630     4.8680     5.2730     5.2420     2.2410 
   89.1250    88.9590     2.4850     1.3080  -214.4320    80.7770     4.8050     5.2150     5.8150     2.2490 
   89.2500    89.0820     2.5020     1.3220  -214.2530    81.9770     4.6100     5.0070     5.5780     2.2420 
   89.3750    89.2050     2.5190     1.3360  -213.9370    83.3340     4.2710     4.6360     4.5890     2.2300 
   89.5000    89.3280     2.5370     1.3510  -213.5660    88.1140     3.9390     4.2730     3.9980     2.2290 
   89.6250    89.4510     2.5540     1.3650  -213.3090    93.5870     3.7210     4.0530     4.0070     2.2380 
   89.7500    89.5740     2.5710     1.3800  -213.3840    94.4500     3.6950     4.0680     4.0260     2.2490 
   89.8750    89.6970     2.5890     1.3950  -213.7220    90.6520     3.8730     4.3130     4.2720     2.2550 
   90.0000    89.8200     2.6060     1.4100  -214.2090    87.3570     4.1890     4.6860     4.9930     2.2430 
   90.1250    89.9430     2.6240     1.4240  -214.7790    85.7170     4.5400     5.0640     5.4660     2.2030 
   90.2500    90.0660     2.6410     1.4390  -215.2310    82.5090     5.0220     5.5760     5.4460     2.1590 
   90.3750    90.1890     2.6590     1.4540  -215.5300    76.7520     5.8500     6.5280     5.4320     2.1490 
   90.5000    90.3110     2.6770     1.4700  -215.7740    72.4960     7.0110     7.9180     7.0790     2.1970 
   90.6250    90.4340     2.6940     1.4850  -216.0330    72.0350     8.3250     9.5400    13.7120     2.3120 
   90.7500    90.5570     2.7120     1.5000  -216.2770    74.5410     9.5230    10.9720    20.7590     2.4540 
   90.8750    90.6800     2.7300     1.5160  -216.4640    76.1360     9.9180    11.3180    18.6950     2.5490 
   91.0000    90.8020     2.7480     1.5310  -216.6240    74.2920     9.3130    10.4460    11.1740     2.5320 
   91.1250    90.9250     2.7660     1.5470  -216.6890    70.2740     8.1000     8.9110     6.9580     2.4000 
   91.2500    91.0480     2.7840     1.5620  -216.7200    68.2480     6.7800     7.3770     6.2660     2.2440 
   91.3750    91.1710     2.8020     1.5780  -216.7190    69.7160     6.0110     6.6090     6.2720     2.1500 
   91.5000    91.2930     2.8200     1.5940  -216.7350    71.4890     5.7780     6.4490     6.1200     2.1190 
   91.6250    91.4160     2.8380     1.6100  -216.8190    71.4130     5.7320     6.4670     5.9750     2.1160 
   91.7500    91.5390     2.8560     1.6260  -216.9910    70.9940     5.6840     6.4400     5.8010     2.1170 
   91.8750    91.6610     2.8740     1.6420  -217.1600    70.0590     5.6270     6.3720     5.5630     2.1200 
   92.0000    91.7840     2.8920     1.6590  -217.2870    68.8770     5.5830     6.2970     5.4060     2.1220 
   92.1250    91.9060     2.9100     1.6750  -217.3360    67.9720     5.5770     6.2570     5.3820     2.1240 
   92.2500    92.0290     2.9290     1.6910  -217.3420    66.2410     5.6380     6.2960     5.3700     2.1210 
   92.3750    92.1510     2.9470     1.7080  -217.3610    65.3250     5.7580     6.4140     5.3680     2.1120 
   92.5000    92.2740     2.9650     1.7250  -217.3060    65.5500     5.9030     6.5650     5.5890     2.1040 
   92.6250    92.3960     2.9840     1.7410  -217.2440    66.7210     6.0110     6.6840     6.8670     2.1030 
   92.7500    92.5190     3.0020     1.7580  -217.2830    66.3680     6.0230     6.6880     8.5400     2.1080 
   92.8750    92.6410     3.0210     1.7750  -217.3400    63.7410     5.9140     6.5500     8.1530     2.1160 
   93.0000    92.7640     3.0390     1.7930  -217.3790    62.0030     5.7290     6.3430     6.3830     2.1230 
   93.1250    92.8860     3.0580     1.8100  -217.3760    62.6340     5.5200     6.1320     5.4880     2.1220 
   93.2500    93.0090     3.0770     1.8270  -217.3840    65.2610     5.3830     6.0210     5.4010     2.1170 
   93.3750    93.1310     3.0950     1.8450  -217.3960    66.7020     5.3100     5.9810     5.4690     2.1190 
   93.5000    93.2530     3.1140     1.8630  -217.3780    66.4940     5.2460     5.9360     5.5500     2.1250 
   93.6250    93.3750     3.1330     1.8800  -217.2920    66.8240     5.1710     5.8580     5.6210     2.1320 
   93.7500    93.4980     3.1520     1.8980  -217.1520    70.5360     5.0830     5.7570     5.6020     2.1430 
   93.8750    93.6200     3.1710     1.9160  -217.0170    75.5840     5.0070     5.6700     5.4300     2.1610 
   94.0000    93.7420     3.1900     1.9340  -216.9360    78.4320     4.9790     5.6360     5.2700     2.1760 
   94.1250    93.8640     3.2090     1.9520  -217.0090    77.9360     5.0140     5.6770     5.2850     2.1740 
   94.2500    93.9860     3.2290     1.9700  -217.2360    76.7040     5.1070     5.7860     5.4260     2.1610 
   94.3750    94.1090     3.2480     1.9890  -217.5870    76.4060     5.2490     5.9510     5.5680     2.1490 
   94.5000    94.2310     3.2670     2.0070  -217.9110    75.4840     5.4070     6.1350     5.8670     2.1480 
   94.6250    94.3530     3.2870     2.0260  -218.1590    73.5890     5.5360     6.2910     6.3590     2.1670 
