~V
VERS. 2.00: Ver 2.00
~W
STRT.M 50.0000:
STOP.M 286.0000:
STEP.M 0.1250:
NULL. -999.2500:
UWI. FD11181:
~C
DEPT.M :
TVD. :
DX. :
DY. :
SP.MV :
GR.API :
RI. :
RML.OHMM :
RXO.OHMM :
DEN.GM/CC :
~A
   50.0000    50.0000     0.0000     0.0000     4.9350    44.0760     0.0800     0.1760     2.3660     2.5760 
   50.1250    50.1250    -0.0020     0.0000     5.1130    42.1500     0.0800     0.1770     2.2040     2.5590 
   50.2500    50.2500    -0.0040     0.0000     5.3620    40.8680     0.0800     0.1800     2.2000     2.4800 
   50.3750    50.3750    -0.0060     0.0000     5.5610    42.0510     0.0800     0.1800     2.1090     2.4010 
   50.5000    50.5000    -0.0070     0.0000     5.6510    43.4850     0.0800     0.1800     2.1870     2.3580 
   50.6250    50.6250    -0.0090     0.0000     5.5030    43.5470     0.0800     0.1800     2.6010     2.3410 
   50.7500    50.7500    -0.0110     0.0000     5.4130    43.1300     0.0810     0.1800     3.0830     2.3260 
   50.8750    50.8750    -0.0130     0.0000     5.7610    44.3040     0.0830     0.1810     3.3310     2.3070 
   51.0000    51.0000    -0.0150     0.0000     6.5320    46.7340     0.0840     0.1810     3.1520     2.2940 
   51.1250    51.1250    -0.0170     0.0000     7.9530    47.3930     0.0840     0.1800     2.5850     2.2990 
   51.2500    51.2500    -0.0190     0.0000    10.1540    45.4660     0.0840     0.1780     2.2090     2.3140 
   51.3750    51.3750    -0.0210     0.0000    12.6870    42.6320     0.0830     0.1770     2.2030     2.3200 
   51.5000    51.5000    -0.0230     0.0000    14.6940    43.2650     0.0920     0.1770     2.2960     2.3060 
   51.6250    51.6250    -0.0250     0.0000    15.5530    46.2710     0.1030     0.1800     2.6250     2.2710 
   51.7500    51.7500    -0.0260     0.0000    15.4980    46.7880     0.1150     0.1840     3.0830     2.2330 
   51.8750    51.8750    -0.0280     0.0000    14.7650    43.2070     0.1130     0.1860     3.3640     2.2120 
   52.0000    52.0000    -0.0300     0.0010    13.7990    38.9890     0.1070     0.1880     3.7200     2.2150 
   52.1250    52.1250    -0.0320     0.0010    13.3170    37.2530     0.1080     0.1900     4.7270     2.2270 
   52.2500    52.2500    -0.0340     0.0010    13.5070    36.5740     0.1150     0.1910     5.1910     2.2280 
   52.3750    52.3750    -0.0360     0.0010    14.0950    35.6030     0.1280     0.1920     3.8740     2.2200 
   52.5000    52.5000    -0.0380     0.0010    14.6970    35.2040     0.1320     0.1920     2.9080     2.2070 
   52.6250    52.6250    -0.0400     0.0010    15.0260    35.2300     0.1330     0.1930     3.2480     2.1870 
   52.7500    52.7500    -0.0420     0.0020    15.1750    35.2890     0.1340     0.1980     3.2730     2.1650 
   52.8750    52.8750    -0.0440     0.0020    15.1650    35.1730     0.1400     0.2070     2.7440     2.1520 
   53.0000    53.0000    -0.0460     0.0020    14.6160    35.0860     0.1390     0.2140     2.5810     2.1490 
   53.1250    53.1250    -0.0480     0.0020    12.6900    35.2950     0.1380     0.2160     2.9690     2.1470 
   53.2500    53.2500    -0.0500     0.0020    10.1770    35.0050     0.1370     0.2100     3.4840     2.1460 
   53.3750    53.3750    -0.0520     0.0030     8.6650    34.3700     0.1320     0.1990     3.5780     2.1520 
   53.5000    53.5000    -0.0540     0.0030     7.6580    33.3690     0.1330     0.1880     3.1150     2.1610 
   53.6250    53.6250    -0.0560     0.0030     7.4490    32.3150     0.1330     0.1780     2.8730     2.1640 
   53.7500    53.7500    -0.0580     0.0030     7.8990    31.4220     0.1330     0.1700     3.7230     2.1590 
   53.8750    53.8750    -0.0600     0.0040     8.6400    31.0560     0.1340     0.1660     4.8540     2.1450 
   54.0000    54.0000    -0.0620     0.0040     9.4480    31.7050     0.1360     0.1630     5.0650     2.1250 
   54.1250    54.1250    -0.0640     0.0050    10.2470    33.0950     0.1380     0.1590     4.8230     2.1050 
   54.2500    54.2490    -0.0660     0.0050    10.8250    33.5400     0.1390     0.1540     4.7100     2.0940 
   54.3750    54.3740    -0.0680     0.0050    11.1980    33.5060     0.1530     0.1480     4.9100     2.0930 
   54.5000    54.4990    -0.0700     0.0060    11.5030    34.2990     0.1650     0.1410     5.3070     2.0970 
   54.6250    54.6240    -0.0720     0.0060    11.3010    35.4590     0.1770     0.1360     5.6420     2.1050 
   54.7500    54.7490    -0.0740     0.0070     9.7770    34.6200     0.1840     0.1330     6.3830     2.1150 
   54.8750    54.8740    -0.0760     0.0070     6.5240    32.7490     0.1840     0.1320     9.1400     2.1180 
   55.0000    54.9990    -0.0780     0.0080     3.2090    32.5370     0.1850     0.1310    11.5870     2.1130 
   55.1250    55.1240    -0.0800     0.0080     1.2660    32.7340     0.1850     0.1310    11.2690     2.1090 
   55.2500    55.2490    -0.0820     0.0090     0.5370    31.8300     0.1850     0.1310     9.8390     2.1130 
   55.3750    55.3740    -0.0840     0.0090     0.6900    31.7310     0.1830     0.1320     7.3810     2.1240 
   55.5000    55.4990    -0.0860     0.0100     1.3950    34.8410     0.1800     0.1330     6.0570     2.1310 
   55.6250    55.6240    -0.0880     0.0100     2.3510    38.9100     0.1700     0.1310     7.4600     2.1330 
   55.7500    55.7490    -0.0900     0.0110     3.1850    40.1140     0.1470     0.1230     8.8820     2.1360 
   55.8750    55.8740    -0.0920     0.0110    17.2620    37.8260     0.1120     0.1020     8.5870     2.1430 
   56.0000    55.9990    -0.0940     0.0120    31.0550    34.6430     0.0720     0.0730     7.5150     2.1430 
   56.1250    56.1240    -0.0960     0.0130    30.9660    33.7540     0.0470     0.0510     7.9060     2.1280 
   56.2500    56.2490    -0.0980     0.0130    30.0830    34.7690     0.0540     0.0540     9.4350     2.1140 
   56.3750    56.3740    -0.1000     0.0140    27.5910    36.1390     0.1290     0.1220     8.3070     2.1250 
   56.5000    56.4990    -0.1020     0.0140    23.3740    36.9260     0.3250     0.3140     4.9710     2.1450 
   56.6250    56.6240    -0.1040     0.0150    17.7600    37.9980     0.8260     0.8560     3.8770     2.1250 
   56.7500    56.7490    -0.1060     0.0160    10.9610    40.5850     1.8550     1.9190     4.6420     2.0770 
   56.8750    56.8740    -0.1080     0.0160     3.0740    44.2140     3.1430     3.2080     5.2890     2.0610 
   57.0000    56.9990    -0.1110     0.0170    -5.0640    48.8500     4.3110     4.2610     5.8580     2.0920 
   57.1250    57.1240    -0.1130     0.0180   -11.3920    54.0360     5.1100     4.7770     6.2970     2.1260 
   57.2500    57.2490    -0.1150     0.0180   -14.7370    59.0410     5.4140     4.8010     6.5010     2.1370 
   57.3750    57.3740    -0.1170     0.0190   -16.1180    62.9310     5.5960     4.7410     6.4290     2.1320 
   57.5000    57.4990    -0.1190     0.0190   -17.1130    63.0940     5.7610     4.8050     6.3100     2.1240 
   57.6250    57.6240    -0.1210     0.0200   -17.9430    59.8540     5.8740     4.9330     6.3190     2.1170 
   57.7500    57.7490    -0.1230     0.0210   -18.6210    56.5180     5.9570     5.0790     6.3170     2.1130 
   57.8750    57.8740    -0.1250     0.0210   -19.0760    56.1060     6.0400     5.2230     6.1690     2.1070 
   58.0000    57.9990    -0.1270     0.0220   -19.4230    58.4310     6.1130     5.3590     5.9840     2.0980 
   58.1250    58.1240    -0.1300     0.0230   -19.8190    59.3080     6.1780     5.4790     6.7530     2.0940 
   58.2500    58.2490    -0.1320     0.0230   -20.3110    58.1270     6.2090     5.5500     7.8160     2.0960 
   58.3750    58.3740    -0.1340     0.0240   -20.8410    57.3150     6.1640     5.5350     7.2200     2.0970 
   58.5000    58.4990    -0.1360     0.0250   -21.3400    58.7720     6.0400     5.4530     6.1650     2.0920 
   58.6250    58.6240    -0.1380     0.0250   -21.7810    60.8670     5.8810     5.3510     6.0000     2.0910 
   58.7500    58.7490    -0.1400     0.0260   -22.1230    60.1630     5.8100     5.3470     6.1290     2.0950 
   58.8750    58.8740    -0.1430     0.0270   -22.2950    58.6980     6.0340     5.6620     6.1960     2.1010 
   59.0000    58.9990    -0.1450     0.0270   -22.3590    59.7750     6.7050     6.3820     6.9250     2.1310 
