~V
VERS. 2.00: Ver 2.00
~W
STRT.M 44.0000:
STOP.M 275.0000:
STEP.M 0.1250:
NULL. -999.2500:
UWI. FD11190:
~C
DEPT.M :
TVD. :
DX. :
DY. :
SP.MV :
GR.API :
RI. :
RML.OHMM :
RXO.OHMM :
DEN.GM/CC :
~A
# ...
  244.7500   232.5210   -54.7290   -30.7140    -2.8480   113.8820     2.9420     3.5960     4.4390     2.3490 
  244.8750   232.6340   -54.7750   -30.7400    -2.8170   113.0480     2.9570     3.6210     4.8980     2.3480 
  245.0000   232.7470   -54.8210   -30.7670    -2.8780   111.0350     3.0010     3.6910     5.2060     2.3440 
  245.1250   232.8600   -54.8670   -30.7940    -3.1290   109.8080     3.1270     3.9160     5.5140     2.3400 
  245.2500   232.9740   -54.9130   -30.8200    -3.6650   110.5150     3.4460     4.3920     5.5480     2.3420 
  245.3750   233.0870   -54.9590   -30.8470    -4.4070   110.5910     4.0270     5.2670     7.2060     2.3520 
  245.5000   233.2000   -55.0050   -30.8740    -5.2620   104.7980     4.9310     6.5450    13.1990     2.3520 
  245.6250   233.3130   -55.0500   -30.9010    -6.3350    93.9970     6.2730     8.1210    19.3530     2.3270 
  245.7500   233.4260   -55.0960   -30.9280    -7.6900    81.9770     7.7820     9.6370    19.2080     2.2880 
  245.8750   233.5390   -55.1420   -30.9550    -9.2540    72.7520     9.0840    10.7010    15.0860     2.2560 
  246.0000   233.6520   -55.1880   -30.9820   -10.7750    70.2900     9.8910    11.2140    12.5510     2.2390 
  246.1250   233.7660   -55.2330   -31.0090   -12.1500    71.9390    10.1540    11.4170    12.1570     2.2330 
  246.2500   233.8790   -55.2790   -31.0360   -13.3520    71.4980    10.3330    11.7840    12.5380     2.2360 
  246.3750   233.9920   -55.3250   -31.0630   -14.2390    67.8040    10.9760    12.8340    13.6910     2.2510 
  246.5000   234.1050   -55.3710   -31.0900   -14.9290    65.8150    12.0990    14.5470    16.8390     2.2730 
  246.6250   234.2180   -55.4170   -31.1170   -15.4480    66.6250    13.6890    16.7430    22.3590     2.2800 
  246.7500   234.3310   -55.4620   -31.1440   -15.7560    67.9900    15.5140    18.9890    25.5720     2.2580 
  246.8750   234.4450   -55.5080   -31.1710   -15.8890    69.2210    17.5600    21.0040    23.1920     2.2150 
  247.0000   234.5580   -55.5540   -31.1970   -15.9670    70.2220    19.2120    22.5240    20.2200     2.1810 
  247.1250   234.6710   -55.6000   -31.2240   -16.1090    70.0890    20.2760    23.2870    20.1060     2.1710 
  247.2500   234.7840   -55.6450   -31.2510   -16.2650    68.7110    20.6960    23.3920    21.1390     2.1740 
  247.3750   234.8970   -55.6910   -31.2780   -16.4260    67.7100    20.3930    22.9160    21.4930     2.1790 
  247.5000   235.0110   -55.7370   -31.3050   -16.5740    66.8130    19.7920    22.0210    20.5220     2.1830 
  247.6250   235.1240   -55.7830   -31.3320   -16.6790    64.8300    18.8360    20.7860    18.7940     2.1840 
  247.7500   235.2370   -55.8280   -31.3580   -16.7360    62.2730    17.6990    19.4330    17.2720     2.1860 
  247.8750   235.3500   -55.8740   -31.3850   -16.6740    61.6280    16.6760    18.2390    16.4550     2.1960 
  248.0000   235.4630   -55.9200   -31.4120   -16.5060    63.0560    15.8510    17.3780    16.1910     2.2130 
  248.1250   235.5770   -55.9650   -31.4380   -16.2720    66.2960    15.3730    16.8590    15.8880     2.2340 
  248.2500   235.6900   -56.0110   -31.4650   -16.0920    69.8330    15.1640    16.4420    15.2010     2.2610 
  248.3750   235.8030   -56.0570   -31.4920   -16.0350    73.3480    14.8210    15.9380    14.4070     2.2860 
  248.5000   235.9160   -56.1030   -31.5180   -16.0070    75.4510    14.3320    15.3540    13.8290     2.2890 
  248.6250   236.0300   -56.1480   -31.5450   -15.9020    76.2760    13.8370    14.8880    13.0470     2.2650 
  248.7500   236.1430   -56.1940   -31.5720   -15.6580    76.6940    13.5280    14.6510    12.3080     2.2430 
  248.8750   236.2560   -56.2390   -31.5980   -15.3330    77.1980    13.5340    14.6400    14.5960     2.2400 
  249.0000   236.3700   -56.2850   -31.6250   -15.0650    75.8470    13.6120    14.6860    20.3470     2.2420 
  249.1250   236.4830   -56.3300   -31.6520   -14.9040    72.7940    13.6480    14.6530    22.9400     2.2310 
  249.2500   236.5960   -56.3760   -31.6790   -14.7490    69.7050    13.5870    14.4490    18.8070     2.2120 
  249.3750   236.7090   -56.4210   -31.7060   -14.6660    68.2790    13.3720    13.9910    13.8720     2.1970 
  249.5000   236.8230   -56.4660   -31.7340   -14.6510    67.3450    12.8650    13.3280    13.2140     2.1900 
  249.6250   236.9360   -56.5110   -31.7610   -14.6020    66.1420    12.1750    12.6110    14.4750     2.1880 
  249.7500   237.0490   -56.5570   -31.7880   -14.4950    67.1710    11.5170    12.0670    14.0140     2.1920 
  249.8750   237.1630   -56.6020   -31.8150   -14.3530    70.8900    11.1700    11.8920    12.3060     2.1960 
  250.0000   237.2760   -56.6470   -31.8430   -14.2140    74.3700    11.2280    12.1670    11.4580     2.2000 
  250.1250   237.3890   -56.6920   -31.8700   -14.0760    76.4900    11.7360    12.9420    12.3810     2.2040 
  250.2500   237.5020   -56.7370   -31.8980   -13.9800    77.7570    12.6850    14.1160    14.9840     2.2040 
  250.3750   237.6160   -56.7820   -31.9250   -13.8930    76.0180    13.9900    15.4870    17.5860     2.1910 
  250.5000   237.7290   -56.8270   -31.9530   -13.7420    70.1550    15.4880    16.7110    18.3140     2.1700 
  250.6250   237.8420   -56.8720   -31.9810   -13.5340    64.7130    16.5970    17.4720    18.2320     2.1560 
  250.7500   237.9560   -56.9180   -32.0080   -13.2640    63.9390    17.2310    17.6520    18.8130     2.1570 
  250.8750   238.0690   -56.9630   -32.0360   -12.9780    65.9670    17.2040    17.1550    19.2280     2.1650 
  251.0000   238.1820   -57.0080   -32.0630   -12.6780    67.6600    16.4560    16.1230    18.7790     2.1760 
  251.1250   238.2950   -57.0530   -32.0900   -12.3590    69.6130    15.1640    14.7640    17.8570     2.1880 
  251.2500   238.4090   -57.0980   -32.1170   -12.0300    72.6420    13.8080    13.3740    16.5850     2.2040 
  251.3750   238.5220   -57.1440   -32.1450   -11.6650    76.0340    12.4520    12.2010    14.3100     2.2260 
  251.5000   238.6350   -57.1890   -32.1720   -11.2530    78.6500    11.4670    11.3000    11.9790     2.2440 
  251.6250   238.7490   -57.2340   -32.1990   -10.5970    79.1310    10.7520    10.6590    11.1190     2.2420 
  251.7500   238.8620   -57.2800   -32.2260    -9.8430    76.5050    10.1420    10.1880    10.8780     2.2200 
  251.8750   238.9750   -57.3250   -32.2520    -9.1830    72.6790     9.7470     9.9230    10.6240     2.1960 
  252.0000   239.0890   -57.3710   -32.2790    -8.7980    72.0300     9.5880     9.9100    10.6190     2.1840 
  252.1250   239.2020   -57.4160   -32.3060    -8.7590    75.4550     9.7260    10.2630    10.6130     2.1860 
  252.2500   239.3150   -57.4610   -32.3330    -8.9710    78.5320    10.2180    11.0880    11.9280     2.1960 
  252.3750   239.4290   -57.5060   -32.3600    -9.4680    79.5400    11.3370    12.6400    21.3650     2.2060 
  252.5000   239.5420   -57.5520   -32.3870   -10.2060    78.7100    12.9760    14.5850    38.8860     2.2040 
  252.6250   239.6560   -57.5970   -32.4140   -11.1410    74.6310    14.8140    16.5680    45.1630     2.1860 
  252.7500   239.7690   -57.6420   -32.4410   -12.1620    69.5710    16.5310    18.1400    32.8070     2.1660 
  252.8750   239.8820   -57.6870   -32.4680   -13.0710    66.9360    17.7080    19.3240    20.5000     2.1570 
  253.0000   239.9960   -57.7320   -32.4950   -13.7730    66.5560    18.5720    20.4570    18.6280     2.1510 
  253.1250   240.1090   -57.7770   -32.5230   -14.3030    66.1240    19.6070    22.0350    22.3860     2.1380 
  253.2500   240.2220   -57.8220   -32.5500   -14.7220    65.5780    21.3510    24.2100    26.2180     2.1240 
  253.3750   240.3360   -57.8680   -32.5770   -15.0820    63.5950    23.5610    26.7310    27.5980     2.1120 
  253.5000   240.4490   -57.9130   -32.6040   -15.3900    59.1140    25.8350    29.0090    27.5530     2.1040 
  253.6250   240.5620   -57.9580   -32.6300   -15.6020    55.9030    27.5270    30.5320    27.3980     2.0970 
  253.7500   240.6760   -58.0040   -32.6570   -15.8040    57.5180    28.4650    31.1280    26.9540     2.0930 
