~V
VERS. 2.00: Ver 2.00
~W
STRT.M 20.0000:
STOP.M 286.0000:
STEP.M 0.1250:
NULL. -999.2500:
UWI. FD11156:
~C
DEPT.M :
TVD. :
DX. :
DY. :
DEN.GM/CC :
GR.API :
RML.OHMM :
RI. :
RXO.OHMM :
CALI.CM :
SP.MV :
~A
# ...
  135.5000   135.2440     0.9250    -4.2600     2.5130    54.3630    14.6410    12.3550    11.2360    22.6400    -7.8960 
  135.6250   135.3670     0.9310    -4.2780     2.4970    51.9550    14.9060    12.3760    11.2850    22.9760    -7.9690 
  135.7500   135.4910     0.9370    -4.2970     2.4860    50.9550    15.6660    12.8700    11.4430    23.1380    -8.0450 
  135.8750   135.6140     0.9420    -4.3150     2.4890    52.0390    16.7930    13.7500    12.3080    23.1580    -8.1440 
  136.0000   135.7380     0.9480    -4.3340     2.5100    53.3290    18.1190    14.8720    13.6350    23.1090    -8.2800 
  136.1250   135.8610     0.9540    -4.3520     2.5440    52.6230    19.3840    15.9860    15.4680    22.8340    -8.3930 
  136.2500   135.9850     0.9590    -4.3700     2.5730    51.1590    20.3280    16.7750    16.5580    22.4490    -8.4870 
  136.3750   136.1080     0.9650    -4.3890     2.5820    49.4500    20.7820    17.0240    17.2480    22.3490    -8.5910 
  136.5000   136.2320     0.9710    -4.4070     2.5640    50.1450    20.7080    16.7340    17.5180    22.5600    -8.7370 
  136.6250   136.3550     0.9760    -4.4260     2.5270    54.3930    20.1510    16.1130    16.8870    23.1310    -8.9260 
  136.7500   136.4790     0.9820    -4.4440     2.4900    58.2410    19.4150    15.5440    15.3820    23.2820    -9.1450 
  136.8750   136.6020     0.9880    -4.4630     2.4680    60.2810    18.7400    15.2090    13.8620    23.2680    -9.3830 
  137.0000   136.7260     0.9930    -4.4810     2.4640    61.9680    18.2860    15.1360    13.7360    23.2370    -9.6210 
  137.1250   136.8490     0.9990    -4.4990     2.4740    64.7650    18.1870    15.2620    15.5560    23.1620    -9.8860 
  137.2500   136.9730     1.0050    -4.5180     2.4820    69.4060    18.4950    15.4820    16.5900    23.0260   -10.1730 
  137.3750   137.0960     1.0110    -4.5360     2.4770    74.9640    19.3270    15.8500    16.4280    23.0910   -10.4410 
  137.5000   137.2200     1.0160    -4.5550     2.4590    77.4260    20.8060    16.5350    16.7480    23.4390   -10.6700 
  137.6250   137.3430     1.0220    -4.5730     2.4390    74.0060    23.1730    17.8640    18.5230    23.9000   -10.8510 
  137.7500   137.4670     1.0280    -4.5920     2.4320    72.0460    26.2640    19.8930    21.1890    23.9430   -11.0080 
  137.8750   137.5900     1.0330    -4.6100     2.4450    72.4420    29.7330    22.5240    25.3700    23.7880   -11.1380 
  138.0000   137.7140     1.0390    -4.6280     2.4740    71.2880    32.8680    25.3430    30.1330    23.4890   -11.2670 
  138.1250   137.8370     1.0450    -4.6470     2.5080    67.5900    34.5410    27.4520    32.5030    23.1120   -11.3460 
  138.2500   137.9610     1.0500    -4.6650     2.5320    65.9580    34.6020    28.3530    29.6140    22.8220   -11.4250 
  138.3750   138.0840     1.0560    -4.6840     2.5360    66.9620    33.4960    28.0990    28.0030    22.8600   -11.4720 
  138.5000   138.2080     1.0620    -4.7020     2.5200    67.6840    31.9610    27.1480    29.1970    23.3910   -11.5350 
  138.6250   138.3310     1.0670    -4.7210     2.4920    69.6640    30.5640    26.0340    29.1580    23.7790   -11.5800 
  138.7500   138.4550     1.0730    -4.7390     2.4640    71.1650    29.3480    25.0580    27.5260    23.8080   -11.5980 
  138.8750   138.5780     1.0790    -4.7570     2.4480    69.4270    28.1540    24.2090    24.0440    23.6380   -11.6070 
  139.0000   138.7020     1.0840    -4.7760     2.4470    64.8610    26.8750    23.3600    20.9530    23.2150   -11.5580 
  139.1250   138.8250     1.0900    -4.7940     2.4610    64.0130    25.5030    22.3430    20.1920    22.8170   -11.5280 
  139.2500   138.9490     1.0960    -4.8130     2.4780    67.6000    24.1830    21.1920    20.1620    22.4310   -11.4540 
  139.3750   139.0720     1.1020    -4.8310     2.4900    69.3070    23.1340    20.0780    19.2830    22.3160   -11.4080 
  139.5000   139.1960     1.1070    -4.8500     2.4960    67.8720    22.5640    19.2240    18.0960    22.3090   -11.3560 
  139.6250   139.3190     1.1130    -4.8680     2.4960    68.6280    22.6290    18.8610    18.1800    22.3830   -11.2920 
  139.7500   139.4430     1.1190    -4.8860     2.4980    71.9380    23.0710    18.9310    19.2870    22.5390   -11.2670 
  139.8750   139.5660     1.1240    -4.9050     2.5030    73.3630    23.6370    19.3220    21.7480    22.6030   -11.2290 
  140.0000   139.6900     1.1300    -4.9230     2.5120    71.4030    24.0730    19.8250    25.2080    22.5810   -11.2030 
  140.1250   139.8130     1.1360    -4.9420     2.5250    68.0910    24.2030    20.1400    25.0430    22.5160   -11.1720 
  140.2500   139.9370     1.1410    -4.9600     2.5400    66.5090    24.1450    20.1510    22.0110    22.5510   -11.1290 
  140.3750   140.0600     1.1470    -4.9790     2.5540    67.6510    23.9830    19.9040    19.7010    22.4530   -11.0630 
  140.5000   140.1840     1.1530    -4.9970     2.5640    70.7560    23.7460    19.5440    19.5000    22.3940   -11.0060 
  140.6250   140.3070     1.1580    -5.0150     2.5640    72.8110    23.4120    19.2240    20.7200    22.3810   -10.9180 
  140.7500   140.4310     1.1640    -5.0340     2.5560    71.7440    22.9530    18.9730    22.0980    22.4080   -10.7710 
  140.8750   140.5540     1.1700    -5.0520     2.5450    70.1620    22.3530    18.7120    23.0190    22.5450   -10.6240 
  141.0000   140.6780     1.1750    -5.0710     2.5350    69.5980    21.6610    18.3540    23.7360    22.7470   -10.4500 
  141.1250   140.8010     1.1810    -5.0890     2.5310    68.6840    21.0320    17.8960    23.3620    22.9090   -10.2620 
  141.2500   140.9250     1.1870    -5.1080     2.5330    68.2490    20.5670    17.4600    21.4750    22.9350   -10.0710 
  141.3750   141.0480     1.1920    -5.1260     2.5390    69.4130    20.2810    17.1360    19.5120    22.9400    -9.8670 
  141.5000   141.1720     1.1980    -5.1440     2.5470    72.3600    20.0660    16.8980    18.3090    22.9390    -9.6500 
  141.6250   141.2950     1.2040    -5.1630     2.5530    74.2310    19.5080    16.4510    18.1150    22.9250    -9.4620 
  141.7500   141.4190     1.2100    -5.1810     2.5500    74.0850    18.1830    15.4310    17.9810    22.8520    -9.3010 
  141.8750   141.5420     1.2150    -5.2000     2.5350    73.3860    15.9020    13.6630    17.4410    22.7150    -9.1320 
  142.0000   141.6660     1.2210    -5.2180     2.5040    73.2210    12.9300    11.3550    15.1590    22.7280    -9.0020 
  142.1250   141.7890     1.2270    -5.2370     2.4610    76.9360     9.9650     9.0590    11.5070    23.0230    -8.8670 
  142.2500   141.9130     1.2320    -5.2550     2.4160    80.1610     7.9260     7.2050     8.1640    23.0520    -8.7660 
  142.3750   142.0360     1.2380    -5.2730     2.3780    80.2670     6.5040     5.9130     6.3130    22.9640    -8.7020 
  142.5000   142.1600     1.2440    -5.2920     2.3520    80.2100     5.6470     5.1340     5.6920    22.8010    -8.6100 
  142.6250   142.2830     1.2490    -5.3100     2.3380    80.9910     5.2880     4.8070     5.6170    22.7990    -8.5190 
  142.7500   142.4070     1.2550    -5.3290     2.3330    80.1920     5.2140     4.7400     5.5750    22.9230    -8.4180 
  142.8750   142.5300     1.2610    -5.3470     2.3320    77.1020     5.3080     4.8250     5.4960    23.1450    -8.3170 
  143.0000   142.6540     1.2660    -5.3660     2.3360    74.5720     5.4750     4.9770     5.4580    23.3350    -8.2130 
  143.1250   142.7770     1.2740    -5.3860     2.3440    73.6060     5.6240     5.1130     5.5440    23.3790    -8.0920 
  143.2500   142.9000     1.2830    -5.4070     2.3520    73.4340     5.6980     5.1800     5.6570    23.3290    -7.9680 
  143.3750   143.0230     1.2910    -5.4280     2.3600    75.5970     5.6780     5.1610     5.6860    23.0860    -7.8440 
  143.5000   143.1460     1.2990    -5.4490     2.3660    79.2320     5.5750     5.0690     5.6590    22.8370    -7.7420 
  143.6250   143.2680     1.3070    -5.4700     2.3660    83.3940     5.4310     4.9380     5.5600    22.6030    -7.6620 
