~V
VERS. 2.00: Ver 2.00
~W
STRT.M 20.0000:
STOP.M 285.0000:
STEP.M 0.1250:
NULL. -999.2500:
UWI. FD11157:
~C
DEPT.M :
TVD. :
DX. :
DY. :
GR.API :
RML.OHMM :
RI. :
RXO.OHMM :
CALI.CM :
SP.MV :
DEN.GM/CC :
~A
# ...
  242.7500   237.4370   -15.9880   -36.2660    54.5160    19.8990    18.0900    10.1480    21.3500   -16.4230     2.1430 
  242.8750   237.5550   -16.0030   -36.3040    53.7260    21.2640    19.3310    10.4600    20.6170   -16.4310     2.1910 
  243.0000   237.6740   -16.0180   -36.3410    57.0670    22.9240    20.8400    11.2650    20.4480   -16.4380     2.2650 
  243.1250   237.7920   -16.0330   -36.3790    62.8930    24.7500    22.5000    12.9810    20.3340   -16.4690     2.3370 
  243.2500   237.9100   -16.0480   -36.4170    67.0300    26.5800    24.1630    14.8630    20.3210   -16.5300     2.3750 
  243.3750   238.0280   -16.0630   -36.4550    68.2800    28.3850    25.8050    15.2370    20.3780   -16.5730     2.3690 
  243.5000   238.1460   -16.0780   -36.4930    68.0310    30.1980    27.4530    15.7020    20.5680   -16.5980     2.3380 
  243.6250   238.2650   -16.0930   -36.5300    66.2840    32.0230    29.1120    18.7030    21.3760   -16.5770     2.3070 
  243.7500   238.3830   -16.1080   -36.5680    62.6940    33.7430    30.6760    23.5480    21.7180   -16.5620     2.2990 
  243.8750   238.5010   -16.1230   -36.6060    59.8920    35.1340    31.9400    28.2600    21.6030   -16.5150     2.3150 
  244.0000   238.6190   -16.1380   -36.6440    60.2160    35.9040    32.6400    29.3790    21.6990   -16.4340     2.3430 
  244.1250   238.7380   -16.1530   -36.6820    65.4330    35.6490    32.4080    28.9350    21.7030   -16.2980     2.3630 
  244.2500   238.8560   -16.1680   -36.7190    69.0900    34.4450    31.3140    27.7880    21.6580   -16.1440     2.3630 
  244.3750   238.9740   -16.1830   -36.7570    66.6920    32.3960    29.4510    26.4890    21.5020   -15.9810     2.3430 
  244.5000   239.0920   -16.1980   -36.7950    61.4960    29.7430    27.0390    24.9040    21.4460   -15.8120     2.3130 
  244.6250   239.2100   -16.2130   -36.8330    57.8820    26.9150    24.4680    23.9090    21.4920   -15.6610     2.2820 
  244.7500   239.3290   -16.2280   -36.8710    55.4120    24.4400    22.2180    21.3680    21.4980   -15.5290     2.2600 
  244.8750   239.4470   -16.2430   -36.9080    53.5100    22.6510    20.5920    17.7190    21.4860   -15.4140     2.2540 
  245.0000   239.5650   -16.2580   -36.9460    54.3390    21.7360    19.7600    15.1970    21.2910   -15.3310     2.2600 
  245.1250   239.6830   -16.2730   -36.9840    56.5850    21.8770    19.8880    15.2380    20.9610   -15.2680     2.2660 
  245.2500   239.8010   -16.2880   -37.0220    57.1420    22.7860    20.7150    16.9140    20.8880   -15.2090     2.2590 
  245.3750   239.9200   -16.3030   -37.0600    56.4150    24.1960    21.9970    18.8400    20.8850   -15.1540     2.2380 
  245.5000   240.0380   -16.3180   -37.0970    56.0910    25.6870    23.3520    20.1540    21.0330   -15.1120     2.2120 
  245.6250   240.1560   -16.3330   -37.1350    57.0080    26.6310    24.2100    18.6610    21.3200   -15.0610     2.1950 
  245.7500   240.2740   -16.3470   -37.1730    60.6730    26.7800    24.3450    16.1410    20.9740   -15.0110     2.1950 
  245.8750   240.3920   -16.3620   -37.2110    66.0680    26.2030    23.8210    14.4460    20.1880   -14.9660     2.2090 
  246.0000   240.5110   -16.3770   -37.2480    68.5250    25.1630    22.8750    13.7390    19.5300   -14.9110     2.2310 
  246.1250   240.6290   -16.3920   -37.2860    67.1540    23.9220    21.7470    13.6420    19.3050   -14.8650     2.2470 
  246.2500   240.7470   -16.4070   -37.3240    67.9270    22.6910    20.6280    13.9060    19.2500   -14.8110     2.2530 
  246.3750   240.8650   -16.4220   -37.3620    69.9650    21.5450    19.5870    14.4280    19.2710   -14.7930     2.2470 
  246.5000   240.9830   -16.4370   -37.4000    67.6480    20.5290    18.6630    14.7230    19.2760   -14.7840     2.2330 
  246.6250   241.1020   -16.4520   -37.4370    61.4810    19.7300    17.9370    14.2600    19.2780   -14.7880     2.2200 
  246.7500   241.2200   -16.4670   -37.4750    57.9330    19.1590    17.4170    13.7590    19.2730   -14.7810     2.2160 
  246.8750   241.3380   -16.4820   -37.5130    58.9600    18.8400    17.1280    13.6390    19.2320   -14.7640     2.2210 
  247.0000   241.4560   -16.4970   -37.5500    62.0250    18.8060    17.0960    13.7380    19.2140   -14.7660     2.2330 
  247.1250   241.5750   -16.5120   -37.5880    63.8690    19.1120    17.3750    13.8630    19.2100   -14.7740     2.2450 
  247.2500   241.6930   -16.5270   -37.6260    64.7780    19.6260    17.8410    14.2600    19.2100   -14.7820     2.2500 
  247.3750   241.8110   -16.5420   -37.6640    64.4490    20.1700    18.3370    15.0140    19.2110   -14.7670     2.2460 
  247.5000   241.9290   -16.5570   -37.7020    62.6090    20.5780    18.7070    15.9750    19.2160   -14.7480     2.2350 
  247.6250   242.0470   -16.5720   -37.7400    61.1150    20.7610    18.8730    16.7500    19.2390   -14.7380     2.2240 
  247.7500   242.1660   -16.5870   -37.7780    61.0390    20.8530    18.9580    16.9060    19.2380   -14.7210     2.2190 
  247.8750   242.2840   -16.6010   -37.8160    60.9760    20.9930    19.0850    16.4750    19.2150   -14.7140     2.2220 
  248.0000   242.4020   -16.6160   -37.8530    57.9760    21.2820    19.3470    15.7660    19.2100   -14.7000     2.2310 
  248.1250   242.5200   -16.6310   -37.8910    56.1840    21.8100    19.8270    15.3360    19.2100   -14.6840     2.2360 
  248.2500   242.6380   -16.6460   -37.9290    57.9150    22.5250    20.4770    15.6750    19.2120   -14.6670     2.2320 
  248.3750   242.7560   -16.6610   -37.9670    58.4530    23.3090    21.1900    17.2490    19.2150   -14.6600     2.2220 
  248.5000   242.8750   -16.6760   -38.0050    57.0760    23.9150    21.7410    18.7250    19.2460   -14.6460     2.2110 
  248.6250   242.9930   -16.6910   -38.0430    57.7950    23.8870    21.7160    19.0170    19.2030   -14.6400     2.2050 
  248.7500   243.1110   -16.7060   -38.0810    60.2270    23.1560    21.0510    18.4900    19.1590   -14.6470     2.2060 
  248.8750   243.2290   -16.7210   -38.1190    59.7480    21.9520    19.9570    16.9460    19.1260   -14.6570     2.2170 
  249.0000   243.3470   -16.7360   -38.1570    56.3110    20.6830    18.8030    15.0440    19.1130   -14.6530     2.2340 
  249.1250   243.4650   -16.7510   -38.1950    53.8940    19.7260    17.9320    13.5540    19.0700   -14.6440     2.2500 
  249.2500   243.5830   -16.7660   -38.2330    54.1860    19.1200    17.3820    12.6610    19.0640   -14.6260     2.2590 
  249.3750   243.7020   -16.7810   -38.2710    57.1660    18.7960    17.0880    12.9320    19.1300   -14.6120     2.2600 
  249.5000   243.8200   -16.7960   -38.3090    59.9000    18.6160    16.9230    13.8060    19.2540   -14.6230     2.2570 
  249.6250   243.9380   -16.8110   -38.3470    58.7890    18.4120    16.7390    14.1560    19.3350   -14.6230     2.2560 
  249.7500   244.0560   -16.8260   -38.3850    55.3670    18.0750    16.4310    13.4760    19.6000   -14.6300     2.2590 
  249.8750   244.1740   -16.8410   -38.4230    53.3470    17.6120    16.0110    12.6420    19.8700   -14.6410     2.2640 
  250.0000   244.2920   -16.8560   -38.4610    55.0550    17.1280    15.5710    11.9480    20.0380   -14.6610     2.2690 
  250.1250   244.4100   -16.8710   -38.4990    58.9190    16.8720    15.3380    11.3480    19.2350   -14.6870     2.2690 
  250.2500   244.5290   -16.8860   -38.5370    61.1800    17.0300    15.4820    11.0920    18.8150   -14.7310     2.2620 
  250.3750   244.6470   -16.9010   -38.5750    59.9160    17.6450    16.0410    11.7210    18.7060   -14.7620     2.2480 
  250.5000   244.7650   -16.9160   -38.6130    57.4360    18.5600    16.8720    12.3700    18.6820   -14.7590     2.2280 
  250.6250   244.8830   -16.9310   -38.6510    57.3540    19.4160    17.6510    12.9430    18.6730   -14.7550     2.2080 
  250.7500   245.0010   -16.9460   -38.6890    58.7300    19.9260    18.1150    13.3490    18.8130   -14.7690     2.1920 
  250.8750   245.1190   -16.9610   -38.7270    59.5190    20.0330    18.2120    13.6060    19.0990   -14.7960     2.1860 
