~V
VERS. 2.00: Ver 2.00
~W
STRT.M 11.0000:
STOP.M 273.0000:
STEP.M 0.1250:
NULL. -999.2500:
UWI. FD11023:
~C
DEPT.M :
TVD. :
DX. :
DY. :
GR.API :
RML.OHMM :
RI. :
RXO.OHMM :
CALI.CM :
DEN.GM/CC :
SP.MV :
~A
# ...
   68.7500    68.7490    -0.2610    -0.1400    46.6390     9.9800     7.7780     7.8140    25.8420     2.1390   -30.2140 
   68.8750    68.8740    -0.2630    -0.1400    48.8900     9.9230     7.7570     7.7930    25.7380     2.1450   -30.2320 
   69.0000    68.9990    -0.2640    -0.1410    51.7520     9.8590     7.7130     7.7720    25.7300     2.1430   -30.2530 
   69.1250    69.1240    -0.2660    -0.1420    52.5500     9.7650     7.6290     7.7360    25.8630     2.1330   -30.2680 
   69.2500    69.2490    -0.2680    -0.1420    51.8690     9.6280     7.5060     7.6950    26.0060     2.1280   -30.2640 
   69.3750    69.3740    -0.2690    -0.1430    50.8700     9.4600     7.3540     7.6570    26.0550     2.1390   -30.2460 
   69.5000    69.4990    -0.2710    -0.1440    50.3760     9.2950     7.2000     7.6040    25.9460     2.1670   -30.2360 
   69.6250    69.6240    -0.2730    -0.1440    53.1620     9.1890     7.0870     7.6040    25.6720     2.1930   -30.2440 
   69.7500    69.7490    -0.2740    -0.1450    57.8110     9.1780     7.0430     7.5980    25.4450     2.1990   -30.3010 
   69.8750    69.8740    -0.2760    -0.1460    59.5590     9.3030     7.0980     7.5830    25.4000     2.1880   -30.4320 
   70.0000    69.9990    -0.2780    -0.1470    57.4620     9.6310     7.2920     7.8580    25.4250     2.1840   -30.6320 
   70.1250    70.1240    -0.2790    -0.1470    55.0530    10.3260     7.7330     8.2910    25.3680     2.2140   -30.8960 
   70.2500    70.2490    -0.2810    -0.1480    53.2860    11.4250     8.4590     9.1840    25.2100     2.2700   -31.1630 
   70.3750    70.3740    -0.2830    -0.1490    50.8100    12.8900     9.4720    10.7520    25.0350     2.3380   -31.3970 
   70.5000    70.4990    -0.2840    -0.1490    47.4830    14.4900    10.6550    11.6160    24.9370     2.3950   -31.5890 
   70.6250    70.6240    -0.2860    -0.1500    46.5020    15.6930    11.6760    12.2660    24.9160     2.3920   -31.7280 
   70.7500    70.7490    -0.2880    -0.1510    47.9500    16.0540    12.1760    12.4840    24.9280     2.3120   -31.8540 
   70.8750    70.8740    -0.2890    -0.1510    50.7850    15.3590    11.9300    11.7910    24.9620     2.1940   -31.9730 
   71.0000    70.9990    -0.2910    -0.1520    54.5450    13.7880    10.9790    10.6290    25.0110     2.1040   -32.0680 
   71.1250    71.1240    -0.2930    -0.1530    58.1180    11.9210     9.6670     9.6420    25.0570     2.0780   -32.1450 
   71.2500    71.2490    -0.2940    -0.1540    59.8850    10.4180     8.4960     8.4300    25.1260     2.0840   -32.1990 
   71.3750    71.3740    -0.2960    -0.1540    58.3910     9.5040     7.6740     7.8440    25.2100     2.0920   -32.2350 
   71.5000    71.4990    -0.2980    -0.1550    54.1720     9.1330     7.2230     7.6090    25.2740     2.0840   -32.2690 
   71.6250    71.6240    -0.2990    -0.1560    50.5820     9.1500     7.0950     7.4130    25.3030     2.0690   -32.2960 
   71.7500    71.7490    -0.3010    -0.1560    50.1180     9.2800     7.1120     7.2290    25.3230     2.0610   -32.3120 
   71.8750    71.8740    -0.3030    -0.1570    52.5130     9.3960     7.1770     7.2090    25.3420     2.0640   -32.3130 
   72.0000    71.9990    -0.3040    -0.1580    55.0560     9.4450     7.2290     7.1520    25.3500     2.0720   -32.3080 
   72.1250    72.1230    -0.3060    -0.1580    54.2260     9.4320     7.2460     7.2120    25.3330     2.0790   -32.3010 
   72.2500    72.2480    -0.3080    -0.1590    51.8640     9.4050     7.2430     7.1680    25.2930     2.0830   -32.3050 
   72.3750    72.3730    -0.3090    -0.1600    50.2660     9.3850     7.2270     7.1320    25.2540     2.0850   -32.3340 
   72.5000    72.4980    -0.3110    -0.1600    49.7520     9.3790     7.2010     7.0970    25.2360     2.0840   -32.3920 
   72.6250    72.6230    -0.3130    -0.1610    49.3600     9.3790     7.1630     7.0470    25.2370     2.0810   -32.4640 
   72.7500    72.7480    -0.3140    -0.1620    48.3520     9.3690     7.1130     6.9860    25.2540     2.0770   -32.5130 
   72.8750    72.8730    -0.3160    -0.1630    47.2930     9.3420     7.0520     6.9370    25.3050     2.0710   -32.5060 
   73.0000    72.9980    -0.3180    -0.1630    47.2970     9.3040     6.9870     6.9170    25.3980     2.0650   -32.4180 
   73.1250    73.1230    -0.3190    -0.1640    48.8080     9.2750     6.9320     6.9010    25.4450     2.0640   -32.2670 
   73.2500    73.2480    -0.3210    -0.1650    50.4720     9.2710     6.8930     6.8840    25.4600     2.0680   -32.1070 
   73.3750    73.3730    -0.3230    -0.1650    50.1310     9.2980     6.8740     6.8670    25.4600     2.0740   -31.9590 
   73.5000    73.4980    -0.3240    -0.1660    47.5200     9.3480     6.8690     6.8500    25.4610     2.0830   -31.8500 
   73.6250    73.6230    -0.3260    -0.1670    44.1610     9.4000     6.8680     6.8370    25.4780     2.0910   -31.7740 
   73.7500    73.7480    -0.3280    -0.1670    43.0760     9.4260     6.8570     6.8290    25.5230     2.1020   -31.6860 
   73.8750    73.8730    -0.3290    -0.1680    45.4730     9.4070     6.8250     6.8290    25.5820     2.1170   -31.5730 
   74.0000    73.9980    -0.3310    -0.1690    47.5020     9.3390     6.7690     6.8290    25.6280     2.1320   -31.4110 
   74.1250    74.1230    -0.3330    -0.1700    45.8010     9.2310     6.6930     6.8420    25.6640     2.1360   -31.2040 
   74.2500    74.2480    -0.3340    -0.1700    44.3660     9.1200     6.6160     6.8660    25.7000     2.1230   -30.9880 
   74.3750    74.3730    -0.3360    -0.1710    44.9010     9.0290     6.5510     6.9060    25.7560     2.0990   -30.7710 
   74.5000    74.4980    -0.3380    -0.1720    46.0420     8.9760     6.5050     6.9780    25.8200     2.0810   -30.5680 
   74.6250    74.6230    -0.3390    -0.1720    47.7360     8.9650     6.4790     7.0120    25.8900     2.0810   -30.3880 
   74.7500    74.7480    -0.3410    -0.1730    50.4140     8.9710     6.4630     7.0580    25.9700     2.0950   -30.2190 
   74.8750    74.8730    -0.3430    -0.1740    51.5110     8.9770     6.4490     7.0800    26.0290     2.1090   -30.0560 
   75.0000    74.9980    -0.3440    -0.1740    50.3120     8.9770     6.4350     7.1070    26.0630     2.1200   -29.8910 
   75.1250    75.1230    -0.3460    -0.1750    52.0320     8.9770     6.4230     7.1510    26.1190     2.1310   -29.7230 
   75.2500    75.2480    -0.3480    -0.1760    54.9980     8.9950     6.4200     7.1510    26.2100     2.1460   -29.5680 
   75.3750    75.3730    -0.3490    -0.1760    54.2480     9.0410     6.4300     7.1500    26.2860     2.1610   -29.4270 
   75.5000    75.4980    -0.3510    -0.1770    51.5480     9.1090     6.4530     7.1470    26.3190     2.1710   -29.3100 
   75.6250    75.6230    -0.3530    -0.1780    51.5550     9.1770     6.4820     7.1390    26.3220     2.1690   -29.2190 
   75.7500    75.7480    -0.3540    -0.1790    53.3570     9.2170     6.5040     7.1260    26.3250     2.1560   -29.1300 
   75.8750    75.8730    -0.3560    -0.1790    53.5330     9.2110     6.5100     7.1090    26.3420     2.1330   -29.0380 
   76.0000    75.9980    -0.3580    -0.1800    52.6750     9.1550     6.4960     7.0910    26.3910     2.1080   -28.9290 
   76.1250    76.1230    -0.3590    -0.1810    51.9240     9.0570     6.4600     7.0710    26.4740     2.0900   -28.7800 
   76.2500    76.2480    -0.3610    -0.1810    49.2990     8.9470     6.4130     7.0420    26.5810     2.0820   -28.6150 
   76.3750    76.3730    -0.3630    -0.1820    45.2520     8.8420     6.3590     6.9990    26.6850     2.0840   -28.4380 
   76.5000    76.4980    -0.3640    -0.1830    42.9910     8.7460     6.3010     6.9560    26.7420     2.0960   -28.2640 
   76.6250    76.6230    -0.3660    -0.1830    45.2980     8.6540     6.2370     6.8610    26.7560     2.1090   -28.0930 
   76.7500    76.7480    -0.3680    -0.1840    47.4170     8.5560     6.1690     6.7830    26.7560     2.1110   -27.9020 
   76.8750    76.8730    -0.3690    -0.1850    46.8390     8.4530     6.1000     6.6830    26.7560     2.1040   -27.6830 
