~V
VERS. 2.00: Ver 2.00
~W
STRT.M 50.0000:
STOP.M 286.0000:
STEP.M 0.1250:
NULL. -999.2500:
UWI. FD11181:
~C
DEPT.M :
TVD. :
DX. :
DY. :
SP.MV :
GR.API :
RI. :
RML.OHMM :
RXO.OHMM :
DEN.GM/CC :
~A
# ...
   77.3750    77.3670    -0.6070     0.1830   -20.3510    67.0220     5.6170     6.1490     5.8420     2.1490 
   77.5000    77.4920    -0.6110     0.1840   -20.4790    65.0820     5.6770     6.2100     5.8760     2.1550 
   77.6250    77.6170    -0.6160     0.1860   -20.4510    62.9330     5.7540     6.3080     6.4340     2.1510 
   77.7500    77.7420    -0.6200     0.1880   -20.1800    62.2400     5.7960     6.3550     6.7850     2.1480 
   77.8750    77.8670    -0.6250     0.1890   -19.8160    64.1410     5.6810     6.2240     6.7900     2.1550 
   78.0000    77.9920    -0.6300     0.1910   -19.4800    65.4190     5.3880     5.8780     6.3470     2.1750 
   78.1250    78.1160    -0.6340     0.1930   -19.1470    67.3750     4.9420     5.4100     5.4880     2.2040 
   78.2500    78.2410    -0.6390     0.1950   -18.6620    71.8670     4.6130     5.0710     4.7280     2.2310 
   78.3750    78.3660    -0.6440     0.1960   -17.8310    77.0560     4.5330     5.0460     4.4580     2.2450 
   78.5000    78.4910    -0.6480     0.1980   -16.8470    79.6270     4.6970     5.3230     4.9040     2.2370 
   78.6250    78.6160    -0.6530     0.2000   -16.2220    76.8070     5.0560     5.8280     5.6860     2.2030 
   78.7500    78.7410    -0.6580     0.2010   -16.3680    70.9670     5.4350     6.2940     6.1330     2.1620 
   78.8750    78.8660    -0.6630     0.2030   -17.2060    64.7380     5.5800     6.4620     7.0880     2.1340 
   79.0000    78.9910    -0.6670     0.2050   -18.1980    59.3000     5.5610     6.3640     8.4370     2.1230 
   79.1250    79.1160    -0.6720     0.2070   -18.8280    54.8460     5.4790     6.2210     8.0670     2.1240 
   79.2500    79.2400    -0.6770     0.2080   -19.0480    51.9420     5.7160     6.5030     6.6880     2.1360 
   79.3750    79.3650    -0.6820     0.2100   -18.9420    50.0880     6.7510     7.8180     7.5840     2.1860 
   79.5000    79.4900    -0.6870     0.2120   -18.6200    50.0960     9.0140    10.4260    13.3890     2.2930 
   79.6250    79.6150    -0.6920     0.2140   -18.1210    52.6570    12.1150    13.7870    27.7940     2.4440 
   79.7500    79.7400    -0.6970     0.2160   -17.4760    56.6780    14.4960    16.3690    47.0260     2.5710 
   79.8750    79.8650    -0.7010     0.2170   -16.7770    58.2770    15.0750    16.7290    52.9890     2.6020 
   80.0000    79.9900    -0.7060     0.2190   -16.2410    58.4870    13.3340    14.7570    36.8140     2.5210 
   80.1250    80.1150    -0.7110     0.2210   -16.2030    58.3470    10.3940    11.5380    15.9490     2.3680 
   80.2500    80.2400    -0.7160     0.2230   -16.5790    55.1290     7.7760     8.6850     7.3720     2.2250 
   80.3750    80.3650    -0.7210     0.2250   -17.1990    54.0990     6.2630     7.0220     6.5700     2.1470 
   80.5000    80.4890    -0.7260     0.2270   -17.8490    58.0990     5.6600     6.4400     6.3050     2.1220 
   80.6250    80.6140    -0.7310     0.2290   -18.3370    62.4000     5.7210     6.5800     6.2050     2.1210 
   80.7500    80.7390    -0.7360     0.2310   -18.6080    60.8930     6.0730     7.0110     6.2630     2.1260 
   80.8750    80.8640    -0.7410     0.2330   -18.7920    56.3160     6.5310     7.5160     6.5780     2.1450 
   81.0000    80.9890    -0.7460     0.2350   -18.9220    54.1550     6.9440     7.9450     7.1270     2.1760 
   81.1250    81.1140    -0.7520     0.2370   -18.9690    52.7970     7.2420     8.2030     7.4390     2.2030 
   81.2500    81.2390    -0.7570     0.2390   -18.8870    49.7390     7.3520     8.2560     7.1720     2.2100 
   81.3750    81.3640    -0.7620     0.2420   -18.6260    48.9680     7.2790     8.1150     6.6860     2.1950 
   81.5000    81.4880    -0.7670     0.2440   -18.3070    51.9590     7.1050     7.8780     6.6470     2.1680 
   81.6250    81.6130    -0.7720     0.2460   -18.0870    54.8340     6.8900     7.6280     7.4110     2.1400 
   81.7500    81.7380    -0.7780     0.2480   -17.9630    53.8160     6.6890     7.4040     7.9150     2.1210 
   81.8750    81.8630    -0.7830     0.2500   -17.8520    52.3980     6.4950     7.2060     7.2960     2.1170 
   82.0000    81.9880    -0.7890     0.2530   -17.6810    54.7290     6.3250     7.0340     6.7930     2.1190 
   82.1250    82.1130    -0.7940     0.2550   -17.4990    57.8900     6.2170     6.9110     6.8400     2.1150 
   82.2500    82.2380    -0.7990     0.2570   -17.3340    58.5470     6.1610     6.8590     6.7770     2.1090 
   82.3750    82.3620    -0.8050     0.2600   -17.2370    57.5330     6.2120     6.9190     6.5170     2.1070 
   82.5000    82.4870    -0.8100     0.2620   -17.2280    56.4450     6.3220     7.0550     6.2190     2.1090 
   82.6250    82.6120    -0.8160     0.2640   -17.1630    55.3470     6.4390     7.1970     6.2420     2.1180 
   82.7500    82.7370    -0.8220     0.2670   -16.9860    55.6250     6.5430     7.3040     6.8310     2.1420 
   82.8750    82.8620    -0.8270     0.2690   -16.7230    59.7520     6.5760     7.3360     7.3940     2.1710 
   83.0000    82.9870    -0.8330     0.2720   -16.4020    63.9450     6.5480     7.2540     7.2370     2.1790 
   83.1250    83.1120    -0.8390     0.2740   -16.0050    64.3510     6.3670     7.0150     6.7980     2.1550 
   83.2500    83.2360    -0.8450     0.2770   -15.6110    61.6060     6.0240     6.6210     6.6120     2.1310 
   83.3750    83.3610    -0.8510     0.2790   -15.0730    59.9390     5.5780     6.1170     6.3940     2.1420 
   83.5000    83.4860    -0.8570     0.2820   -14.3930    60.5990     5.1150     5.6210     5.8790     2.1840 
   83.6250    83.6110    -0.8630     0.2840   -13.6680    64.2010     4.7260     5.2050     5.4560     2.2280 
   83.7500    83.7360    -0.8680     0.2870   -13.0690    69.3660     4.4420     4.9040     5.3120     2.2530 
   83.8750    83.8610    -0.8750     0.2890   -12.6920    74.6140     4.3060     4.7840     5.2990     2.2570 
   84.0000    83.9850    -0.8810     0.2920   -12.3700    78.4790     4.3870     4.8890     5.3880     2.2520 
   84.1250    84.1100    -0.8870     0.2940   -12.0840    79.8070     4.6920     5.2140     5.4610     2.2420 
   84.2500    84.2350    -0.8930     0.2970   -12.0360    79.1320     5.1020     5.6330     5.7120     2.2180 
   84.3750    84.3600    -0.8990     0.2990   -12.4210    75.6430     5.5380     6.0380     6.1780     2.1770 
   84.5000    84.4850    -0.9050     0.3020   -13.0660    68.7590     5.8870     6.3400     6.2670     2.1360 
   84.6250    84.6090    -0.9110     0.3050   -13.7980    61.6180     6.1030     6.5090     5.9730     2.1190 
   84.7500    84.7340    -0.9180     0.3070   -14.6350    58.2910     6.2190     6.6020     5.8360     2.1230 
   84.8750    84.8590    -0.9240     0.3100   -15.5090    58.4840     6.2770     6.6780     5.9860     2.1340 
   85.0000    84.9840    -0.9300     0.3130   -16.2520    59.1600     6.3440     6.8030     6.2980     2.1350 
   85.1250    85.1090    -0.9370     0.3150   -16.6800    58.6420     6.4620     6.9790     6.6040     2.1230 
   85.2500    85.2340    -0.9430     0.3180   -16.8170    57.3480     6.5450     7.1150     6.8190     2.1110 
   85.3750    85.3580    -0.9500     0.3200   -16.8230    54.7070     6.5160     7.1160     6.8110     2.1080 
   85.5000    85.4830    -0.9560     0.3230   -16.8130    52.2910     6.3520     6.9590     6.4740     2.1130 
   85.6250    85.6080    -0.9630     0.3260   -16.7780    51.7550     6.0730     6.6520     6.1360     2.1170 
   85.7500    85.7330    -0.9700     0.3280   -16.6280    52.1480     5.7920     6.3440     6.3780     2.1100 
   85.8750    85.8570    -0.9770     0.3310   -16.3130    52.9710     5.7750     6.3890     7.6390     2.0970 
   86.0000    85.9820    -0.9830     0.3330   -15.9390    54.3900     6.3900     7.1520     8.6230     2.1060 
   86.1250    86.1070    -0.9900     0.3360   -15.7300    57.4320     7.7900     8.9120    10.1320     2.1800 
   86.2500    86.2320    -0.9970     0.3390   -15.6360    60.1100     9.8170    11.4840    32.9860     2.3130 
   86.3750    86.3570    -1.0040     0.3410   -15.5190    59.6130    11.6790    13.9540    77.9320     2.4250 
