~V
VERS. 2.00: Ver 2.00
~W
STRT.M 10.0000:
STOP.M 249.0000:
STEP.M 0.1250:
NULL. -999.2500:
UWI. FD11114:
~C
DEPT.M :
TVD. :
DX. :
DY. :
GR.API :
RML.OHMM :
RI. :
RXO.OHMM :
CALI.CM :
SP.MV :
DEN.GM/CC :
~A
# ...
   59.5000    59.5000     0.0360     0.1030    59.1730     9.4440     7.3030     7.5930    27.1620   -34.4870     2.1780 
   59.6250    59.6250     0.0360     0.1030    63.0220     8.2280     6.2000     7.4910    27.3210   -34.6190     2.1290 
   59.7500    59.7500     0.0360     0.1040    69.1090     7.6870     5.6850     7.5900    27.3410   -34.6110     2.1070 
   59.8750    59.8750     0.0370     0.1040    71.9170     7.4690     5.4990     7.5200    27.3390   -34.5090     2.0930 
   60.0000    60.0000     0.0370     0.1050    69.7370     7.4570     5.4980     7.3120    27.2890   -34.3300     2.0840 
   60.1250    60.1250     0.0370     0.1050    66.3010     7.6040     5.5740     6.9760    27.1000   -34.0810     2.0910 
   60.2500    60.2500     0.0370     0.1060    65.5200     7.9030     5.6660     7.0220    26.7940   -33.7690     2.1180 
   60.3750    60.3750     0.0370     0.1060    64.8920     8.7260     5.7500     7.2550    26.5570   -33.4290     2.1490 
   60.5000    60.5000     0.0380     0.1070    63.9750     9.5180     5.8110     7.4940    26.4670   -33.0880     2.1730 
   60.6250    60.6250     0.0380     0.1070    64.3340     9.6970     5.8320     7.6540    26.4670   -32.7560     2.1870 
   60.7500    60.7500     0.0380     0.1080    67.2830     9.6470     5.7960     7.7100    26.4710   -32.4270     2.1980 
   60.8750    60.8750     0.0380     0.1080    70.4830     9.4840     5.7320     7.7050    26.4740   -32.0890     2.2140 
   61.0000    61.0000     0.0390     0.1090    71.1300     9.3470     5.6820     7.6770    26.5310   -31.7350     2.2340 
   61.1250    61.1250     0.0390     0.1090    68.5800     9.3840     5.7010     7.6940    26.7250   -31.3380     2.2380 
   61.2500    61.2500     0.0390     0.1100    64.3890     9.7490     5.8570     7.7160    27.0270   -30.8390     2.1920 
   61.3750    61.3750     0.0390     0.1100    60.8740    10.3880     6.1490     7.8310    27.2400   -30.2150     2.1100 
   61.5000    61.5000     0.0400     0.1110    59.4690    11.1470     6.5310     8.3500    27.2910   -29.4500     2.0180 
   61.6250    61.6250     0.0400     0.1120    60.0480    11.7230     6.8860    10.3000    27.2380   -28.5420     1.9470 
   61.7500    61.7500     0.0400     0.1120    61.8900    11.6530     6.9970    11.6910    27.0920   -27.4940     1.9280 
   61.8750    61.8750     0.0410     0.1130    66.0750    10.9270     6.7870    12.0040    26.8560   -26.3770     1.9610 
   62.0000    62.0000     0.0410     0.1130    71.5190     9.7900     6.3000     9.7270    26.6170   -25.2540     2.0280 
   62.1250    62.1250     0.0410     0.1140    76.5820     8.6340     5.6880     6.9780    26.4700   -24.2090     2.0970 
   62.2500    62.2500     0.0410     0.1140    81.3160     7.8460     5.1570     5.2280    26.3790   -23.3260     2.1480 
   62.3750    62.3750     0.0420     0.1150    85.9780     7.4690     4.8110     4.7860    26.2740   -22.6130     2.1850 
   62.5000    62.5000     0.0420     0.1150    89.0550     7.4230     4.6700     4.9170    26.1780   -22.0750     2.2120 
   62.6250    62.6250     0.0420     0.1160    89.4900     7.5510     4.7100     5.1000    26.1230   -21.6880     2.2270 
   62.7500    62.7500     0.0420     0.1170    88.1280     7.6550     4.8910     5.2340    26.1060   -21.4260     2.2320 
   62.8750    62.8750     0.0430     0.1170    85.6820     7.6020     5.1130     5.3370    26.0990   -21.2180     2.2320 
   63.0000    63.0000     0.0430     0.1180    82.9990     7.3870     5.3070     5.4310    26.0870   -21.0310     2.2320 
   63.1250    63.1250     0.0430     0.1180    82.4150     7.0910     5.4260     5.5060    26.0190   -20.8390     2.2330 
   63.2500    63.2500     0.0440     0.1190    82.9110     6.8080     5.4340     5.3610    25.8750   -20.6450     2.2350 
   63.3750    63.3750     0.0440     0.1190    84.3760     6.5590     5.3570     5.1660    25.7380   -20.4630     2.2350 
   63.5000    63.5000     0.0440     0.1200    88.5840     6.3280     5.2320     5.0980    25.6700   -20.2980     2.2320 
   63.6250    63.6250     0.0440     0.1200    93.6700     6.1190     5.0960     5.0610    25.6630   -20.1870     2.2270 
   63.7500    63.7500     0.0450     0.1210    94.2380     6.0010     4.9810     4.9020    25.7010   -20.1780     2.2220 
   63.8750    63.8750     0.0450     0.1210    90.7040     6.0190     4.8890     4.6740    25.7930   -20.2740     2.2190 
   64.0000    64.0000     0.0450     0.1220    87.2500     6.1580     4.8200     4.5830    25.9120   -20.4710     2.2210 
   64.1250    64.1250     0.0450     0.1230    86.4790     6.3300     4.7710     4.6430    25.9950   -20.7630     2.2280 
   64.2500    64.2500     0.0460     0.1230    84.9800     6.4070     4.7360     4.6880    26.0090   -21.1730     2.2380 
   64.3750    64.3750     0.0460     0.1240    82.1440     6.3510     4.7030     4.6550    26.0040   -21.6740     2.2470 
   64.5000    64.5000     0.0460     0.1240    81.9030     6.2030     4.6650     4.6930    26.0040   -22.2650     2.2550 
   64.6250    64.6250     0.0470     0.1250    85.3330     6.0400     4.6270     4.8200    26.0050   -22.9360     2.2600 
   64.7500    64.7500     0.0470     0.1250    85.8250     5.9520     4.6220     4.8960    26.0020   -23.6820     2.2560 
   64.8750    64.8750     0.0470     0.1260    82.1570     5.9820     4.6910     4.9500    25.9910   -24.4740     2.2370 
   65.0000    65.0000     0.0470     0.1260    80.0610     6.1590     4.8710     5.1780    25.9760   -25.2820     2.2090 
   65.1250    65.1250     0.0480     0.1270    82.4710     6.4970     5.1720     5.6970    25.9630   -26.0610     2.1940 
   65.2500    65.2500     0.0480     0.1270    84.0630     6.9700     5.5700     6.4270    25.9610   -26.7480     2.2200 
   65.3750    65.3750     0.0480     0.1280    82.7030     7.4290     5.9640     7.4240    25.9590   -27.3360     2.2750 
   65.5000    65.5000     0.0480     0.1290    80.3320     7.7270     6.2560     8.5530    25.9760   -27.8190     2.3240 
   65.6250    65.6250     0.0490     0.1290    77.3500     7.7650     6.3750     8.9860    26.0510   -28.1660     2.3290 
   65.7500    65.7500     0.0490     0.1300    74.0260     7.5460     6.3030     8.2150    26.1750   -28.3170     2.2820 
   65.8750    65.8750     0.0490     0.1300    72.0210     7.2620     6.1520     7.4870    26.2640   -28.2920     2.2260 
   66.0000    66.0000     0.0500     0.1310    71.9400     7.0600     6.0040     7.2640    26.2890   -28.1060     2.1930 
   66.1250    66.1250     0.0500     0.1310    72.0020     7.0140     5.9040     7.4270    26.2860   -27.7750     2.1930 
   66.2500    66.2500     0.0500     0.1320    71.1090     7.1180     5.8450     7.6350    26.2900   -27.3330     2.2130 
   66.3750    66.3750     0.0500     0.1320    72.2870     7.2490     5.7660     7.6760    26.2930   -26.8320     2.2290 
   66.5000    66.5000     0.0510     0.1330    73.3750     7.3230     5.6310     7.4690    26.2930   -26.3060     2.2350 
   66.6250    66.6250     0.0510     0.1330    71.9920     7.3170     5.4460     7.0480    26.2940   -25.8050     2.2340 
   66.7500    66.7500     0.0510     0.1340    73.8250     7.2610     5.2500     6.3350    26.2970   -25.3750     2.2340 
   66.8750    66.8750     0.0510     0.1350    82.0110     7.2200     5.0790     5.8060    26.2980   -24.9990     2.2360 
   67.0000    67.0000     0.0520     0.1350    89.4980     7.2280     4.9560     5.7770    26.3170   -24.6570     2.2410 
   67.1250    67.1250     0.0520     0.1360    88.6940     7.2910     4.8920     6.2810    26.3720   -24.3540     2.2450 
   67.2500    67.2500     0.0520     0.1360    83.7370     7.3830     4.8950     6.0250    26.4410   -24.0880     2.2450 
   67.3750    67.3750     0.0530     0.1370    82.9560     7.4520     4.9470     5.3610    26.4820   -23.8400     2.2410 
   67.5000    67.5000     0.0530     0.1370    86.0830     7.4380     5.0320     5.1810    26.4890   -23.5950     2.2330 
   67.6250    67.6250     0.0530     0.1380    89.7070     7.2850     5.1270     5.6690    26.4820   -23.3320     2.2250 
