~V
VERS. 2.00: Ver 2.00
~W
STRT.M 50.0000:
STOP.M 286.0000:
STEP.M 0.1250:
NULL. -999.2500:
UWI. FD11181:
~C
DEPT.M :
TVD. :
DX. :
DY. :
SP.MV :
GR.API :
RI. :
RML.OHMM :
RXO.OHMM :
DEN.GM/CC :
~A
# ...
  214.2500   208.2890   -36.3160     3.1940   -20.7300    78.6420     4.1840     4.7440     7.7370     2.4820 
  214.3750   208.4030   -36.3660     3.1960   -20.3320    78.3130     3.3630     3.7860     6.5360     2.5040 
  214.5000   208.5180   -36.4160     3.1990   -19.8490    80.1320     2.8630     3.2200     4.4220     2.5130 
  214.6250   208.6320   -36.4670     3.2020   -19.3790    82.8300     2.6480     3.0540     3.0810     2.4950 
  214.7500   208.7460   -36.5170     3.2040   -19.0110    86.1960     2.7120     3.2030     2.8420     2.4560 
  214.8750   208.8610   -36.5680     3.2070   -18.7870    87.3950     2.9860     3.5670     3.1960     2.4200 
  215.0000   208.9750   -36.6180     3.2100   -18.7090    85.7930     3.3430     3.9500     3.8930     2.4030 
  215.1250   209.0890   -36.6690     3.2120   -18.7040    83.7260     3.5960     4.1900     4.5110     2.4000 
  215.2500   209.2040   -36.7190     3.2150   -18.8140    83.7130     3.7280     4.2790     4.6690     2.3960 
  215.3750   209.3180   -36.7700     3.2180   -19.0480    84.4400     3.7340     4.2570     4.4600     2.3770 
  215.5000   209.4320   -36.8200     3.2210   -19.3330    86.1910     3.6750     4.2080     4.1300     2.3380 
  215.6250   209.5470   -36.8710     3.2230   -19.6060    86.9860     3.6410     4.1950     3.9090     2.2880 
  215.7500   209.6610   -36.9210     3.2260   -19.8660    85.3500     3.6380     4.2100     3.8930     2.2540 
  215.8750   209.7750   -36.9720     3.2290   -20.1420    81.8880     3.6380     4.2210     3.9550     2.2520 
  216.0000   209.8900   -37.0220     3.2310   -20.5060    78.9390     3.6120     4.1970     4.6880     2.2690 
  216.1250   210.0040   -37.0730     3.2340   -20.9490    78.1470     3.5550     4.1430     5.6370     2.2790 
  216.2500   210.1180   -37.1230     3.2370   -21.3100    78.1130     3.5380     4.1310     5.1870     2.2770 
  216.3750   210.2320   -37.1740     3.2390   -21.4730    78.3080     3.6240     4.2500     4.2970     2.2830 
  216.5000   210.3470   -37.2240     3.2420   -21.5370    79.5260     3.8480     4.5230     4.1160     2.3190 
  216.6250   210.4610   -37.2750     3.2450   -21.5410    82.5790     4.1680     4.9220     4.4860     2.3640 
  216.7500   210.5750   -37.3250     3.2470   -21.5370    84.3440     4.5100     5.3350     5.4590     2.3760 
  216.8750   210.6900   -37.3760     3.2500   -21.5710    82.2100     4.7910     5.6270     6.8020     2.3420 
  217.0000   210.8040   -37.4260     3.2520   -21.5200    79.4340     4.9150     5.7370     7.0520     2.3020 
  217.1250   210.9180   -37.4770     3.2550   -21.3270    77.1170     4.8710     5.6650     5.7450     2.2920 
  217.2500   211.0330   -37.5270     3.2570   -21.1000    73.3970     4.6710     5.4300     5.1260     2.2950 
  217.3750   211.1470   -37.5780     3.2600   -20.9490    72.2080     4.3450     5.0670     5.6070     2.2800 
  217.5000   211.2610   -37.6280     3.2630   -20.7640    77.2570     4.0180     4.6680     5.8660     2.2470 
  217.6250   211.3760   -37.6790     3.2650   -20.5860    82.5330     3.7240     4.3070     5.4230     2.2210 
  217.7500   211.4900   -37.7290     3.2670   -20.3840    81.3530     3.5680     4.1030     4.7460     2.2170 
  217.8750   211.6040   -37.7800     3.2700   -20.0810    77.9980     3.6010     4.1470     4.5150     2.2310 
  218.0000   211.7180   -37.8300     3.2720   -19.6820    78.0470     3.8020     4.3950     4.6350     2.2550 
  218.1250   211.8330   -37.8810     3.2740   -19.2640    79.7650     4.1440     4.7830     5.2410     2.2860 
  218.2500   211.9470   -37.9320     3.2770   -18.8550    79.6030     4.5360     5.2070     6.1290     2.3210 
  218.3750   212.0610   -37.9820     3.2790   -18.6690    77.7590     4.9280     5.5960     6.4540     2.3570 
  218.5000   212.1760   -38.0330     3.2810   -18.8920    76.1100     5.2710     5.9220     6.7850     2.3960 
  218.6250   212.2900   -38.0830     3.2840   -19.2600    73.6840     5.5690     6.1900     7.2100     2.4420 
  218.7500   212.4040   -38.1340     3.2860   -19.4990    70.7230     5.8140     6.4220     7.0000     2.4960 
  218.8750   212.5190   -38.1840     3.2880   -19.5980    69.4790     6.0020     6.6120     8.0240     2.5440 
  219.0000   212.6330   -38.2350     3.2900   -19.5740    69.6380     6.0740     6.7020     9.7040     2.5660 
  219.1250   212.7470   -38.2860     3.2930   -19.5060    69.9590     5.9490     6.6100    11.0570     2.5530 
  219.2500   212.8610   -38.3360     3.2950   -19.5330    69.3130     5.6660     6.3300    12.5700     2.5190 
  219.3750   212.9760   -38.3870     3.2970   -19.6450    70.1070     5.1560     5.8030    11.6220     2.4750 
  219.5000   213.0900   -38.4370     3.2990   -19.6930    73.0890     4.4980     5.0780     9.2530     2.4420 
  219.6250   213.2040   -38.4880     3.3010   -19.6770    75.5190     3.7360     4.2640     7.8170     2.4400 
  219.7500   213.3180   -38.5390     3.3030   -19.6420    75.9120     2.9180     3.5670     6.9770     2.4550 
  219.8750   213.4330   -38.5890     3.3050   -19.5380    73.3340     2.2900     2.9510     6.8270     2.4430 
  220.0000   213.5470   -38.6400     3.3070   -19.2210    68.1710     1.8030     2.3500     5.7720     2.3920 
  220.1250   213.6610   -38.6910     3.3090   -18.6410    61.4020     1.5490     2.0160     3.3050     2.3360 
  220.2500   213.7750   -38.7420     3.3110   -18.0480    56.3430     1.4480     1.9120     1.9990     2.3010 
  220.3750   213.8900   -38.7920     3.3130   -17.6720    55.0870     1.4710     1.9360     2.1370     2.2910 
  220.5000   214.0040   -38.8430     3.3150   -17.5530    56.6030     1.5780     2.0250     2.3130     2.2960 
  220.6250   214.1180   -38.8940     3.3180   -17.4580    58.0820     1.6950     2.0980     2.3910     2.3130 
  220.7500   214.2320   -38.9450     3.3200   -17.3390    59.5040     1.7710     2.1160     2.4420     2.3320 
  220.8750   214.3460   -38.9950     3.3220   -17.2720    63.5110     1.7980     2.0830     2.5140     2.3430 
  221.0000   214.4610   -39.0460     3.3240   -17.2510    69.8460     1.7910     2.0260     2.6050     2.3440 
  221.1250   214.5750   -39.0970     3.3260   -17.3260    73.6710     1.7670     1.9610     2.6130     2.3420 
  221.2500   214.6890   -39.1480     3.3280   -17.3940    74.0500     1.7380     1.9090     2.5220     2.3440 
  221.3750   214.8030   -39.1990     3.3300   -17.3670    74.1850     1.7100     1.8750     2.5150     2.3480 
  221.5000   214.9170   -39.2500     3.3320   -17.3020    75.6030     1.6830     1.8460     2.6130     2.3450 
  221.6250   215.0310   -39.3010     3.3340   -17.2970    75.1960     1.6410     1.8100     2.6200     2.3330 
  221.7500   215.1460   -39.3520     3.3360   -17.3830    70.2510     1.6000     1.7770     2.5330     2.3220 
  221.8750   215.2600   -39.4020     3.3380   -17.4990    64.9680     1.6050     1.7940     2.4950     2.3210 
  222.0000   215.3740   -39.4530     3.3400   -17.5560    63.9520     1.6920     1.8970     2.5550     2.3260 
  222.1250   215.4880   -39.5040     3.3430   -17.6390    66.5660     1.8510     2.0750     2.6410     2.3290 
  222.2500   215.6020   -39.5550     3.3450   -17.7500    68.2460     2.0180     2.2780     3.3690     2.3230 
  222.3750   215.7160   -39.6060     3.3470   -17.9040    69.3380     2.1170     2.4200     4.6970     2.3140 
  222.5000   215.8300   -39.6570     3.3490   -18.1160    71.7540     2.1200     2.4240     4.9870     2.3110 
  222.6250   215.9440   -39.7080     3.3520   -18.2770    74.2120     2.1240     2.3840     4.2170     2.3120 
  222.7500   216.0580   -39.7590     3.3540   -18.3910    74.0240     2.2460     2.5330     3.5910     2.3210 
  222.8750   216.1730   -39.8100     3.3560   -18.4410    72.0020     2.5520     2.9200     3.4840     2.3620 
  223.0000   216.2870   -39.8610     3.3580   -18.5360    68.6820     3.0020     3.4240     5.3270     2.4320 
  223.1250   216.4010   -39.9120     3.3600   -18.6310    65.1290     3.5240     3.9590     9.9640     2.4750 
  223.2500   216.5150   -39.9630     3.3620   -18.6890    60.1890     3.9740     4.3840    11.9770     2.4500 
