~V
VERS. 2.00: Ver 2.00
~W
STRT.M 20.0000:
STOP.M 285.0000:
STEP.M 0.1250:
NULL. -999.2500:
UWI. FD11157:
~C
DEPT.M :
TVD. :
DX. :
DY. :
GR.API :
RML.OHMM :
RI. :
RXO.OHMM :
CALI.CM :
SP.MV :
DEN.GM/CC :
~A
   20.0000    20.0000     0.0000     0.0000    37.5700    32.4650     1.2530     2.3230    25.2840    67.4580  -999.2500 
   20.1250    20.1250     0.0000     0.0000    37.5730    32.1000     1.2500     2.3300    25.2850    68.6650  -999.2500 
   20.2500    20.2500     0.0000     0.0000    37.2550    32.4730     1.2520     2.3190    25.2860    69.5660  -999.2500 
   20.3750    20.3750     0.0000     0.0000    36.2180    33.1040     1.2580     2.2860    25.2860    70.1020  -999.2500 
   20.5000    20.5000     0.0000     0.0000    35.0110    33.0540     1.2560     2.2400    25.2860    70.2160  -999.2500 
   20.6250    20.6250     0.0000     0.0000    34.7390    31.4830     1.2350     2.1970    25.2860    69.7730  -999.2500 
   20.7500    20.7500     0.0000     0.0000    34.4590    29.1800     1.2020     2.1580    25.2860    68.9310  -999.2500 
   20.8750    20.8750     0.0000     0.0000    34.3620    27.4770     1.1720     2.1380    25.2860    67.7960  -999.2500 
   21.0000    21.0000     0.0000     0.0000    35.2720    27.6040     1.1580     2.1380    25.2860    66.5110  -999.2500 
   21.1250    21.1250     0.0000     0.0000    37.3680    30.1290     1.1650     2.1580    25.2860    65.1400     2.0200 
   21.2500    21.2500     0.0000     0.0000    38.8510    33.6400     1.1790     2.1760    25.2860    63.8610     2.0200 
   21.3750    21.3750     0.0000     0.0000    38.6980    36.6960     1.1930     2.1760    25.2860    62.7240     2.0200 
   21.5000    21.5000     0.0000     0.0000    36.8860    38.3210     1.2050     2.1540    25.2860    61.7370     2.0130 
   21.6250    21.6250     0.0000     0.0000    35.2160    38.4080     1.2190     2.1370    25.2850    61.0010     2.0100 
   21.7500    21.7500     0.0000     0.0000    35.8510    37.8780     1.2340     2.1230    25.2800    60.5190     2.0000 
   21.8750    21.8750     0.0000     0.0000    37.5400    37.1670     1.2490     2.1110    25.2760    60.2840     1.9740 
   22.0000    22.0000     0.0000     0.0000    38.0910    36.4330     1.2620     2.0920    25.2740    60.2160     1.9320 
   22.1250    22.1250     0.0000     0.0000    37.9230    35.5810     1.2770     2.0600    25.2660    60.3470     1.8850 
   22.2500    22.2500     0.0000     0.0000    38.9660    34.4330     1.2920     2.0350    25.2350    60.6280     1.8470 
   22.3750    22.3750     0.0000     0.0000    41.1980    32.7260     1.2980     2.0420    25.2200    61.0000     1.8220 
   22.5000    22.5000     0.0000     0.0000    42.8980    30.3890     1.2880     2.0760    25.2640    61.4730     1.8110 
   22.6250    22.6250     0.0000     0.0000    42.4180    27.9100     1.2580     2.0960    25.2730    62.0130     1.8110 
   22.7500    22.7500     0.0000     0.0000    41.4170    26.1560     1.2200     2.1230    25.2760    62.5160     1.8150 
   22.8750    22.8750     0.0000     0.0000    41.4230    25.6060     1.1860     2.1440    25.2810    62.9550     1.8220 
   23.0000    23.0000     0.0000     0.0000    42.4330    25.9230     1.1650     2.1370    25.2780    63.3640     1.8290 
   23.1250    23.1250     0.0000     0.0000    43.0270    25.9460     1.1610     2.1190    25.2850    63.7580     1.8420 
   23.2500    23.2500     0.0000     0.0000    41.8580    24.9620     1.1670     2.1130    25.2840    64.1270     1.8700 
   23.3750    23.3750     0.0000     0.0000    39.4450    23.4110     1.1800     2.1230    25.2780    64.4550     1.9170 
   23.5000    23.5000     0.0000     0.0000    37.4950    22.4540     1.1870     2.1410    25.2690    64.6760     1.9730 
   23.6250    23.6250     0.0000     0.0000    38.6360    23.0510     1.1860     2.1680    25.2800    64.7380     2.0110 
   23.7500    23.7500     0.0000     0.0000    41.2730    24.5940     1.1790     2.1850    25.2770    64.7240     2.0200 
   23.8750    23.8750     0.0000     0.0000    42.8730    26.1140     1.1620     2.1840    25.2820    64.6510     2.0020 
   24.0000    24.0000     0.0000     0.0000    43.7610    26.7220     1.1310     2.1760    25.2850    64.4550     1.9750 
   24.1250    24.1250     0.0000     0.0000    44.5750    26.1500     1.0930     2.1750    25.2860    64.0340     1.9560 
   24.2500    24.2500     0.0000     0.0000    44.3290    25.3320     1.0720     2.1770    25.2850    63.4200     1.9560 
   24.3750    24.3750     0.0000     0.0000    43.9190    24.9460     1.0950     2.1830    25.2800    62.6420     1.9720 
   24.5000    24.5000     0.0000     0.0000    44.2750    25.1640     1.1720     2.1960    25.2830    61.7140     2.0010 
   24.6250    24.6250     0.0000     0.0000    42.9530    25.6700     1.2700     2.2230    25.2800    60.6150     2.0350 
   24.7500    24.7500     0.0000     0.0000    41.2760    25.9140     1.3190     2.2540    25.2850    59.3090     2.0630 
   24.8750    24.8750     0.0000     0.0000    42.2890    25.5480     1.2940     2.2330    25.2860    57.7650     2.0750 
   25.0000    25.0000     0.0000     0.0000    46.4330    24.5040     1.2220     2.1640    25.2860    56.0070     2.0710 
   25.1250    25.1250     0.0000     0.0000    48.2330    23.1960     1.1560     2.0540    25.2840    53.9910     2.0750 
   25.2500    25.2500     0.0000     0.0000    47.1330    22.2150     1.1130     1.8950    25.2750    51.7150     2.1110 
   25.3750    25.3750     0.0000     0.0000    45.8370    21.5560     1.0610     1.7140    25.2690    49.1380     2.1850 
   25.5000    25.5000     0.0000     0.0000    44.5910    20.7500     0.9480     1.5960    25.2780    46.1910     2.2800 
   25.6250    25.6250     0.0000     0.0000    44.7110    18.6320     0.7350     1.6720    25.3410    42.6300     2.3550 
   25.7500    25.7500     0.0000     0.0000    46.9010    14.7490     0.4790     1.8420    25.3580    38.3940     2.3930 
   25.8750    25.8750     0.0000     0.0000    49.4730    10.0510     0.2530     1.8570    25.3600    33.3570     2.4080 
   26.0000    26.0000     0.0000     0.0000    49.7810     6.2820     0.1050     1.8050    25.3680    27.3670     2.4370 
   26.1250    26.1250     0.0000     0.0000    47.4350     4.5860     0.0510     1.7130    25.3320    20.0830     2.5240 
   26.2500    26.2500     0.0000     0.0000    47.3870     4.5060     0.0750     1.5590    25.1690    11.6570     2.6240 
   26.3750    26.3750     0.0000     0.0000    52.6850     6.1090     0.2000     1.7390    24.8970     2.3880     2.6710 
   26.5000    26.5000     0.0000     0.0000    62.0250    10.0230     0.4830     2.5240    24.9110    -7.0810     2.6270 
   26.6250    26.6250     0.0000     0.0000    68.9250    18.1210     1.0590     4.0240    25.9340   -15.9490     2.5020 
   26.7500    26.7500     0.0000     0.0000    69.8860    30.2690     1.9400     4.7320    27.3240   -23.9580     2.3530 
   26.8750    26.8750     0.0000     0.0000    67.7350    42.1940     2.9760     4.8300    28.0030   -30.9380     2.2120 
   27.0000    27.0000     0.0000     0.0000    66.7070    43.8080     3.7710     4.8520    28.4170   -36.7330     2.1050 
   27.1250    27.1250     0.0000     0.0000    67.5620    32.1400     3.9820     4.9590    28.0630   -40.9390     2.0420 
   27.2500    27.2500     0.0000     0.0000    68.2550    20.3990     3.9480     5.0370    28.0120   -43.6730     2.0050 
   27.3750    27.3750     0.0000     0.0000    68.3540    13.1470     3.9580     5.1230    28.0910   -45.1400     1.9830 
   27.5000    27.5000     0.0000     0.0000    68.4100     9.7980     4.1410     5.2570    27.8820   -45.8830     1.9780 
   27.6250    27.6250     0.0000     0.0000    69.7030     9.0140     4.5450     5.7850    26.9690   -46.5040     1.9990 
   27.7500    27.7500     0.0000     0.0000    71.7430     7.7720     5.1260     6.7730    26.2200   -47.1860     2.0440 
   27.8750    27.8750     0.0000     0.0000    72.1090     7.0210     5.8510     8.0650    25.7500   -47.8870     2.1000 
   28.0000    28.0000     0.0000     0.0000    71.1030     7.9570     6.6310     9.0060    25.4990   -48.5810     2.1440 
   28.1250    28.1250     0.0000     0.0000    69.4080     8.7600     7.3000     9.3020    25.2740   -49.2700     2.1630 
