~V
VERS. 2.00: Ver 2.00
~W
STRT.M 20.0000:
STOP.M 286.0000:
STEP.M 0.1250:
NULL. -999.2500:
UWI. FD11156:
~C
DEPT.M :
TVD. :
DX. :
DY. :
DEN.GM/CC :
GR.API :
RML.OHMM :
RI. :
RXO.OHMM :
CALI.CM :
SP.MV :
~A
# ...
  226.2500   222.4220    11.6910   -26.2770     2.1920    57.0570    79.6900    76.9750    24.7030    20.5070   -30.6190 
  226.3750   222.5400    11.7100   -26.3150     2.1880    57.6160    76.9110    74.3320    24.2040    20.3070   -30.7430 
  226.5000   222.6570    11.7280   -26.3520     2.1830    54.6690    75.7530    73.1240    26.9400    20.2680   -30.8630 
  226.6250   222.7750    11.7470   -26.3900     2.1790    56.0830    76.5270    73.4130    31.4850    20.4340   -30.9310 
  226.7500   222.8930    11.7660   -26.4270     2.1760    60.8850    78.9320    74.8060    37.9770    20.9380   -30.9910 
  226.8750   223.0110    11.7850   -26.4650     2.1750    62.5760    82.9430    77.2260    40.2000    21.5010   -31.0180 
  227.0000   223.1280    11.8030   -26.5020     2.1750    57.8310    88.4320    80.6560    37.3340    21.9620   -31.0090 
  227.1250   223.2460    11.8210   -26.5410     2.1740    51.6570    95.1140    85.1790    36.7720    22.0800   -30.9870 
  227.2500   223.3630    11.8390   -26.5800     2.1720    47.9160   102.0720    90.4040    40.9900    22.1050   -30.8590 
  227.3750   223.4810    11.8560   -26.6190     2.1670    44.9500   108.6550    95.8790    47.6270    22.1120   -30.6250 
  227.5000   223.5980    11.8740   -26.6580     2.1610    42.9490   114.3630   100.9840    53.7480    22.1240   -30.3420 
  227.6250   223.7160    11.8910   -26.6970     2.1550    45.6740   118.6860   104.8570    53.5310    22.1860   -30.0220 
  227.7500   223.8330    11.9090   -26.7350     2.1510    51.0850   121.8110   107.2390    49.8510    22.2100   -29.6130 
  227.8750   223.9510    11.9270   -26.7740     2.1510    55.3120   123.8430   108.1180    48.1570    22.2390   -29.1850 
  228.0000   224.0680    11.9440   -26.8130     2.1550    56.4340   124.7650   107.8210    48.1080    22.2200   -28.7420 
  228.1250   224.1860    11.9620   -26.8520     2.1600    56.3610   124.1810   106.9070    49.6780    22.1940   -28.2390 
  228.2500   224.3030    11.9790   -26.8910     2.1650    56.5800   122.2960   106.0960    55.6000    22.1920   -27.7960 
  228.3750   224.4210    11.9970   -26.9300     2.1690    56.7720   119.6670   105.7070    64.3870    22.2100   -27.4310 
  228.5000   224.5380    12.0150   -26.9690     2.1710    55.2440   117.3750   105.7910    70.7370    22.2540   -27.0750 
  228.6250   224.6560    12.0320   -27.0070     2.1730    51.3890   116.7450   106.2810    69.5340    22.2620   -26.7550 
  228.7500   224.7730    12.0500   -27.0460     2.1780    50.3860   117.4280   106.7470    62.0550    22.2640   -26.4920 
  228.8750   224.8910    12.0670   -27.0850     2.1870    52.9300   117.8370   106.3350    54.8890    22.2640   -26.2200 
  229.0000   225.0080    12.0850   -27.1240     2.2010    53.6910   115.6460   103.7370    50.9610    22.2640   -25.9580 
  229.1250   225.1260    12.1030   -27.1630     2.2170    51.1080   108.1780    97.2160    47.5860    22.2640   -25.7250 
  229.2500   225.2430    12.1200   -27.2020     2.2280    50.3950    96.4410    87.5400    47.1810    22.2640   -25.4990 
  229.3750   225.3610    12.1380   -27.2410     2.2300    52.1800    82.7070    76.3920    47.2230    22.2650   -25.2460 
  229.5000   225.4780    12.1550   -27.2790     2.2220    53.3710    70.0180    66.0740    43.6980    22.2790   -24.9680 
  229.6250   225.5960    12.1730   -27.3180     2.2100    53.5390    61.8440    59.1430    37.4100    22.3890   -24.6630 
  229.7500   225.7130    12.1900   -27.3570     2.2060    52.8820    59.0320    56.1210    33.5500    22.6960   -24.3480 
  229.8750   225.8310    12.2080   -27.3960     2.2170    50.8020    61.7560    57.2970    30.5170    22.8540   -23.9970 
  230.0000   225.9480    12.2260   -27.4350     2.2420    48.8800    69.4580    62.8560    27.9330    22.6430   -23.5820 
  230.1250   226.0660    12.2430   -27.4740     2.2670    49.5000    81.6880    73.4910    26.9590    21.6710   -23.1630 
  230.2500   226.1830    12.2610   -27.5130     2.2760    50.9480   100.6490    87.6600    28.6290    20.7760   -22.7170 
  230.3750   226.3010    12.2780   -27.5510     2.2670    52.4230   122.0850   103.9060    34.4610    20.2020   -22.2210 
  230.5000   226.4180    12.2960   -27.5900     2.2520    55.3150   140.8850   120.8520    44.1930    20.0890   -21.7500 
  230.6250   226.5360    12.3140   -27.6290     2.2570    56.9130   158.4750   137.5120    53.1520    20.0840   -21.2430 
  230.7500   226.6530    12.3310   -27.6680     2.3000    54.5380   168.7310   150.8800    69.0300    20.0840   -20.7020 
  230.8750   226.7710    12.3490   -27.7070     2.3780    51.1780   161.2560   152.8820    83.2560    20.0840   -20.2260 
  231.0000   226.8880    12.3660   -27.7460     2.4720    51.5290   130.3780   133.9380    86.6050    20.0840   -19.7830 
  231.1250   227.0060    12.3840   -27.7850     2.5420    52.9300    87.7910    95.0850    85.7680    20.0840   -19.3670 
  231.2500   227.1230    12.4010   -27.8230     2.5670    52.2130    53.3930    57.7940    81.9800    20.0840   -19.0110 
  231.3750   227.2410    12.4190   -27.8620     2.5470    51.7600    35.4320    32.1670    69.9380    20.0840   -18.7150 
  231.5000   227.3580    12.4370   -27.9010     2.5000    51.5440    21.1960    17.8420    40.0600    20.0840   -18.4890 
  231.6250   227.4760    12.4540   -27.9400     2.4510    47.4590    13.4860    11.3510    16.9930    20.0840   -18.4090 
  231.7500   227.5930    12.4720   -27.9790     2.4180    41.3830     9.5730     8.0580     8.1040    20.0840   -18.4300 
  231.8750   227.7110    12.4890   -28.0180     2.4010    39.6860     7.7200     6.4980     5.6940    20.0840   -18.5380 
  232.0000   227.8280    12.5070   -28.0570     2.3940    42.5470     7.1380     6.0080     5.2340    20.0840   -18.7320 
  232.1250   227.9460    12.5250   -28.0950     2.3900    42.6870     7.4590     6.2780     5.3050    20.0840   -18.9880 
  232.2500   228.0630    12.5420   -28.1340     2.3830    40.7480     8.0970     6.8160     5.4710    20.0840   -19.3170 
  232.3750   228.1810    12.5600   -28.1730     2.3730    41.1710     8.6330     7.2670     5.6880    20.0840   -19.7150 
  232.5000   228.2980    12.5770   -28.2120     2.3640    43.6810     8.7790     7.3890     5.9480    20.0840   -20.1230 
  232.6250   228.4160    12.5950   -28.2510     2.3590    45.2040     8.4760     7.1350     6.1030    20.0840   -20.5850 
  232.7500   228.5330    12.6120   -28.2900     2.3610    48.2770     8.0320     6.7610     5.7490    20.0840   -21.1320 
  232.8750   228.6510    12.6300   -28.3290     2.3740    56.1880     7.7030     6.4840     5.2950    20.0840   -21.6890 
  233.0000   228.7680    12.6480   -28.3670     2.3970    66.6150     7.6670     6.4540     5.2960    20.0840   -22.2640 
  233.1250   228.8860    12.6650   -28.4060     2.4210    73.6170     8.0420     6.7690     6.1840    20.0840   -22.8740 
  233.2500   229.0030    12.6830   -28.4450     2.4380    77.1780     8.6930     7.3180     7.4030    20.0840   -23.4140 
  233.3750   229.1210    12.7000   -28.4840     2.4430    79.5410     9.4610     7.9640     8.0100    20.0840   -23.8990 
  233.5000   229.2380    12.7180   -28.5230     2.4390    81.3410    10.1400     8.5350     8.1110    20.0840   -24.3750 
  233.6250   229.3560    12.7360   -28.5620     2.4310    81.0550    10.5030     8.8410     8.2510    20.0840   -24.7000 
  233.7500   229.4730    12.7530   -28.6010     2.4240    81.4530    10.5800     8.9050     8.6070    20.0840   -24.8990 
  233.8750   229.5910    12.7710   -28.6390     2.4230    84.5350    10.4740     8.8170     8.9490    20.0840   -25.0670 
  234.0000   229.7080    12.7880   -28.6780     2.4260    87.1580    10.3020     8.6710     9.1450    20.0840   -25.1980 
  234.1250   229.8260    12.8060   -28.7170     2.4310    84.8570    10.1430     8.5370     8.8650    20.0840   -25.2940 
  234.2500   229.9430    12.8230   -28.7560     2.4360    83.0030    10.0480     8.4580     8.6540    20.0840   -25.4170 
  234.3750   230.0610    12.8410   -28.7950     2.4360    85.7010    10.0850     8.4890     8.6810    20.0840   -25.5820 
