~V
VERS. 2.00: Ver 2.00
~W
STRT.M 35.0000:
STOP.M 279.0000:
STEP.M 0.1250:
NULL. -999.2500:
UWI. FD11183:
~C
DEPT.M :
TVD. :
DX. :
DY. :
SP.MV :
GR.API :
RI. :
RML.OHMM :
RXO.OHMM :
DEN.GM/CC :
~A
# ...
  244.8750   232.7640   -60.9140    10.1340   -99.5170    72.9490     3.0140     3.7620     6.0440     2.3400 
  245.0000   232.8770   -60.9670    10.1430   -99.6490    79.2470     3.1410     3.8650     5.6990     2.3300 
  245.1250   232.9900   -61.0200    10.1520   -99.8130    85.0720     3.0610     3.6530     4.6510     2.3310 
  245.2500   233.1020   -61.0740    10.1600   -99.8930    89.0260     2.8930     3.3590     3.9950     2.3370 
  245.3750   233.2150   -61.1270    10.1690   -99.7730    92.4550     2.7530     3.1710     3.8550     2.3450 
  245.5000   233.3280   -61.1800    10.1770   -99.5980    97.5050     2.6800     3.0940     3.8440     2.3540 
  245.6250   233.4410   -61.2340    10.1860   -99.4740   103.0560     2.6880     3.1210     3.9150     2.3680 
  245.7500   233.5530   -61.2870    10.1940   -99.4350   106.6970     2.7320     3.1930     3.9830     2.3810 
  245.8750   233.6660   -61.3400    10.2020   -99.4400   110.1530     2.7970     3.2900     3.9820     2.3840 
  246.0000   233.7790   -61.3940    10.2100   -99.5370   115.9910     2.8650     3.4030     4.1380     2.3810 
  246.1250   233.8910   -61.4470    10.2190   -99.7060   123.3920     2.9110     3.4860     4.4070     2.3730 
  246.2500   234.0040   -61.5010    10.2270   -99.9000   128.0400     2.9320     3.5260     4.4380     2.3640 
  246.3750   234.1170   -61.5540    10.2350  -100.0250   130.8620     2.9500     3.5340     4.3000     2.3540 
  246.5000   234.2300   -61.6070    10.2440   -99.9540   131.7600     2.9830     3.5280     4.2410     2.3500 
  246.6250   234.3420   -61.6610    10.2520   -99.8420   131.0160     3.0360     3.5330     4.2420     2.3450 
  246.7500   234.4550   -61.7140    10.2600   -99.7840   127.9810     3.0950     3.5510     4.2310     2.3380 
  246.8750   234.5680   -61.7680    10.2690   -99.7290   124.7700     3.1280     3.5490     4.3640     2.3370 
  247.0000   234.6800   -61.8210    10.2770   -99.6660   125.0950     3.1240     3.5210     4.6730     2.3440 
  247.1250   234.7930   -61.8750    10.2850   -99.7170   128.2130     3.0940     3.4720     4.8000     2.3520 
  247.2500   234.9060   -61.9280    10.2930   -99.8220   129.7660     3.0520     3.4180     4.6700     2.3520 
  247.3750   235.0180   -61.9820    10.3020   -99.9610   127.0760     3.0170     3.3880     4.5910     2.3460 
  247.5000   235.1310   -62.0350    10.3100  -100.0830   121.4130     3.0220     3.4050     4.5880     2.3420 
  247.6250   235.2440   -62.0890    10.3180  -100.1350   116.0110     3.0860     3.4730     4.5520     2.3440 
  247.7500   235.3560   -62.1430    10.3260  -100.1300   114.1390     3.1800     3.5870     4.5240     2.3450 
  247.8750   235.4690   -62.1960    10.3340  -100.1080   116.7090     3.2930     3.7400     4.5260     2.3390 
  248.0000   235.5810   -62.2500    10.3420  -100.1440   119.9840     3.3900     3.8760     4.6420     2.3370 
  248.1250   235.6940   -62.3030    10.3510  -100.1130   119.9210     3.4410     3.9140     4.8470     2.3430 
  248.2500   235.8070   -62.3570    10.3590  -100.0080   119.3080     3.4360     3.8350     4.9750     2.3470 
  248.3750   235.9190   -62.4100    10.3670   -99.9270   121.4510     3.3920     3.6880     5.0850     2.3450 
  248.5000   236.0320   -62.4640    10.3760   -99.8830   124.5120     3.3370     3.5610     5.1160     2.3480 
  248.6250   236.1450   -62.5180    10.3840   -99.8560   122.3920     3.3080     3.5040     4.8920     2.3540 
  248.7500   236.2570   -62.5710    10.3920   -99.9100   115.5370     3.3260     3.5390     4.7920     2.3500 
  248.8750   236.3700   -62.6250    10.4000  -100.0460   109.6640     3.3790     3.6220     5.0880     2.3410 
  249.0000   236.4830   -62.6780    10.4080  -100.2460   107.2770     3.4330     3.6800     5.3590     2.3380 
  249.1250   236.5950   -62.7320    10.4170  -100.5860   104.0030     3.5170     3.7570     5.5200     2.3370 
  249.2500   236.7080   -62.7860    10.4250  -101.0250   100.9670     3.6750     3.8930     5.9380     2.3330 
  249.3750   236.8200   -62.8390    10.4330  -101.5460   101.0010     4.1160     4.3350     6.2730     2.3320 
  249.5000   236.9330   -62.8930    10.4410  -102.1410   101.6680     5.0700     5.3290     6.2720     2.3360 
  249.6250   237.0460   -62.9460    10.4500  -102.9020    98.1370     6.6320     6.9800     7.9580     2.3380 
  249.7500   237.1580   -63.0000    10.4580  -103.8740    90.3820     8.8810     9.3490    12.7460     2.3230 
  249.8750   237.2710   -63.0540    10.4670  -105.1560    79.5390    11.2490    11.7880    17.1780     2.2870 
  250.0000   237.3830   -63.1070    10.4750  -106.6410    69.8810    13.2670    13.7940    17.5380     2.2500 
  250.1250   237.4960   -63.1610    10.4840  -108.1160    66.1550    14.6250    15.0640    15.9990     2.2300 
  250.2500   237.6090   -63.2150    10.4920  -109.5530    67.3700    15.2250    15.5510    15.9040     2.2270 
  250.3750   237.7210   -63.2680    10.5010  -110.8560    67.3480    15.4600    15.7210    16.3850     2.2260 
  250.5000   237.8340   -63.3220    10.5090  -111.9240    64.6580    15.5110    15.7510    15.8720     2.2210 
  250.6250   237.9460   -63.3760    10.5180  -112.7650    63.1670    15.3030    15.5180    14.9930     2.2130 
  250.7500   238.0590   -63.4290    10.5260  -113.3950    63.6600    14.8360    15.0180    14.5230     2.2050 
  250.8750   238.1710   -63.4830    10.5340  -113.9290    64.4630    14.2330    14.3650    14.1280     2.2060 
  251.0000   238.2840   -63.5370    10.5420  -114.2700    65.3170    13.7060    13.7770    13.6540     2.2200 
  251.1250   238.3960   -63.5910    10.5510  -114.4410    67.0560    13.5030    13.5800    13.4280     2.2400 
  251.2500   238.5090   -63.6440    10.5590  -114.5720    68.2400    13.7060    13.9680    13.5750     2.2480 
  251.3750   238.6220   -63.6980    10.5670  -114.6300    68.3780    14.2270    14.8520    13.9650     2.2370 
  251.5000   238.7340   -63.7520    10.5760  -114.6670    68.2630    14.9370    15.9240    14.4040     2.2190 
  251.6250   238.8470   -63.8060    10.5850  -114.7260    67.9020    15.5420    16.7330    15.4940     2.2060 
  251.7500   238.9590   -63.8590    10.5930  -114.8430    67.6560    15.8650    17.0180    16.4690     2.2030 
  251.8750   239.0720   -63.9130    10.6020  -114.9570    68.6250    15.8590    16.8450    16.5410     2.2090 
  252.0000   239.1840   -63.9670    10.6110  -114.9790    68.6760    15.6180    16.4190    16.5280     2.2180 
  252.1250   239.2970   -64.0210    10.6190  -114.9820    65.9610    15.3640    16.0130    16.6090     2.2290 
  252.2500   239.4090   -64.0740    10.6280  -115.0160    62.4560    15.2330    15.7730    16.7800     2.2380 
  252.3750   239.5220   -64.1280    10.6370  -115.1010    60.9130    15.3470    15.8210    16.9580     2.2390 
  252.5000   239.6340   -64.1820    10.6460  -115.1750    62.0690    15.6600    16.0780    17.1660     2.2290 
  252.6250   239.7470   -64.2350    10.6540  -115.1550    65.5260    16.1150    16.4690    17.4200     2.2160 
  252.7500   239.8590   -64.2890    10.6630  -114.9990    69.3980    16.5580    16.8340    17.6210     2.2100 
  252.8750   239.9720   -64.3430    10.6710  -114.7360    70.6960    16.8720    17.0430    17.7180     2.2110 
  253.0000   240.0840   -64.3970    10.6800  -114.4770    68.9580    17.0040    17.0400    17.7390     2.2110 
  253.1250   240.1970   -64.4510    10.6880  -114.2570    66.5170    16.9570    16.8430    17.6930     2.2070 
  253.2500   240.3090   -64.5040    10.6960  -114.0330    67.1720    16.8200    16.5610    17.5950     2.2040 
  253.3750   240.4220   -64.5580    10.7050  -113.8990    68.9580    16.6560    16.3470    17.3890     2.2060 
  253.5000   240.5340   -64.6120    10.7130  -113.7950    68.9760    16.5390    16.2920    17.1170     2.2120 
  253.6250   240.6470   -64.6660    10.7220  -113.6630    66.1960    16.5470    16.4450    17.0540     2.2180 
  253.7500   240.7590   -64.7200    10.7300  -113.6160    63.0790    16.7780    16.8640    17.1440     2.2240 
  253.8750   240.8720   -64.7740    10.7380  -113.6280    62.1500    17.2070    17.4760    17.2530     2.2290 
