~V
VERS. 2.00: Ver 2.00
~W
STRT.M 20.0000:
STOP.M 286.0000:
STEP.M 0.1250:
NULL. -999.2500:
UWI. FD11156:
~C
DEPT.M :
TVD. :
DX. :
DY. :
DEN.GM/CC :
GR.API :
RML.OHMM :
RI. :
RXO.OHMM :
CALI.CM :
SP.MV :
~A
# ...
   86.0000    86.0000     0.0000     0.0000     2.4340    81.0000     7.1980     5.9980     7.6970    24.5110    -7.5370 
   86.1250    86.1250     0.0000     0.0000     2.4080    78.8040     7.0830     5.9030     6.7350    24.6540    -7.2350 
   86.2500    86.2500     0.0000     0.0000     2.3760    79.4390     6.9200     5.7660     6.4340    24.6800    -7.1550 
   86.3750    86.3750     0.0000     0.0000     2.3520    80.6410     6.7680     5.6400     6.4400    24.6850    -7.2130 
   86.5000    86.5000     0.0000     0.0000     2.3460    80.0440     6.6350     5.5290     6.5270    24.6890    -7.2920 
   86.6250    86.6250     0.0000     0.0000     2.3580    80.6830     6.4840     5.4030     6.2530    24.7140    -7.3620 
   86.7500    86.7500     0.0000     0.0000     2.3770    84.9590     6.3120     5.2600     5.6690    24.7390    -7.4780 
   86.8750    86.8750     0.0000     0.0000     2.3930    87.5970     6.1750     5.1460     5.3540    24.7070    -7.6080 
   87.0000    87.0000     0.0000     0.0000     2.3970    85.1420     6.1390     5.1160     5.3180    24.9060    -7.7680 
   87.1250    87.1250     0.0000     0.0000     2.3780    81.5810     6.2640     5.2200     5.5890    25.0180    -8.0440 
   87.2500    87.2500     0.0000     0.0000     2.3430    80.3220     6.5090     5.4240     5.9570    25.1700    -8.3560 
   87.3750    87.3750     0.0000     0.0000     2.3030    78.4580     6.8220     5.6850     6.2930    25.5250    -8.7050 
   87.5000    87.5000     0.0000     0.0000     2.2740    73.1310     7.1260     5.9390     6.5460    25.9180    -9.1340 
   87.6250    87.6250     0.0000     0.0000     2.2690    69.2290     7.2980     6.0820     6.7650    25.9130    -9.6100 
   87.7500    87.7500     0.0000     0.0000     2.2840    71.5080     7.2800     6.0660     6.9400    25.7860   -10.0490 
   87.8750    87.8750     0.0000     0.0000     2.3070    76.6300     7.0430     5.8690     6.9430    25.7910   -10.4700 
   88.0000    88.0000     0.0000    -0.0030     2.3270    79.7580     6.6530     5.5440     6.5450    25.8720   -10.8910 
   88.1250    88.1250     0.0000    -0.0050     2.3320    79.0480     6.3120     5.2600     6.2220    25.7360   -11.3180 
   88.2500    88.2500     0.0000    -0.0080     2.3280    78.4400     6.2360     5.1970     5.9780    25.5730   -11.7970 
   88.3750    88.3750     0.0000    -0.0110     2.3240    79.6920     6.5560     5.4640     6.1350    25.3130   -12.3810 
   88.5000    88.5000     0.0000    -0.0130     2.3320    81.2990     7.3220     6.1010     7.4680    24.9560   -13.1050 
   88.6250    88.6250    -0.0010    -0.0160     2.3530    79.4690     8.5030     7.0860    12.1330    24.8280   -14.0150 
   88.7500    88.7500    -0.0010    -0.0180     2.3680    71.9520     9.7010     8.0840    19.1090    24.8180   -15.0800 
   88.8750    88.8750    -0.0010    -0.0210     2.3580    62.7540    10.4340     8.6950    19.4690    25.0210   -16.1540 
   89.0000    89.0000    -0.0010    -0.0240     2.3240    57.0640    10.3850     8.6540    14.9060    25.2720   -17.0290 
   89.1250    89.1250    -0.0010    -0.0260     2.2860    57.0070     9.5920     7.9940    12.7140    25.6660   -17.5390 
   89.2500    89.2500    -0.0010    -0.0290     2.2690    58.9210     8.5910     7.1590    12.0040    25.6770   -17.6700 
   89.3750    89.3750    -0.0010    -0.0310     2.2830    61.7800     7.6710     6.3930    10.5510    25.5680   -17.3200 
   89.5000    89.5000    -0.0010    -0.0340     2.3180    68.2640     6.9600     5.8000     8.3590    25.2340   -16.5460 
   89.6250    89.6250    -0.0010    -0.0370     2.3520    78.4460     6.5110     5.4260     6.8200    25.1740   -15.4380 
   89.7500    89.7500    -0.0010    -0.0390     2.3680    87.8400     6.2870     5.2390     5.9710    25.1750   -14.1290 
   89.8750    89.8750    -0.0010    -0.0420     2.3610    91.5370     6.3110     5.2590     5.7320    25.2750   -12.8240 
   90.0000    89.9990    -0.0010    -0.0450     2.3370    87.0460     6.5840     5.4870     6.1130    25.1540   -11.7360 
   90.1250    90.1240    -0.0020    -0.0470     2.3110    79.5030     7.0600     5.8830     7.0610    25.0260   -10.9590 
   90.2500    90.2490    -0.0020    -0.0500     2.2960    74.2130     7.5370     6.2800     8.0180    24.9550   -10.4230 
   90.3750    90.3740    -0.0020    -0.0520     2.3010    70.0740     7.8140     6.5120     8.3190    25.0440   -10.1480 
   90.5000    90.4990    -0.0020    -0.0550     2.3220    65.4980     7.7640     6.4700     7.7490    25.2790   -10.0620 
   90.6250    90.6240    -0.0020    -0.0580     2.3540    66.3120     7.3810     6.1500     6.9830    25.7930   -10.0880 
   90.7500    90.7490    -0.0020    -0.0600     2.3790    74.4400     6.8940     5.7450     6.1910    26.0570   -10.1660 
   90.8750    90.8740    -0.0020    -0.0630     2.3900    83.3690     6.4550     5.3790     5.8920    26.0520   -10.2850 
   91.0000    90.9990    -0.0020    -0.0660     2.3830    86.0940     6.1280     5.1060     5.9180    25.8240   -10.4220 
   91.1250    91.1240    -0.0020    -0.0680     2.3620    80.7070     5.9350     4.9460     6.0490    25.5180   -10.5770 
   91.2500    91.2490    -0.0020    -0.0710     2.3370    73.6890     5.8830     4.9020     6.2620    25.3160   -10.8580 
   91.3750    91.3740    -0.0020    -0.0730     2.3170    69.8660     6.0560     5.0460     6.6580    25.2870   -11.2980 
   91.5000    91.4990    -0.0030    -0.0760     2.3090    69.6480     6.5560     5.4630     6.9910    25.3100   -11.8610 
   91.6250    91.6240    -0.0030    -0.0790     2.3200    66.2250     7.5000     6.2500     7.7940    25.4030   -12.5770 
   91.7500    91.7490    -0.0030    -0.0810     2.3450    58.2840     8.7530     7.2940    10.3900    25.4890   -13.5030 
   91.8750    91.8740    -0.0030    -0.0840     2.3710    52.9030    10.0840     8.4040    16.6580    25.3800   -14.5930 
   92.0000    91.9990    -0.0030    -0.0860     2.3800    53.4510    11.1590     9.2990    23.1780    24.9670   -15.7910 
   92.1250    92.1240    -0.0030    -0.0890     2.3630    57.4960    11.6310     9.6920    20.6120    24.8590   -17.1660 
   92.2500    92.2490    -0.0030    -0.0920     2.3410    60.3870    11.6530     9.7110    15.7970    25.0210   -18.5770 
   92.3750    92.3740    -0.0030    -0.0940     2.3360    61.1220    11.4710     9.5590    14.2370    25.1130   -19.9190 
   92.5000    92.4990    -0.0030    -0.0970     2.3560    60.3910    11.2820     9.4010    16.1490    25.2630   -21.2470 
   92.6250    92.6240    -0.0030    -0.1000     2.3850    57.7530    11.1240     9.2700    19.0670    25.2740   -22.5460 
   92.7500    92.7490    -0.0030    -0.1020     2.3950    55.3080    10.8930     9.0770    18.1910    25.2240   -23.6970 
   92.8750    92.8740    -0.0030    -0.1050     2.3740    54.0250    10.5060     8.7550    15.1540    25.1940   -24.6640 
   93.0000    92.9990    -0.0040    -0.1070     2.3350    54.1090     9.9910     8.3260    13.6440    25.3090   -25.4330 
   93.1250    93.1240    -0.0040    -0.1100     2.3010    55.3370     9.4690     7.8910    13.5370    25.3690   -25.8740 
   93.2500    93.2490    -0.0040    -0.1130     2.2830    56.8320     9.0430     7.5360    13.2080    25.3970   -26.1160 
   93.3750    93.3740    -0.0040    -0.1150     2.2790    58.5520     8.7320     7.2760    12.4810    25.4950   -26.2530 
   93.5000    93.4990    -0.0040    -0.1180     2.2820    59.2070     8.5290     7.1080    11.3890    25.9230   -26.2380 
   93.6250    93.6240    -0.0040    -0.1200     2.2880    58.0260     8.4690     7.0570    10.7800    26.4270   -26.0330 
   93.7500    93.7490    -0.0040    -0.1230     2.2900    57.0320     8.5470     7.1230    10.9390    26.6030   -25.7000 
   93.8750    93.8740    -0.0040    -0.1260     2.2860    57.2850     8.7250     7.2710    11.5920    26.6300   -25.2760 
   94.0000    93.9980    -0.0040    -0.1280     2.2740    56.2100     8.9040     7.4200    11.9460    26.6140   -24.7900 
   94.1250    94.1230    -0.0040    -0.1310     2.2580    52.6620     8.9910     7.4920    11.8260    26.5000   -24.2680 
