~V
VERS. 2.00: Ver 2.00
~W
STRT.M 25.0000:
STOP.M 287.0000:
STEP.M 0.1250:
NULL. -999.2500:
UWI. FD11174:
~C
DEPT.M :
TVD. :
DX. :
DY. :
SP.MV :
GR.API :
RI. :
RML.OHMM :
RXO.OHMM :
DEN.GM/CC :
~A
# ...
  143.6250   140.1410    -9.1010   -21.0370   -25.5460    88.5160     4.1240     4.7510     5.1830     2.1840 
  143.7500   140.2560    -9.1200   -21.0830   -25.9400    85.0080     4.5110     5.2010     5.6450     2.1750 
  143.8750   140.3710    -9.1380   -21.1290   -26.3190    82.1990     5.0320     5.7950     5.9390     2.2130 
  144.0000   140.4860    -9.1570   -21.1750   -26.4570    78.8260     5.5970     6.4460     6.0990     2.2980 
  144.1250   140.6000    -9.1750   -21.2210   -26.4630    74.5680     6.2060     7.1470     6.3320     2.3770 
  144.2500   140.7150    -9.1930   -21.2670   -26.4750    69.8490     6.7780     7.7780     6.9530     2.3790 
  144.3750   140.8300    -9.2110   -21.3140   -26.5810    66.0340     7.2490     8.2670     7.9380     2.2960 
  144.5000   140.9440    -9.2290   -21.3600   -26.7920    63.9010     7.6680     8.6910     8.8670     2.2230 
  144.6250   141.0590    -9.2470   -21.4060   -27.0290    62.5000     8.1150     9.1750    10.2080     2.2500 
  144.7500   141.1740    -9.2650   -21.4520   -27.1300    60.9460     8.7020     9.8510    12.2460     2.3630 
  144.8750   141.2890    -9.2830   -21.4990   -27.0760    61.4580     9.3400    10.5900    14.0540     2.4840 
  145.0000   141.4030    -9.3010   -21.5450   -26.9350    64.7310     9.8130    11.1250    15.3410     2.5550 
  145.1250   141.5180    -9.3190   -21.5910   -26.7660    68.5520     9.9010    11.1800    16.2840     2.5680 
  145.2500   141.6330    -9.3370   -21.6370   -26.6680    68.7330     9.4740    10.6180    16.3690     2.5480 
  145.3750   141.7480    -9.3550   -21.6830   -26.7790    65.9590     8.7390     9.7250    14.6270     2.4920 
  145.5000   141.8620    -9.3730   -21.7290   -27.1240    63.5850     7.8970     8.7480    11.9960     2.3960 
  145.6250   141.9770    -9.3920   -21.7750   -27.6570    64.0140     7.2230     7.9970    10.3210     2.2820 
  145.7500   142.0920    -9.4100   -21.8220   -28.1830    64.1640     6.7340     7.4940     9.5240     2.1910 
  145.8750   142.2070    -9.4290   -21.8680   -28.5280    62.5390     6.4890     7.2820     9.0450     2.1460 
  146.0000   142.3210    -9.4470   -21.9140   -28.7000    62.1660     6.3920     7.2170     8.8320     2.1340 
  146.1250   142.4360    -9.4650   -21.9600   -28.7660    65.3100     6.3700     7.2080     8.7570     2.1310 
  146.2500   142.5510    -9.4840   -22.0060   -28.8410    69.1230     6.3960     7.2230     8.4510     2.1290 
  146.3750   142.6660    -9.5020   -22.0520   -28.8610    68.7720     6.4260     7.2210     8.1240     2.1280 
  146.5000   142.7800    -9.5200   -22.0980   -28.8770    66.3320     6.4500     7.2220     7.9400     2.1290 
  146.6250   142.8950    -9.5390   -22.1440   -28.9200    65.8270     6.4710     7.2390     8.0540     2.1310 
  146.7500   143.0100    -9.5570   -22.1900   -28.9800    66.8640     6.4820     7.2360     8.3040     2.1280 
  146.8750   143.1240    -9.5760   -22.2360   -28.9970    70.2550     6.4740     7.2130     8.3030     2.1240 
  147.0000   143.2390    -9.5950   -22.2820   -29.0050    73.5540     6.4640     7.1900     7.9550     2.1230 
  147.1250   143.3540    -9.6130   -22.3280   -28.9840    74.0040     6.4430     7.1550     7.6610     2.1250 
  147.2500   143.4690    -9.6320   -22.3740   -28.9110    72.4700     6.4210     7.1380     7.7000     2.1230 
  147.3750   143.5830    -9.6500   -22.4200   -28.8430    70.7300     6.4060     7.1350     7.8640     2.1180 
  147.5000   143.6980    -9.6690   -22.4670   -28.8150    70.3230     6.4020     7.1550     7.9230     2.1170 
  147.6250   143.8130    -9.6870   -22.5130   -28.8390    69.4130     6.4050     7.1900     7.9390     2.1220 
  147.7500   143.9270    -9.7060   -22.5590   -28.8710    68.5970     6.4230     7.2380     8.1040     2.1290 
  147.8750   144.0420    -9.7240   -22.6050   -28.8610    68.7150     6.4560     7.3090     8.4730     2.1310 
  148.0000   144.1570    -9.7430   -22.6510   -28.9100    67.6610     6.5390     7.4360     8.8070     2.1320 
  148.1250   144.2710    -9.7620   -22.6970   -28.9460    65.6130     6.6770     7.6300     8.8210     2.1390 
  148.2500   144.3860    -9.7800   -22.7430   -28.9420    63.7250     6.8320     7.8380     8.5770     2.1600 
  148.3750   144.5010    -9.7990   -22.7900   -28.8590    63.7210     6.9850     8.0210     8.3360     2.1890 
  148.5000   144.6150    -9.8170   -22.8360   -28.6890    65.6860     7.0940     8.1270     8.2410     2.2070 
  148.6250   144.7300    -9.8360   -22.8820   -28.4670    67.7890     7.1400     8.1540     8.2810     2.1940 
  148.7500   144.8450    -9.8540   -22.9280   -28.2560    69.0980     7.0990     8.0600     8.4250     2.1600 
  148.8750   144.9590    -9.8730   -22.9750   -28.0870    68.7070     6.9570     7.8680     8.6730     2.1300 
  149.0000   145.0740    -9.8910   -23.0210   -27.9520    67.4420     6.7690     7.6510     8.8070     2.1160 
  149.1250   145.1890    -9.9100   -23.0670   -27.8790    67.4150     6.5710     7.4500     8.6670     2.1180 
  149.2500   145.3030    -9.9280   -23.1130   -27.8150    69.3690     6.4470     7.3320     8.4050     2.1270 
  149.3750   145.4180    -9.9470   -23.1590   -27.7980    71.0700     6.3780     7.2460     8.0650     2.1340 
  149.5000   145.5330    -9.9650   -23.2060   -27.8100    70.5900     6.3790     7.2110     7.8440     2.1370 
  149.6250   145.6470    -9.9840   -23.2520   -27.8480    67.3720     6.4580     7.2720     7.9990     2.1330 
  149.7500   145.7620   -10.0020   -23.2980   -27.8860    64.2600     6.5740     7.3880     8.2590     2.1240 
  149.8750   145.8760   -10.0210   -23.3450   -28.0230    63.2980     6.7140     7.5390     8.4340     2.1230 
  150.0000   145.9910   -10.0390   -23.3910   -28.0540    65.5490     6.8700     7.7280     8.8390     2.1420 
  150.1250   146.1060   -10.0580   -23.4380   -27.7530    68.9070     7.0730     7.9920    10.1670     2.1820 
  150.2500   146.2200   -10.0760   -23.4840   -27.3800    70.8800     7.3120     8.3240    12.5620     2.2270 
  150.3750   146.3350   -10.0940   -23.5300   -27.0220    71.9250     7.5430     8.6390    14.5670     2.2530 
  150.5000   146.4490   -10.1130   -23.5770   -26.7720    72.7210     7.6530     8.7700    14.7770     2.2570 
  150.6250   146.5640   -10.1310   -23.6230   -26.6810    73.5550     7.5110     8.5840    14.1710     2.2440 
  150.7500   146.6780   -10.1490   -23.6700   -26.6980    73.7490     7.1230     8.1000    13.6570     2.2230 
  150.8750   146.7930   -10.1680   -23.7160   -26.7740    73.5830     6.6310     7.5220    12.2240     2.1960 
  151.0000   146.9080   -10.1860   -23.7630   -26.8940    70.9110     6.1540     7.0020    10.2800     2.1730 
  151.1250   147.0220   -10.2050   -23.8090   -27.0160    67.5060     5.8830     6.7590     8.9330     2.1590 
  151.2500   147.1370   -10.2230   -23.8560   -27.0340    69.2450     5.8160     6.7820     8.2300     2.1480 
  151.3750   147.2510   -10.2420   -23.9030   -26.8860    76.7520     5.7900     6.8110     8.2210     2.1380 
  151.5000   147.3660   -10.2600   -23.9490   -26.6150    81.1020     5.7200     6.7120     8.5570     2.1370 
  151.6250   147.4800   -10.2780   -23.9960   -26.3120    78.9170     5.5000     6.3840     8.9100     2.1590 
  151.7500   147.5950   -10.2970   -24.0430   -25.9830    76.8040     5.1420     5.8890     9.1430     2.1950 
  151.8750   147.7090   -10.3150   -24.0890   -25.5730    80.3350     4.7360     5.3870     8.6460     2.2220 
  152.0000   147.8240   -10.3330   -24.1360   -25.1470    87.2490     4.3750     4.9820     7.3880     2.2290 
  152.1250   147.9380   -10.3520   -24.1830   -24.6250    92.6640     4.1160     4.7220     6.2110     2.2230 
  152.2500   148.0520   -10.3700   -24.2300   -24.0260    94.8630     3.9730     4.6030     5.6930     2.2220 
  152.3750   148.1670   -10.3880   -24.2770   -23.4330    94.1530     3.9270     4.5930     5.7070     2.2330 
  152.5000   148.2810   -10.4060   -24.3240   -23.0440    94.8060     3.9120     4.5890     5.7760     2.2490 
  152.6250   148.3960   -10.4250   -24.3710   -22.8650    97.4250     3.8930     4.5360     5.9280     2.2640 
