~V
VERS. 2.00: Ver 2.00
~W
STRT.M 40.0000:
STOP.M 279.0000:
STEP.M 0.1250:
NULL. -999.2500:
UWI. FD11188:
~C
DEPT.M :
TVD. :
DX. :
DY. :
SP.MV :
GR.API :
RI. :
RML.OHMM :
RXO.OHMM :
DEN.GM/CC :
~A
# ...
   58.2500    58.2480    -0.2520     0.0980   -34.6830    65.8680     5.6910     9.3620    10.9460     2.1330 
   58.3750    58.3730    -0.2530     0.1000   -34.4120    65.6540     5.6600     9.2620     7.5580     2.0980 
   58.5000    58.4980    -0.2540     0.1010   -34.1160    65.4480     5.5590     9.0790     6.8820     2.0920 
   58.6250    58.6230    -0.2550     0.1030   -33.8200    64.4140     5.4010     8.8310     8.1230     2.1230 
   58.7500    58.7480    -0.2560     0.1050   -33.5550    65.2510     5.2440     8.6370     9.9710     2.1640 
   58.8750    58.8730    -0.2570     0.1070   -33.3550    70.7000     5.1700     8.5760     9.6620     2.1800 
   59.0000    58.9970    -0.2580     0.1090   -33.2360    77.2440     5.0990     8.5120     7.6520     2.1560 
   59.1250    59.1220    -0.2590     0.1110   -33.2080    79.1000     5.0210     8.4530     7.0100     2.1090 
   59.2500    59.2470    -0.2600     0.1130   -33.2490    75.7090     4.9750     8.4550     7.0610     2.0760 
   59.3750    59.3720    -0.2610     0.1150   -33.3340    71.6580     4.9420     8.4700     6.9150     2.0680 
   59.5000    59.4970    -0.2620     0.1170   -33.4390    69.4440     4.9360     8.4770     7.0660     2.0750 
   59.6250    59.6220    -0.2620     0.1190   -33.5590    69.6320     4.9400     8.4510     7.2030     2.0820 
   59.7500    59.7470    -0.2630     0.1210   -33.7060    71.2020     4.9540     8.4560     7.3400     2.0860 
   59.8750    59.8720    -0.2640     0.1240   -33.8970    72.0390     5.0440     8.6310     7.6980     2.0810 
   60.0000    59.9970    -0.2650     0.1260   -34.1330    71.2020     5.1990     8.9360     7.9690     2.0770 
   60.1250    60.1220    -0.2660     0.1280   -34.4030    69.8730     5.3430     9.2350     7.8610     2.0850 
   60.2500    60.2470    -0.2670     0.1300   -34.6770    68.6850     5.4570     9.4520     7.6620     2.1050 
   60.3750    60.3720    -0.2670     0.1320   -34.9250    66.8840     5.4700     9.4530     8.9060     2.1280 
   60.5000    60.4970    -0.2680     0.1350   -35.1260    65.3870     5.4040     9.3080    12.3440     2.1410 
   60.6250    60.6220    -0.2690     0.1370   -35.2670    66.3910     5.3300     9.1750    13.2180     2.1360 
   60.7500    60.7470    -0.2690     0.1390   -35.3490    68.4300     5.2870     9.1220     9.9000     2.1150 
   60.8750    60.8720    -0.2700     0.1420   -35.3720    67.6000     5.2510     9.1060     8.5840     2.0890 
   61.0000    60.9970    -0.2710     0.1440   -35.3520    65.1860     5.2070     9.0710    10.4460     2.0710 
   61.1250    61.1220    -0.2710     0.1460   -35.3090    65.2620     5.1210     8.9430    10.7960     2.0640 
   61.2500    61.2470    -0.2720     0.1490   -35.2660    67.3020     5.0050     8.7430     8.7990     2.0570 
   61.3750    61.3720    -0.2720     0.1510   -35.2360    66.9680     4.8750     8.5190     7.4310     2.0470 
   61.5000    61.4970    -0.2730     0.1540   -35.2220    63.9880     4.7660     8.3110     7.0170     2.0390 
   61.6250    61.6220    -0.2730     0.1560   -35.2190    63.8880     4.6890     8.1650     6.5970     2.0370 
   61.7500    61.7470    -0.2740     0.1590   -35.2140    67.8280     4.6760     8.1370     6.7370     2.0370 
   61.8750    61.8720    -0.2740     0.1610   -35.1980    71.1000     4.7130     8.1680     7.0760     2.0360 
   62.0000    61.9970    -0.2750     0.1640   -35.1670    69.7400     4.7660     8.2420     6.8780     2.0410 
   62.1250    62.1220    -0.2750     0.1660   -35.1220    65.6930     4.8440     8.3450     6.6180     2.0500 
   62.2500    62.2470    -0.2750     0.1690   -35.0660    63.2390     4.9260     8.4620     6.8430     2.0570 
   62.3750    62.3720    -0.2760     0.1710   -35.0010    62.5590     5.0030     8.6150     7.2700     2.0610 
   62.5000    62.4970    -0.2760     0.1740   -34.9310    62.5200     5.0730     8.7450     7.3080     2.0670 
   62.6250    62.6220    -0.2760     0.1770   -34.8570    64.0020     5.1220     8.8580     7.0930     2.0680 
   62.7500    62.7470    -0.2770     0.1790   -34.7810    65.9780     5.1500     8.9240     6.9300     2.0630 
   62.8750    62.8720    -0.2770     0.1820   -34.7030    64.9070     5.1550     8.9450     6.7560     2.0630 
   63.0000    62.9970    -0.2770     0.1850   -34.6250    60.8610     5.1360     8.9010     6.7480     2.0700 
   63.1250    63.1220    -0.2770     0.1880   -34.5500    58.4020     5.0790     8.7900     6.7820     2.0750 
   63.2500    63.2470    -0.2770     0.1910   -34.4840    59.5080     5.0020     8.6340     6.6870     2.0700 
   63.3750    63.3720    -0.2770     0.1940   -34.4280    61.6260     4.9100     8.4590     6.6270     2.0570 
   63.5000    63.4970    -0.2770     0.1960   -34.3820    62.6400     4.8300     8.2840     6.7180     2.0490 
   63.6250    63.6220    -0.2770     0.1990   -34.3490    63.3580     4.7780     8.1090     6.9040     2.0510 
   63.7500    63.7470    -0.2770     0.2030   -34.3360    64.3890     4.7360     7.8510     6.9070     2.0570 
   63.8750    63.8710    -0.2770     0.2060   -34.3620    65.6360     4.6910     7.5220     6.8440     2.0640 
   64.0000    63.9960    -0.2760     0.2090   -34.4390    65.8830     4.6270     7.1260     6.8610     2.0640 
   64.1250    64.1210    -0.2750     0.2120   -34.5800    67.0710     4.5820     6.7820     6.7180     2.0580 
   64.2500    64.2460    -0.2740     0.2150   -34.7600    68.8540     4.5860     6.5800     6.6450     2.0550 
   64.3750    64.3710    -0.2730     0.2180   -34.9380    70.1920     4.6480     6.4900     6.7790     2.0570 
   64.5000    64.4960    -0.2730     0.2210   -35.0630    69.8860     4.7390     6.4630     6.8540     2.0580 
   64.6250    64.6210    -0.2720     0.2240   -35.0950    68.4130     4.8180     6.3990     7.0820     2.0490 
   64.7500    64.7460    -0.2700     0.2280   -35.0440    65.9170     4.8470     6.2450     7.2840     2.0420 
   64.8750    64.8710    -0.2690     0.2310   -34.9410    62.5920     4.8070     6.0240     6.9490     2.0410 
   65.0000    64.9960    -0.2680     0.2340   -34.8320    61.1760     4.7140     5.7650     6.6660     2.0430 
   65.1250    65.1210    -0.2670     0.2380   -34.7550    61.3240     4.6070     5.5280     6.7430     2.0420 
   65.2500    65.2460    -0.2660     0.2410   -34.7220    61.5900     4.5170     5.3550     6.7670     2.0350 
   65.3750    65.3710    -0.2650     0.2450   -34.7360    61.6180     4.4770     5.2600     6.9340     2.0350 
   65.5000    65.4960    -0.2640     0.2480   -34.7730    61.4010     4.4690     5.2150     7.1820     2.0460 
   65.6250    65.6210    -0.2630     0.2520   -34.8050    60.5650     4.4570     5.1770     7.0130     2.0560 
   65.7500    65.7460    -0.2610     0.2550   -34.8110    60.3230     4.4440     5.1480     6.6370     2.0560 
   65.8750    65.8710    -0.2600     0.2590   -34.7840    61.2220     4.4270     5.1190     6.4160     2.0490 
   66.0000    65.9960    -0.2590     0.2630   -34.7400    62.6680     4.4070     5.0810     6.4020     2.0450 
   66.1250    66.1210    -0.2570     0.2660   -34.7090    63.7690     4.3700     5.0260     6.7850     2.0490 
   66.2500    66.2450    -0.2560     0.2700   -34.7170    66.6260     4.3250     4.9730     7.5090     2.0620 
   66.3750    66.3700    -0.2550     0.2740   -34.7870    70.6380     4.2820     4.9230     8.1000     2.0720 
   66.5000    66.4950    -0.2530     0.2780   -34.9220    73.3820     4.2510     4.8850     7.9660     2.0660 
   66.6250    66.6200    -0.2520     0.2820   -35.1200    73.5960     4.2500     4.8720     7.3710     2.0500 
   66.7500    66.7450    -0.2500     0.2860   -35.3610    72.4660     4.2680     4.8760     7.3560     2.0410 
   66.8750    66.8700    -0.2480     0.2900   -35.6230    71.5710     4.2830     4.8840     7.7600     2.0370 
   67.0000    66.9950    -0.2470     0.2940   -35.8840    69.9480     4.3560     4.9500     7.7370     2.0350 
   67.1250    67.1200    -0.2450     0.2980   -36.1320    66.9030     4.5080     5.1070     7.3150     2.0500 
   67.2500    67.2450    -0.2430     0.3020   -36.3730    63.9320     4.7360     5.3600     7.4540     2.0900 
