~V
VERS. 2.00: Ver 2.00
~W
STRT.M 20.0000:
STOP.M 277.0000:
STEP.M 0.1250:
NULL. -999.2500:
UWI. FD11024:
~C
DEPT.M :
TVD. :
DX. :
DY. :
DEN.GM/CC :
GR.API :
RML.OHMM :
RI. :
RXO.OHMM :
CALI.CM :
SP.MV :
~A
# ...
  168.5000   166.2580    12.2030    17.9580     2.2830    78.4470    16.9760    14.8830     8.7500    20.4310    -2.1400 
  168.6250   166.3780    12.2240    17.9860     2.2920    78.7030    17.1480    14.8840     8.7890    20.4310    -2.3050 
  168.7500   166.4980    12.2440    18.0130     2.2980    73.6340    17.7380    15.2420     9.0560    20.4310    -2.4980 
  168.8750   166.6190    12.2640    18.0410     2.3010    70.3080    18.7680    15.9880     8.9460    20.4310    -2.7320 
  169.0000   166.7390    12.2840    18.0680     2.3000    72.7410    20.2510    17.1350     8.4790    20.4310    -3.0020 
  169.1250   166.8590    12.3040    18.0960     2.2900    77.0790    22.2190    18.7320     8.1980    20.4310    -3.3230 
  169.2500   166.9790    12.3240    18.1230     2.2740    77.6980    24.4890    20.6550     8.4040    20.4310    -3.6750 
  169.3750   167.1000    12.3440    18.1510     2.2550    76.3210    26.8550    22.7630     8.7620    20.4310    -4.0580 
  169.5000   167.2200    12.3640    18.1780     2.2390    77.1750    28.9660    24.7620     9.0480    20.4310    -4.4820 
  169.6250   167.3400    12.3840    18.2060     2.2340    79.4510    30.1440    26.0250    10.0430    20.4310    -4.9110 
  169.7500   167.4600    12.4040    18.2330     2.2400    78.9110    30.0930    26.1870    10.9050    20.4300    -5.3710 
  169.8750   167.5810    12.4250    18.2610     2.2570    74.6040    28.8100    25.1660    11.2170    20.4240    -5.8260 
  170.0000   167.7010    12.4450    18.2880     2.2810    71.8640    26.7290    23.2950    10.4990    20.4310    -6.2900 
  170.1250   167.8210    12.4650    18.3160     2.3070    75.8570    24.8230    21.3490     9.4200    20.4840    -6.7470 
  170.2500   167.9420    12.4850    18.3430     2.3260    80.2240    24.1550    20.1710     8.3930    20.5770    -7.2220 
  170.3750   168.0620    12.5050    18.3700     2.3310    80.5720    25.7110    20.3990     7.7580    20.5910    -7.7020 
  170.5000   168.1820    12.5250    18.3980     2.3180    75.5450    30.6790    22.8380     7.3640    20.5840    -8.2030 
  170.6250   168.3020    12.5450    18.4250     2.2880    69.2520    41.7700    29.8440     7.4090    20.5830    -8.7250 
  170.7500   168.4230    12.5650    18.4530     2.2560    63.6920    60.4230    43.2470     8.1490    20.6340    -9.2600 
  170.8750   168.5430    12.5850    18.4800     2.2310    58.9560    88.7190    65.0790     9.1980    20.6670    -9.8130 
  171.0000   168.6630    12.6050    18.5080     2.2150    55.2620   127.1640    95.4000    10.1060    20.6640   -10.3410 
  171.1250   168.7840    12.6260    18.5350     2.2080    53.3610   170.0120   128.9190    10.8970    20.6700   -10.8390 
  171.2500   168.9040    12.6460    18.5630     2.2020    52.7710   203.0620   155.2480    10.6050    20.6710   -11.2890 
  171.3750   169.0240    12.6660    18.5900     2.1930    52.8020   220.4430   170.4680     9.7080    20.6720   -11.6780 
  171.5000   169.1440    12.6860    18.6180     2.1810    53.4070   228.8730   178.6920     8.9380    20.6730   -11.9980 
  171.6250   169.2650    12.7060    18.6450     2.1680    55.1580   238.2470   186.5150     8.7490    20.6810   -12.2580 
  171.7500   169.3850    12.7260    18.6730     2.1590    56.8020   249.6080   195.5790     9.0310    20.6770   -12.4570 
  171.8750   169.5050    12.7460    18.7000     2.1540    57.4760   258.7380   203.4150     9.6850    20.6500   -12.5870 
  172.0000   169.6250    12.7660    18.7270     2.1560    55.7240   260.6660   206.6350    10.3840    20.5580   -12.7020 
  172.1250   169.7460    12.7860    18.7550     2.1630    52.6170   251.0200   201.4960    11.1360    20.4520   -12.7800 
  172.2500   169.8660    12.8060    18.7820     2.1740    52.3070   234.8390   190.4820    11.6930    20.4350   -12.8710 
  172.3750   169.9860    12.8270    18.8100     2.1840    56.0640   218.6580   178.0060    11.7350    20.4310   -12.9610 
  172.5000   170.1060    12.8490    18.8380     2.1910    62.1370   207.9630   168.8220    11.3900    20.4310   -13.0520 
  172.6250   170.2260    12.8700    18.8660     2.1940    64.7170   206.6470   167.1160    11.4260    20.4310   -13.1320 
  172.7500   170.3460    12.8910    18.8940     2.1920    63.7250   212.6330   171.9990    11.8880    20.4310   -13.1780 
  172.8750   170.4660    12.9120    18.9220     2.1900    62.2910   222.8870   181.3080    12.4220    20.4310   -13.1920 
  173.0000   170.5860    12.9330    18.9500     2.1890    61.8840   232.2210   191.0400    12.7280    20.4310   -13.1820 
  173.1250   170.7060    12.9540    18.9780     2.1910    60.8510   231.9860   194.3810    13.0030    20.4310   -13.1400 
  173.2500   170.8260    12.9750    19.0060     2.1940    57.3680   219.7360   188.2510    12.6500    20.4310   -13.0550 
  173.3750   170.9460    12.9960    19.0340     2.1970    54.0990   198.2450   173.5900    12.1290    20.4310   -12.9290 
  173.5000   171.0660    13.0170    19.0620     2.1980    55.0730   172.9710   154.2570    12.8030    20.4270   -12.7690 
  173.6250   171.1860    13.0380    19.0890     2.1970    59.5960   148.5030   134.2010    13.7690    20.4120   -12.5760 
  173.7500   171.3060    13.0590    19.1170     2.1990    63.7190   126.8350   115.7280    13.3580    20.4090   -12.3980 
  173.8750   171.4260    13.0800    19.1450     2.2070    66.0360   109.0180    99.8430    12.8550    20.4180   -12.2110 
  174.0000   171.5460    13.1010    19.1730     2.2210    67.7450    95.9250    87.3640    12.9370    20.3880   -12.0150 
  174.1250   171.6660    13.1220    19.2010     2.2390    71.4220    89.1820    79.8210    13.2850    20.2320   -11.8190 
  174.2500   171.7860    13.1440    19.2290     2.2540    75.6640    88.3130    77.1900    13.7480    20.2070   -11.5950 
  174.3750   171.9060    13.1650    19.2570     2.2610    76.9020    93.3960    79.7880    14.7730    20.1440   -11.3710 
  174.5000   172.0260    13.1860    19.2850     2.2590    71.6150   111.4170    87.5050    16.9090    20.0650   -11.1320 
  174.6250   172.1460    13.2070    19.3130     2.2480    63.6300   128.2820    99.8980    17.4460    19.9230   -10.8950 
  174.7500   172.2660    13.2280    19.3410     2.2340    60.7330   146.5090   113.6870    17.8550    19.9010   -10.6540 
  174.8750   172.3860    13.2490    19.3690     2.2210    61.4040   161.6920   125.4240    16.8770    19.8960   -10.4230 
  175.0000   172.5060    13.2700    19.3970     2.2090    62.1320   170.1190   132.2010    16.2910    19.8940   -10.1640 
  175.1250   172.6260    13.2910    19.4240     2.2030    61.5540   171.0330   133.0980    15.6440    19.8840    -9.9450 
  175.2500   172.7460    13.3120    19.4520     2.1990    60.8130   169.3250   131.6380    16.0070    19.8740    -9.7250 
  175.3750   172.8660    13.3330    19.4800     2.1990    59.2120   167.3800   129.8120    16.7420    19.8700    -9.5250 
  175.5000   172.9860    13.3540    19.5080     2.1990    56.9400   165.0380   127.7610    18.3380    19.8620    -9.3420 
  175.6250   173.1060    13.3750    19.5360     2.1990    56.1890   160.1980   124.0080    21.9740    20.0120    -9.2100 
  175.7500   173.2260    13.3960    19.5640     2.1990    56.8120   152.3090   117.9470    24.6640    20.0330    -9.0530 
  175.8750   173.3460    13.4180    19.5920     2.2000    59.0620   142.3530   110.0930    22.7980    20.0390    -8.9240 
  176.0000   173.4660    13.4390    19.6200     2.2030    62.8710   132.4930   101.9500    20.2530    20.0390    -8.8190 
  176.1250   173.5860    13.4600    19.6480     2.2090    65.0280   125.2820    95.5580    22.3030    20.0390    -8.6960 
  176.2500   173.7060    13.4810    19.6760     2.2150    63.7120   120.8680    91.3650    21.9080    20.0390    -8.5950 
  176.3750   173.8260    13.5020    19.7040     2.2200    60.8880   118.5210    88.9420    21.3430    20.0390    -8.4880 
  176.5000   173.9460    13.5230    19.7320     2.2220    61.0800   117.2650    87.5490    19.7070    20.0390    -8.3880 
  176.6250   174.0660    13.5440    19.7590     2.2190    64.2940   116.4720    86.7200    18.5100    20.0330    -8.2680 
