~V
VERS. 2.00: Ver 2.00
~W
STRT.M 10.0000:
STOP.M 230.0000:
STEP.M 0.1250:
NULL. -999.2500:
UWI. FD11119:
~C
DEPT.M :
TVD. :
DX. :
DY. :
SP.MV :
DEN.GM/CC :
GR.API :
RML.OHMM :
RI. :
RXO.OHMM :
CALI.CM :
~A
# ...
   76.0000    75.9380    -1.4980    -0.5040   -16.3270     2.2180   102.9630     5.6930     3.9870     4.9640    23.5190 
   76.1250    76.0620    -1.5130    -0.5080   -16.8910     2.2650   101.6220     6.1040     4.1750     4.8430    23.5190 
   76.2500    76.1860    -1.5280    -0.5130   -17.7640     2.2930    95.5690     6.8960     4.6390     4.9450    23.5180 
   76.3750    76.3090    -1.5440    -0.5170   -18.8980     2.3040    85.9650     8.0120     5.3730     5.5630    23.5080 
   76.5000    76.4330    -1.5590    -0.5220   -20.2200     2.3080    75.6050     9.2610     6.2930     7.4120    23.4520 
   76.6250    76.5570    -1.5740    -0.5260   -21.6480     2.3160    69.2730    10.1940     7.1270     9.6310    23.1810 
   76.7500    76.6810    -1.5890    -0.5310   -23.0520     2.3250    66.1750    10.4790     7.5600     8.7830    23.0000 
   76.8750    76.8050    -1.6040    -0.5350   -24.3500     2.3220    63.3350    10.1120     7.4800     7.6740    23.1360 
   77.0000    76.9290    -1.6190    -0.5400   -25.5110     2.2970    59.0720     9.4200     7.0450     7.2810    23.2910 
   77.1250    77.0530    -1.6350    -0.5440   -26.4420     2.2500    54.0290     8.8560     6.5560     7.3770    23.4090 
   77.2500    77.1770    -1.6500    -0.5490   -27.1260     2.1990    52.3930     8.6140     6.2410     7.5010    23.4270 
   77.3750    77.3010    -1.6650    -0.5530   -27.5570     2.1590    54.2930     8.6650     6.1470     7.6110    23.4310 
   77.5000    77.4250    -1.6800    -0.5580   -27.7810     2.1350    56.6370     8.8760     6.2130     7.7150    23.4270 
   77.6250    77.5490    -1.6950    -0.5620   -27.8130     2.1330    56.1600     9.0770     6.3280     7.6970    23.4050 
   77.7500    77.6730    -1.7100    -0.5670   -27.8150     2.1420    55.6510     9.1640     6.3930     7.5020    23.3610 
   77.8750    77.7970    -1.7260    -0.5710   -27.7930     2.1570    57.9410     9.1140     6.3800     7.4420    23.3530 
   78.0000    77.9210    -1.7410    -0.5760   -27.7440     2.1670    61.1700     8.9700     6.3020     7.5850    23.3460 
   78.1250    78.0450    -1.7560    -0.5800   -27.7760     2.1640    61.1770     8.8070     6.1910     7.7810    23.3520 
   78.2500    78.1690    -1.7710    -0.5850   -27.8630     2.1510    59.4480     8.6870     6.0950     7.9980    23.3520 
   78.3750    78.2930    -1.7860    -0.5890   -28.0410     2.1340    58.0930     8.6240     6.0410     8.2440    23.3480 
   78.5000    78.4170    -1.8010    -0.5940   -28.3480     2.1230    57.1750     8.6120     6.0390     8.4880    23.3520 
   78.6250    78.5410    -1.8170    -0.5980   -28.7980     2.1260    56.5710     8.6580     6.0980     8.4030    23.3500 
   78.7500    78.6650    -1.8320    -0.6030   -29.2990     2.1400    56.4560     8.7580     6.1960     8.2720    23.3480 
   78.8750    78.7890    -1.8470    -0.6080   -29.8840     2.1580    56.5200     8.8920     6.3060     8.6590    23.3470 
   79.0000    78.9130    -1.8620    -0.6120   -30.4950     2.1710    56.7160     9.0090     6.3920     9.2990    23.3520 
   79.1250    79.0370    -1.8770    -0.6170   -31.0690     2.1670    56.1340     9.0440     6.3980     9.5960    23.3480 
   79.2500    79.1610    -1.8920    -0.6210   -31.5910     2.1500    54.0490     8.9990     6.3270     9.5310    23.3150 
   79.3750    79.2850    -1.9080    -0.6260   -32.0350     2.1280    52.1420     8.9070     6.2140     9.4340    23.1570 
   79.5000    79.4090    -1.9230    -0.6300   -32.3560     2.1120    52.1660     8.8150     6.1080     9.0550    22.9770 
   79.6250    79.5330    -1.9380    -0.6350   -32.5240     2.1100    53.8930     8.7500     6.0550     8.9140    22.8760 
   79.7500    79.6570    -1.9530    -0.6390   -32.5420     2.1160    55.6380     8.6790     6.0430     8.9430    22.8140 
   79.8750    79.7810    -1.9680    -0.6440   -32.4320     2.1230    57.6850     8.5720     6.0420     8.9820    22.8040 
   80.0000    79.9050    -1.9830    -0.6480   -32.2210     2.1220    59.2830     8.4220     6.0240     9.0460    22.8030 
   80.1250    80.0290    -1.9990    -0.6530   -31.9040     2.1090    57.9920     8.2380     5.9660     8.9060    22.7890 
   80.2500    80.1530    -2.0140    -0.6570   -31.5530     2.0950    55.9230     8.0570     5.8760     8.4780    22.7220 
   80.3750    80.2770    -2.0290    -0.6620   -31.1650     2.0850    55.3780     7.9180     5.7760     8.1310    22.5600 
   80.5000    80.4010    -2.0440    -0.6660   -30.7310     2.0830    56.9010     7.8490     5.6860     8.0950    22.4940 
   80.6250    80.5250    -2.0590    -0.6710   -30.2870     2.0900    57.6100     7.8610     5.6320     8.2740    22.4840 
   80.7500    80.6490    -2.0750    -0.6750   -29.8610     2.0970    57.0330     7.9280     5.6190     8.6100    22.4840 
   80.8750    80.7730    -2.0900    -0.6800   -29.4580     2.1000    58.2670     8.0210     5.6390     9.0730    22.4840 
   81.0000    80.8970    -2.1050    -0.6840   -29.1500     2.0980    61.3370     8.1030     5.6720     9.2390    22.4840 
   81.1250    81.0210    -2.1200    -0.6890   -28.9360     2.0940    62.0290     8.1290     5.7000     9.0240    22.4740 
   81.2500    81.1450    -2.1350    -0.6930   -28.7960     2.0920    59.3650     8.0940     5.7110     8.8370    22.4180 
   81.3750    81.2690    -2.1500    -0.6980   -28.7050     2.0960    56.9160     7.9980     5.7070     8.8280    22.3110 
   81.5000    81.3930    -2.1660    -0.7020   -28.6490     2.1050    57.0320     7.8680     5.7010     8.9110    22.3240 
   81.6250    81.5170    -2.1810    -0.7070   -28.5850     2.1160    59.0330     7.7620     5.7100     9.0720    22.3270 
   81.7500    81.6410    -2.1960    -0.7110   -28.5780     2.1210    60.5730     7.7230     5.7530     9.2270    22.3300 
   81.8750    81.7650    -2.2110    -0.7160   -28.5580     2.1190    60.0630     7.7600     5.8370     9.2820    22.3290 
   82.0000    81.8890    -2.2260    -0.7200   -28.4770     2.1090    57.8850     7.8640     5.9580     9.3550    22.3210 
   82.1250    82.0130    -2.2410    -0.7250   -28.3030     2.0970    57.4910     8.0020     6.1120     9.4310    22.2570 
   82.2500    82.1370    -2.2570    -0.7290   -27.9980     2.0870    59.4630     8.1320     6.2690     9.6440    22.0820 
   82.3750    82.2610    -2.2720    -0.7340   -27.5600     2.0810    59.1590     8.2250     6.3890     9.8300    21.9560 
   82.5000    82.3850    -2.2870    -0.7380   -26.9870     2.0800    54.5550     8.2330     6.4270     9.6270    21.9330 
   82.6250    82.5090    -2.3020    -0.7430   -26.2500     2.0850    53.2610     8.0580     6.3150     9.2400    21.9330 
   82.7500    82.6330    -2.3170    -0.7470   -25.3670     2.0960    60.8550     7.7210     6.0780     9.0120    21.9330 
   82.8750    82.7570    -2.3320    -0.7520   -24.4280     2.1180    71.4020     7.3170     5.7710     8.5500    21.9330 
   83.0000    82.8800    -2.3520    -0.7580   -23.5020     2.1510    77.7180     6.9770     5.4800     7.5900    21.9330 
   83.1250    83.0030    -2.3730    -0.7640   -22.6760     2.1920    79.8130     6.8380     5.3140     6.5640    21.9330 
   83.2500    83.1260    -2.3940    -0.7700   -21.9170     2.2250    80.3330     6.8550     5.2740     6.4120    21.9400 
   83.3750    83.2490    -2.4150    -0.7760   -21.2000     2.2360    77.5380     6.8910     5.2880     7.2710    22.0060 
   83.5000    83.3720    -2.4360    -0.7820   -20.5410     2.2200    72.9920     6.8010     5.2500     8.3620    22.3230 
   83.6250    83.4950    -2.4580    -0.7890   -20.0490     2.1840    75.2640     6.6030     5.1010     8.6640    23.0760 
   83.7500    83.6180    -2.4790    -0.7950   -19.7350     2.1520    85.1730     6.5810     4.9790     7.5420    23.0610 
   83.8750    83.7410    -2.5000    -0.8010   -19.6630     2.1450    95.6120     6.9990     5.0650     6.0440    22.6140 
   84.0000    83.8640    -2.5210    -0.8070   -19.8020     2.1800    96.7750     7.9980     5.5040     5.4250    22.4250 
   84.1250    83.9870    -2.5420    -0.8130   -20.1690     2.2640    86.5700     9.5690     6.4140     6.3270    22.3960 
