~V
VERS. 2.00: Ver 2.00
~W
STRT.M 20.0000:
STOP.M 292.0000:
STEP.M 0.1250:
NULL. -999.2500:
UWI. FD11146:
~C
DEPT.M :
TVD. :
DX. :
DY. :
GR.API :
RML.OHMM :
RI. :
RXO.OHMM :
CALI.CM :
SP.MV :
DEN.GM/CC :
~A
# ...
  143.7500   141.4580    14.3400   -13.4500    72.9640    22.0380    20.4820    15.0410    23.7300   -13.8230     2.4180 
  143.8750   141.5770    14.3670   -13.4800    71.7080    21.9680    20.3450    14.8960    23.5960   -13.8770     2.4350 
  144.0000   141.6950    14.3940   -13.5100    72.3700    22.0940    20.3820    14.7370    23.4920   -13.8990     2.4640 
  144.1250   141.8140    14.4210   -13.5400    73.6080    22.3910    20.5710    15.2080    23.4590   -13.8970     2.4870 
  144.2500   141.9320    14.4470   -13.5690    74.6360    22.7490    20.8130    16.3840    23.4550   -13.8810     2.4990 
  144.3750   142.0510    14.4740   -13.5990    75.0300    23.0860    21.0540    16.8480    23.4580   -13.8270     2.5010 
  144.5000   142.1690    14.5010   -13.6290    74.4530    23.3320    21.2710    16.4690    23.4760   -13.7460     2.4960 
  144.6250   142.2880    14.5270   -13.6580    71.1020    23.4460    21.4700    15.3370    23.5180   -13.6590     2.4910 
  144.7500   142.4060    14.5540   -13.6880    67.9480    23.4850    21.6780    14.9290    23.5300   -13.5540     2.4960 
  144.8750   142.5250    14.5810   -13.7180    67.7040    23.5050    21.9050    15.1610    23.4560   -13.4350     2.5180 
  145.0000   142.6430    14.6080   -13.7470    69.3210    23.5410    22.1390    15.8520    23.3570   -13.3130     2.5500 
  145.1250   142.7610    14.6340   -13.7770    69.1120    23.4860    22.2630    15.9580    23.3160   -13.1730     2.5680 
  145.2500   142.8800    14.6610   -13.8070    67.6630    23.0110    21.9870    15.5680    23.3220   -13.0140     2.5610 
  145.3750   142.9980    14.6880   -13.8360    69.6520    21.6640    20.8940    15.4570    23.3470   -12.8320     2.5280 
  145.5000   143.1170    14.7140   -13.8660    73.4360    19.2150    18.7480    15.0000    23.3520   -12.6230     2.4800 
  145.6250   143.2350    14.7410   -13.8960    72.4890    15.8900    15.7580    13.0870    23.3400   -12.3810     2.4340 
  145.7500   143.3540    14.7680   -13.9250    70.9480    12.5690    12.7690    10.4450    23.3790   -12.1010     2.4010 
  145.8750   143.4720    14.7950   -13.9550    73.0680     9.8390    10.2980     8.1590    23.4900   -11.7990     2.3820 
  146.0000   143.5910    14.8210   -13.9850    75.7340     7.9760     8.5490     7.0100    23.6540   -11.5000     2.3780 
  146.1250   143.7090    14.8480   -14.0140    74.7820     7.0580     7.5700     6.9530    23.8340   -11.2270     2.3850 
  146.2500   143.8270    14.8750   -14.0440    74.1980     6.7070     7.0620     7.3680    23.9390   -10.9660     2.3900 
  146.3750   143.9460    14.9010   -14.0740    74.4250     6.6720     6.8440     7.4770    23.9850   -10.7420     2.3840 
  146.5000   144.0640    14.9280   -14.1030    73.3540     6.7180     6.7580     6.8960    24.0180   -10.5660     2.3690 
  146.6250   144.1830    14.9550   -14.1330    73.8490     6.6720     6.6900     6.2750    24.0190   -10.4550     2.3560 
  146.7500   144.3010    14.9820   -14.1630    75.0940     6.5570     6.6110     5.9280    23.9730   -10.4110     2.3480 
  146.8750   144.4200    15.0080   -14.1920    74.4610     6.4750     6.5560     5.8480    23.8910   -10.4400     2.3490 
  147.0000   144.5380    15.0350   -14.2220    74.0860     6.4990     6.5560     5.9120    23.8380   -10.5110     2.3580 
  147.1250   144.6570    15.0620   -14.2520    76.9890     6.6350     6.6170     6.0150    23.8260   -10.6110     2.3700 
  147.2500   144.7750    15.0890   -14.2810    80.1450     6.7910     6.6910     6.0870    23.8400   -10.7460     2.3730 
  147.3750   144.8940    15.1150   -14.3110    79.4370     6.8920     6.7330     6.0850    23.8740   -10.8820     2.3660 
  147.5000   145.0120    15.1420   -14.3410    76.1760     6.8940     6.7100     6.1240    23.9110   -10.9940     2.3540 
  147.6250   145.1300    15.1690   -14.3700    73.6620     6.8130     6.6180     6.1610    23.9350   -11.0650     2.3440 
  147.7500   145.2490    15.1950   -14.4000    74.5690     6.7240     6.5060     6.0200    23.9120   -11.1030     2.3370 
  147.8750   145.3670    15.2220   -14.4300    78.5530     6.6560     6.4010     5.8380    23.8650   -11.0820     2.3330 
  148.0000   145.4860    15.2490   -14.4590    81.6780     6.6010     6.3090     5.7910    23.8330   -10.9940     2.3350 
  148.1250   145.6040    15.2760   -14.4890    79.7130     6.5140     6.2030     5.9120    23.8290   -10.8290     2.3380 
  148.2500   145.7230    15.3020   -14.5190    76.9270     6.3550     6.0540     6.1260    23.8450   -10.5940     2.3400 
  148.3750   145.8410    15.3290   -14.5480    77.9130     6.1060     5.8530     6.2070    23.8730   -10.3080     2.3390 
  148.5000   145.9600    15.3560   -14.5780    81.9300     5.7920     5.6170     5.9480    23.8930    -9.9990     2.3350 
  148.6250   146.0780    15.3820   -14.6080    83.6360     5.4800     5.3840     5.5420    23.8930    -9.6900     2.3300 
  148.7500   146.1960    15.4090   -14.6370    82.9800     5.2400     5.1920     5.2930    23.8790    -9.4100     2.3310 
  148.8750   146.3150    15.4360   -14.6670    83.8610     5.1170     5.0690     5.1760    23.8550    -9.1610     2.3400 
  149.0000   146.4330    15.4630   -14.6970    85.0120     5.1250     5.0230     5.1970    23.8340    -8.9670     2.3500 
  149.1250   146.5520    15.4890   -14.7260    83.9420     5.2570     5.0580     5.2280    23.8260    -8.8300     2.3520 
  149.2500   146.6700    15.5160   -14.7560    82.0620     5.4420     5.1400     5.2100    23.8250    -8.7410     2.3520 
  149.3750   146.7890    15.5430   -14.7860    79.8970     5.6400     5.2420     5.2320    23.8260    -8.6940     2.3500 
  149.5000   146.9070    15.5690   -14.8150    76.6820     5.8140     5.3420     5.3830    23.8290    -8.6930     2.3480 
  149.6250   147.0260    15.5960   -14.8450    73.7140     5.9220     5.4140     5.6180    23.8290    -8.7670     2.3470 
  149.7500   147.1440    15.6230   -14.8750    73.9820     5.9590     5.4470     5.8300    23.8160    -8.8760     2.3490 
  149.8750   147.2630    15.6500   -14.9050    76.0570     5.9330     5.4410     5.9340    23.7840    -9.0110     2.3530 
  150.0000   147.3810    15.6760   -14.9340    78.2570     5.8700     5.4040     5.8270    23.7520    -9.1630     2.3590 
  150.1250   147.4990    15.7030   -14.9640    79.3690     5.8260     5.3590     5.6620    23.7390    -9.3240     2.3650 
  150.2500   147.6180    15.7300   -14.9940    78.2790     5.8480     5.3390     5.6210    23.7250    -9.4950     2.3720 
  150.3750   147.7360    15.7560   -15.0230    74.2550     5.9530     5.3630     5.5840    23.7000    -9.6710     2.3740 
  150.5000   147.8550    15.7830   -15.0530    70.8640     6.1270     5.4380     5.6160    23.6820    -9.8220     2.3690 
  150.6250   147.9730    15.8100   -15.0830    69.7650     6.3220     5.5500     5.7630    23.6850    -9.9030     2.3580 
  150.7500   148.0920    15.8370   -15.1120    68.9130     6.4560     5.6510     5.8790    23.6970    -9.9250     2.3500 
  150.8750   148.2100    15.8630   -15.1420    69.7530     6.4730     5.7030     5.9660    23.6900    -9.9030     2.3490 
  151.0000   148.3290    15.8900   -15.1720    72.7750     6.3630     5.6770     6.0060    23.6770    -9.8340     2.3500 
  151.1250   148.4470    15.9170   -15.2010    75.0890     6.1590     5.5700     5.9140    23.6690    -9.7320     2.3480 
  151.2500   148.5650    15.9440   -15.2310    75.5150     5.9510     5.4320     5.7860    23.6690    -9.6140     2.3440 
  151.3750   148.6840    15.9700   -15.2610    77.4380     5.7940     5.3080     5.6110    23.6690    -9.4920     2.3440 
  151.5000   148.8020    15.9970   -15.2900    80.4330     5.7160     5.2270     5.4980    23.6690    -9.3820     2.3490 
  151.6250   148.9210    16.0240   -15.3200    80.8710     5.7290     5.2030     5.5150    23.6690    -9.2920     2.3540 
  151.7500   149.0390    16.0500   -15.3500    80.8610     5.8020     5.2160     5.5920    23.6690    -9.2140     2.3560 
  151.8750   149.1580    16.0770   -15.3790    81.8530     5.9090     5.2490     5.6350    23.6690    -9.1550     2.3530 
