~V
VERS. 2.00: Ver 2.00
~W
STRT.M 11.0000:
STOP.M 273.0000:
STEP.M 0.1250:
NULL. -999.2500:
UWI. FD11023:
~C
DEPT.M :
TVD. :
DX. :
DY. :
GR.API :
RML.OHMM :
RI. :
RXO.OHMM :
CALI.CM :
DEN.GM/CC :
SP.MV :
~A
# ...
   35.7500    35.7500    -0.0670    -0.0460    41.6710    17.6400    11.8360    11.8500    26.8700     2.0310   -21.4730 
   35.8750    35.8750    -0.0670    -0.0470    43.4310    17.1090    11.5590    11.1980    26.6380     2.0530   -21.2920 
   36.0000    36.0000    -0.0680    -0.0470    47.2390    16.4000    11.1560    10.4030    26.3350     2.0790   -21.1110 
   36.1250    36.1250    -0.0680    -0.0470    49.5480    15.4760    10.5840    10.1850    26.0630     2.1010   -20.9350 
   36.2500    36.2500    -0.0690    -0.0480    50.7570    14.5040     9.9500    10.0190    25.8530     2.1090   -20.7600 
   36.3750    36.3750    -0.0690    -0.0480    52.7660    13.6840     9.3790     9.7980    25.6500     2.1040   -20.5990 
   36.5000    36.5000    -0.0700    -0.0490    55.8460    13.2200     9.0000     9.6630    25.3400     2.0890   -20.4770 
   36.6250    36.6250    -0.0700    -0.0490    58.4640    13.3330     8.9540     9.6310    24.9730     2.0580   -20.3870 
   36.7500    36.7500    -0.0710    -0.0490    60.7800    13.9150     9.2070     9.8550    24.6860     2.0110   -20.3250 
   36.8750    36.8750    -0.0720    -0.0500    64.4910    14.8080     9.6910    10.3370    24.6700     1.9630   -20.2770 
   37.0000    37.0000    -0.0720    -0.0500    68.6680    15.7770    10.2890    11.0210    24.9260     1.9370   -20.2320 
   37.1250    37.1250    -0.0730    -0.0500    68.4120    16.5210    10.8300    11.6870    25.3150     1.9370   -20.1970 
   37.2500    37.2500    -0.0730    -0.0510    64.3940    16.9240    11.1980    11.6870    25.5470     1.9470   -20.1700 
   37.3750    37.3750    -0.0740    -0.0510    60.5620    17.0310    11.3700    11.6870    25.6110     1.9540   -20.1630 
   37.5000    37.5000    -0.0740    -0.0520    59.2800    16.9850    11.3910    11.6690    25.5990     1.9570   -20.1870 
   37.6250    37.6250    -0.0750    -0.0520    57.4500    16.9280    11.3260    11.6290    25.5850     1.9540   -20.2260 
   37.7500    37.7500    -0.0750    -0.0520    54.2940    16.8660    11.2130    11.5200    25.5950     1.9520   -20.2610 
   37.8750    37.8750    -0.0760    -0.0530    52.7540    16.6660    11.0110    11.2610    25.6990     1.9580   -20.2540 
   38.0000    38.0000    -0.0760    -0.0530    55.8400    16.1460    10.6380    10.9440    25.9760     1.9740   -20.1760 
   38.1250    38.1250    -0.0770    -0.0530    60.4060    15.1460    10.0070    10.4010    26.3380     1.9930   -20.0310 
   38.2500    38.2500    -0.0770    -0.0540    61.2670    13.8510     9.2090     9.8040    26.5240     2.0120   -19.8410 
   38.3750    38.3750    -0.0780    -0.0540    58.4290    12.4950     8.3650     9.1480    26.5680     2.0330   -19.6430 
   38.5000    38.5000    -0.0780    -0.0540    56.7370    11.3170     7.6070     8.6080    26.5190     2.0560   -19.4800 
   38.6250    38.6250    -0.0790    -0.0550    59.4530    10.5610     7.0690     7.8340    26.3240     2.0750   -19.3910 
   38.7500    38.7500    -0.0790    -0.0550    61.5470    10.2210     6.7600     7.1820    26.0310     2.0770   -19.3920 
   38.8750    38.8750    -0.0800    -0.0560    61.4740    10.2510     6.6640     7.0670    25.8470     2.0540   -19.4610 
   39.0000    39.0000    -0.0810    -0.0560    61.4220    10.5650     6.7440     7.0210    25.8290     2.0170   -19.5580 
   39.1250    39.1250    -0.0810    -0.0560    62.6560    11.0720     6.9590     7.1140    25.9380     1.9860   -19.6470 
   39.2500    39.2500    -0.0820    -0.0570    63.5820    11.6130     7.2180     7.2520    26.2150     1.9620   -19.6820 
   39.3750    39.3750    -0.0820    -0.0570    61.4670    12.0790     7.4550     7.3410    26.6950     1.9450   -19.6670 
   39.5000    39.5000    -0.0830    -0.0570    56.1030    12.3880     7.6150     7.3970    27.2140     1.9430   -19.6100 
   39.6250    39.6250    -0.0830    -0.0580    50.1010    12.4480     7.6400     7.4880    27.4870     1.9710   -19.5150 
   39.7500    39.7500    -0.0840    -0.0580    48.2770    12.2960     7.5460     7.4820    27.5340     2.0120   -19.4180 
   39.8750    39.8750    -0.0840    -0.0590    50.2780    12.0050     7.3660     7.4680    27.3750     2.0460   -19.3050 
   40.0000    40.0000    -0.0850    -0.0590    52.2010    11.6960     7.1620     7.4310    26.9590     2.0660   -19.1560 
   40.1250    40.1250    -0.0850    -0.0590    53.3510    11.5320     7.0140     7.3830    26.3940     2.0720   -18.9680 
   40.2500    40.2500    -0.0860    -0.0600    54.4600    11.5850     6.9620     7.3350    26.0290     2.0650   -18.7750 
   40.3750    40.3750    -0.0860    -0.0600    54.2230    11.8790     7.0210     7.3840    25.9100     2.0490   -18.6120 
   40.5000    40.5000    -0.0870    -0.0600    52.5720    12.3810     7.1830     7.5220    25.8980     2.0300   -18.5050 
   40.6250    40.6250    -0.0870    -0.0610    52.4320    13.0120     7.4220     7.8300    25.8950     2.0150   -18.4510 
   40.7500    40.7500    -0.0880    -0.0610    54.3470    13.6160     7.6700     8.2230    25.8740     2.0110   -18.4050 
   40.8750    40.8750    -0.0880    -0.0610    55.9460    14.0590     7.8730     8.5010    25.8020     2.0220   -18.3440 
   41.0000    41.0000    -0.0890    -0.0620    55.9930    14.2220     7.9760     8.6250    25.6430     2.0490   -18.2590 
   41.1250    41.1250    -0.0900    -0.0620    55.5040    13.9790     7.9170     8.7300    25.4510     2.0820   -18.1490 
   41.2500    41.2500    -0.0900    -0.0630    54.9650    13.4290     7.7240     8.7300    25.3280     2.1000   -18.0040 
   41.3750    41.3750    -0.0910    -0.0630    55.7770    12.7170     7.4440     8.7300    25.3380     2.0860   -17.8290 
   41.5000    41.5000    -0.0910    -0.0630    58.5550    12.0520     7.1580     8.6530    25.4890     2.0500   -17.6540 
   41.6250    41.6250    -0.0920    -0.0640    61.8670    11.7330     6.9870     8.5080    25.6700     2.0140   -17.4920 
   41.7500    41.7500    -0.0920    -0.0640    64.2270    11.8660     6.9920     8.2740    25.8010     1.9910   -17.3670 
   41.8750    41.8750    -0.0930    -0.0640    64.8140    12.4210     7.1780     7.8890    25.8530     1.9820   -17.2800 
   42.0000    42.0000    -0.0930    -0.0650    63.3420    13.1910     7.4770     7.6190    25.8530     1.9940   -17.2070 
   42.1250    42.1250    -0.0940    -0.0650    59.9670    13.7380     7.7150     7.4470    25.7820     2.0400   -17.1390 
   42.2500    42.2500    -0.0950    -0.0650    58.1520    13.6820     7.7130     7.0940    25.6800     2.1060   -17.0580 
   42.3750    42.3750    -0.0960    -0.0660    57.8760    12.8450     7.3680     6.5110    25.6340     2.1690   -16.9680 
   42.5000    42.5000    -0.0960    -0.0660    57.9740    11.3470     6.7030     5.9030    25.6270     2.2110   -16.8790 
   42.6250    42.6250    -0.0970    -0.0660    60.6390     9.6070     5.8740     5.2280    25.6340     2.2220   -16.7960 
   42.7500    42.7500    -0.0980    -0.0660    67.7070     8.1810     5.1390     4.5550    25.6730     2.2170   -16.7550 
   42.8750    42.8750    -0.0990    -0.0670    75.9630     7.3680     4.6500     4.4300    25.7620     2.1980   -16.7690 
   43.0000    43.0000    -0.1000    -0.0670    80.9490     7.2840     4.4820     4.4940    25.8540     2.1620   -16.8440 
   43.1250    43.1250    -0.1010    -0.0670    80.7070     8.0060     4.7030     4.6590    25.8660     2.1160   -17.0100 
   43.2500    43.2500    -0.1010    -0.0680    76.3510     9.2420     5.2030     5.0530    25.7790     2.0850   -17.2400 
   43.3750    43.3750    -0.1020    -0.0680    69.0480    10.6990     5.8640     5.4960    25.5980     2.0750   -17.5180 
   43.5000    43.5000    -0.1030    -0.0680    61.4210    11.9730     6.5110     5.9520    25.3920     2.0850   -17.8090 
   43.6250    43.6250    -0.1040    -0.0680    57.6840    12.5020     6.8800     6.4860    25.1360     2.1110   -18.0390 
   43.7500    43.7500    -0.1050    -0.0690    56.1320    12.1790     6.8700     6.8460    24.8640     2.1380   -18.1790 
   43.8750    43.8750    -0.1050    -0.0690    55.2480    11.2050     6.5200     6.3740    24.7190     2.1500   -18.2180 
