~V
VERS. 2.00: Ver 2.00
~W
STRT.M 45.0000:
STOP.M 272.0000:
STEP.M 0.1250:
NULL. -999.2500:
UWI. FD11191:
~C
DEPT.M :
TVD. :
DX. :
DY. :
SP.MV :
GR.API :
RI. :
RML.OHMM :
RXO.OHMM :
DEN.GM/CC :
~A
# ...
  163.6250   162.0990   -14.2260     0.4600   -37.7250    87.5860     2.6750     3.0150     3.2040     2.3980 
  163.7500   162.2200   -14.2580     0.4590   -38.0880    87.4200     2.7170     3.0430     3.3910     2.4030 
  163.8750   162.3410   -14.2900     0.4580   -38.4150    89.2260     2.7900     3.0960     3.5460     2.3900 
  164.0000   162.4610   -14.3220     0.4580   -38.6970    93.0040     2.9850     3.2920     3.4860     2.3630 
  164.1250   162.5820   -14.3550     0.4570   -38.9270    97.3920     3.3990     3.7430     3.7130     2.3370 
  164.2500   162.7030   -14.3870     0.4560   -39.1120    98.9240     3.9630     4.3720     4.6760     2.3140 
  164.3750   162.8230   -14.4200     0.4550   -39.2540    95.4680     4.6870     5.1890     6.1180     2.2980 
  164.5000   162.9440   -14.4520     0.4540   -39.3620    89.5130     5.5110     6.1160     7.9040     2.2840 
  164.6250   163.0650   -14.4850     0.4540   -39.4370    85.9500     6.3010     6.9750     9.4210     2.2730 
  164.7500   163.1860   -14.5170     0.4530   -39.4850    84.9710     6.8820     7.5910     9.7870     2.2650 
  164.8750   163.3060   -14.5500     0.4530   -39.5060    84.2790     7.1730     7.8890    10.7410     2.2630 
  165.0000   163.4270   -14.5830     0.4520   -39.5060    83.4520     7.1250     7.8160    11.8150     2.2710 
  165.1250   163.5470   -14.6150     0.4520   -39.4940    84.3930     6.9110     7.5910    10.8420     2.2830 
  165.2500   163.6680   -14.6480     0.4510   -39.4820    84.5440     6.6700     7.3470    10.2020     2.2910 
  165.3750   163.7890   -14.6810     0.4510   -39.4820    83.2870     6.4520     7.1490    10.0730     2.2870 
  165.5000   163.9090   -14.7140     0.4500   -39.4990    82.1120     6.3480     7.0970     8.8660     2.2750 
  165.6250   164.0300   -14.7460     0.4490   -39.5320    80.9020     6.3660     7.2020     7.8470     2.2550 
  165.7500   164.1510   -14.7790     0.4490   -39.5750    78.6250     6.4180     7.3120     7.8340     2.2380 
  165.8750   164.2710   -14.8120     0.4490   -39.6190    78.4020     6.3780     7.2590     8.7380     2.2390 
  166.0000   164.3920   -14.8450     0.4480   -39.6600    82.3210     6.3340     7.1540    10.5930     2.2600 
  166.1250   164.5120   -14.8780     0.4480   -39.7000    86.9830     6.3830     7.1210    11.1260     2.2710 
  166.2500   164.6330   -14.9110     0.4480   -39.7430    87.1430     6.7210     7.4390     8.6520     2.2480 
  166.3750   164.7530   -14.9440     0.4480   -39.7990    84.0330     7.6410     8.4940     8.2190     2.2100 
  166.5000   164.8740   -14.9770     0.4470   -39.8670    80.6740     9.1140    10.2090    12.0590     2.1860 
  166.6250   164.9940   -15.0110     0.4470   -39.9450    77.5030    11.3410    12.7220    15.8350     2.1720 
  166.7500   165.1150   -15.0440     0.4470   -40.0210    75.3060    13.6650    15.2260    17.5050     2.1610 
  166.8750   165.2350   -15.0770     0.4470   -40.0860    75.8890    15.5240    17.1040    18.4430     2.1610 
  167.0000   165.3560   -15.1100     0.4470   -40.1380    77.8620    16.7220    18.2100    18.8250     2.1640 
  167.1250   165.4760   -15.1440     0.4470   -40.1830    78.2740    17.0830    18.4570    19.1190     2.1570 
  167.2500   165.5970   -15.1770     0.4470   -40.2340    76.6980    17.0780    18.3610    19.1510     2.1480 
  167.3750   165.7170   -15.2100     0.4480   -40.3020    74.6270    16.8390    18.0420    18.8360     2.1530 
  167.5000   165.8380   -15.2440     0.4480   -40.3880    74.9850    16.4720    17.5980    18.2120     2.1680 
  167.6250   165.9580   -15.2770     0.4480   -40.4910    77.5860    16.2180    17.3180    17.4050     2.1780 
  167.7500   166.0790   -15.3110     0.4480   -40.5940    78.6660    16.2810    17.3970    16.7490     2.1810 
  167.8750   166.1990   -15.3450     0.4480   -40.6790    76.6560    16.7870    17.9990    17.4610     2.1860 
  168.0000   166.3190   -15.3790     0.4480   -40.7290    74.8080    17.8940    19.2460    19.5510     2.1900 
  168.1250   166.4400   -15.4120     0.4480   -40.7370    75.4630    19.5710    21.0670    22.4230     2.1870 
  168.2500   166.5600   -15.4460     0.4480   -40.7140    74.5240    21.4420    23.0320    25.1400     2.1760 
  168.3750   166.6800   -15.4810     0.4480   -40.6830    71.8350    23.0860    24.6400    26.6270     2.1730 
  168.5000   166.8000   -15.5150     0.4480   -40.6680    68.4400    24.1330    25.5660    27.2470     2.1830 
  168.6250   166.9210   -15.5490     0.4490   -40.6880    65.9790    24.4050    25.6410    27.2910     2.1960 
  168.7500   167.0410   -15.5840     0.4490   -40.7390    64.6370    24.2170    25.2650    27.4350     2.2000 
  168.8750   167.1610   -15.6180     0.4490   -40.8080    65.9020    23.7780    24.7070    27.9370     2.1890 
  169.0000   167.2810   -15.6530     0.4490   -40.8720    68.9620    23.4190    24.2950    28.1710     2.1760 
  169.1250   167.4010   -15.6880     0.4500   -40.9100    70.9070    23.3630    24.2410    27.6970     2.1580 
  169.2500   167.5210   -15.7230     0.4500   -40.9120    70.5380    23.6380    24.5540    27.0930     2.1410 
  169.3750   167.6410   -15.7580     0.4510   -40.8770    69.0690    24.2130    25.1810    27.0960     2.1370 
  169.5000   167.7610   -15.7930     0.4510   -40.8140    66.7060    25.1320    26.1700    27.9260     2.1390 
  169.6250   167.8810   -15.8280     0.4520   -40.7300    62.8900    26.3450    27.4510    29.3240     2.1370 
  169.7500   168.0010   -15.8640     0.4520   -40.6350    58.9340    27.7040    28.8620    31.0450     2.1260 
  169.8750   168.1210   -15.8990     0.4530   -40.5320    58.7600    29.2400    30.4270    33.0610     2.1050 
  170.0000   168.2400   -15.9350     0.4540   -40.4230    62.3410    30.5550    31.6720    34.8440     2.0740 
  170.1250   168.3600   -15.9710     0.4540   -40.3020    65.9300    31.4810    32.4780    36.7350     2.0550 
  170.2500   168.4800   -16.0070     0.4550   -40.1660    65.6400    31.9910    32.8370    36.3950     2.0630 
  170.3750   168.5990   -16.0430     0.4550   -40.0130    62.0980    31.9700    32.6590    34.2290     2.0910 
  170.5000   168.7190   -16.0790     0.4560   -39.8450    60.1290    31.6270    32.2100    30.0630     2.1180 
  170.6250   168.8390   -16.1150     0.4570   -39.6650    61.7380    31.0290    31.5150    29.3400     2.1350 
  170.7500   168.9580   -16.1510     0.4570   -39.4780    63.9200    30.0990    30.4600    32.7690     2.1430 
  170.8750   169.0780   -16.1880     0.4580   -39.2850    65.1590    28.9210    29.1480    35.2110     2.1480 
  171.0000   169.1980   -16.2240     0.4590   -39.0860    66.7900    27.6580    27.7570    35.5840     2.1520 
  171.1250   169.3170   -16.2610     0.4590   -38.8850    69.0010    26.4200    26.4060    34.5030     2.1510 
  171.2500   169.4370   -16.2970     0.4600   -38.6900    70.0780    25.3490    25.2610    33.0530     2.1470 
  171.3750   169.5560   -16.3340     0.4610   -38.5220    67.7380    24.5160    24.3560    31.6380     2.1470 
  171.5000   169.6760   -16.3710     0.4620   -38.4060    64.5530    23.9140    23.6810    30.0730     2.1570 
  171.6250   169.7950   -16.4080     0.4630   -38.3740    63.9930    23.6870    23.4080    29.3760     2.1640 
  171.7500   169.9140   -16.4440     0.4640   -38.4310    66.2280    23.8650    23.5740    29.6450     2.1590 
  171.8750   170.0340   -16.4810     0.4640   -38.5800    69.8040    24.4950    24.2240    30.5810     2.1460 
  172.0000   170.1530   -16.5180     0.4650   -38.7850    72.3680    25.4370    25.1720    31.7180     2.1400 
  172.1250   170.2730   -16.5560     0.4660   -39.0060    72.0800    26.4480    26.1380    32.7340     2.1400 
  172.2500   170.3920   -16.5930     0.4670   -39.1980    70.1030    27.1110    26.7080    34.0560     2.1370 
  172.3750   170.5110   -16.6300     0.4680   -39.3270    69.4540    27.2890    26.7630    34.6780     2.1330 
  172.5000   170.6310   -16.6670     0.4700   -39.3920    70.8670    26.9940    26.3680    34.1710     2.1360 
  172.6250   170.7500   -16.7050     0.4710   -39.4010    72.5490    26.4550    25.8020    33.9330     2.1460 
