~V
VERS. 2.00: Ver 2.00
~W
STRT.M 30.0000:
STOP.M 272.0000:
STEP.M 0.1250:
NULL. -999.2500:
UWI. FD11176:
~C
DEPT.M :
TVD. :
DX. :
DY. :
SP.MV :
GR.API :
RI. :
RML.OHMM :
RXO.OHMM :
DEN.GM/CC :
~A
# ...
  221.6250   211.3070    50.7840   -23.7970   -11.2840    62.2010    20.6220    21.7190    19.5880     2.1380 
  221.7500   211.4200    50.8310   -23.8190   -11.4230    65.1540    19.4520    20.4410    18.4900     2.1270 
  221.8750   211.5340    50.8780   -23.8420   -11.5680    67.1570    18.1770    19.1170    18.7880     2.1150 
  222.0000   211.6480    50.9240   -23.8650   -11.6930    67.7660    17.0130    17.9450    19.0090     2.1080 
  222.1250   211.7620    50.9710   -23.8870   -11.7600    68.3110    16.1870    17.1420    17.4240     2.1140 
  222.2500   211.8750    51.0170   -23.9100   -11.7480    70.1100    15.7870    16.7930    15.7710     2.1300 
  222.3750   211.9890    51.0640   -23.9330   -11.6600    71.3230    15.8130    16.9230    16.8950     2.1530 
  222.5000   212.1030    51.1100   -23.9550   -11.5330    69.3690    16.1390    17.3900    18.4930     2.1690 
  222.6250   212.2170    51.1570   -23.9780   -11.3930    66.0820    16.6100    18.0140    18.3280     2.1680 
  222.7500   212.3310    51.2030   -24.0010   -11.2680    65.1090    17.0220    18.5460    17.8950     2.1560 
  222.8750   212.4450    51.2490   -24.0240   -11.1790    66.9710    17.1560    18.7590    17.9250     2.1480 
  223.0000   212.5580    51.2960   -24.0470   -11.1170    68.2440    17.0620    18.7390    18.1810     2.1490 
  223.1250   212.6720    51.3420   -24.0690   -11.0510    68.6470    16.8610    18.6170    18.3120     2.1490 
  223.2500   212.7860    51.3880   -24.0920   -10.9480    68.9040    16.6270    18.4730    17.8690     2.1420 
  223.3750   212.9000    51.4340   -24.1150   -10.8070    70.3330    16.4170    18.2930    17.3410     2.1400 
  223.5000   213.0140    51.4810   -24.1380   -10.6760    71.9870    16.2790    18.1790    17.1060     2.1470 
  223.6250   213.1280    51.5270   -24.1610   -10.6160    73.1540    16.4020    18.3470    16.6950     2.1540 
  223.7500   213.2420    51.5730   -24.1840   -10.6320    71.8510    16.7430    18.7870    16.3620     2.1500 
  223.8750   213.3550    51.6190   -24.2060   -10.7020    69.7840    17.2740    19.5130    16.7910     2.1410 
  224.0000   213.4690    51.6660   -24.2290   -10.7950    69.5410    17.7620    20.2540    19.2900     2.1540 
  224.1250   213.5830    51.7120   -24.2520   -10.8800    70.5700    17.9460    20.6580    29.7640     2.2150 
  224.2500   213.6970    51.7580   -24.2750   -10.9230    70.2360    17.8060    20.6370    37.1610     2.2870 
  224.3750   213.8110    51.8040   -24.2980   -10.9060    69.2430    17.3970    20.2390    28.5900     2.3050 
  224.5000   213.9250    51.8510   -24.3210   -10.8340    70.6500    17.0290    19.8770    20.9370     2.2710 
  224.6250   214.0380    51.8970   -24.3440   -10.7200    73.1190    17.1000    20.0840    19.7050     2.2280 
  224.7500   214.1520    51.9430   -24.3670   -10.6050    74.8780    17.7910    21.0650    18.1190     2.2030 
  224.8750   214.2660    51.9900   -24.3900   -10.5320    74.8670    18.7510    22.3460    18.7340     2.1820 
  225.0000   214.3800    52.0360   -24.4130   -10.4940    72.5260    19.6080    23.4440    19.9630     2.1610 
  225.1250   214.4930    52.0830   -24.4360   -10.4510    69.0620    19.8040    23.6720    20.8010     2.1410 
  225.2500   214.6070    52.1290   -24.4590   -10.3820    65.1430    19.2090    22.9320    22.1460     2.1210 
  225.3750   214.7210    52.1760   -24.4820   -10.3020    62.1290    18.2080    21.6930    21.3790     2.1060 
  225.5000   214.8350    52.2230   -24.5050   -10.2280    60.9190    17.0100    20.2280    18.7220     2.1010 
  225.6250   214.9480    52.2690   -24.5270   -10.1050    62.2600    15.6510    18.5560    17.0690     2.1020 
  225.7500   215.0620    52.3160   -24.5500    -9.8970    63.9660    14.6200    17.2560    16.7380     2.1060 
  225.8750   215.1760    52.3630   -24.5730    -9.6590    65.1960    13.8670    16.3230    16.3500     2.1140 
  226.0000   215.2890    52.4100   -24.5950    -9.4340    66.7190    13.2190    15.5520    16.1910     2.1230 
  226.1250   215.4030    52.4570   -24.6180    -9.2790    66.7480    12.5370    14.7740    16.6180     2.1270 
  226.2500   215.5160    52.5040   -24.6410    -9.1940    65.8710    11.7650    13.8750    16.4610     2.1280 
  226.3750   215.6300    52.5510   -24.6640    -9.1710    66.6830    10.9540    12.9300    15.1400     2.1320 
  226.5000   215.7440    52.5970   -24.6870    -9.1990    69.3490    10.2370    12.0940    13.6130     2.1420 
  226.6250   215.8570    52.6440   -24.7100    -9.2630    70.2500     9.6350    11.3880    12.6700     2.1500 
  226.7500   215.9710    52.6910   -24.7330    -9.3300    70.0280     9.2110    10.8980    12.3970     2.1500 
  226.8750   216.0840    52.7380   -24.7560    -9.3520    71.4950     8.9230    10.5290    12.6920     2.1500 
  227.0000   216.1980    52.7850   -24.7790    -9.2780    73.1500     8.6380    10.1430    12.8840     2.1600 
  227.1250   216.3110    52.8320   -24.8020    -9.0540    71.1830     8.3200     9.7000    12.4340     2.1740 
  227.2500   216.4250    52.8790   -24.8250    -8.6670    68.2620     7.9740     9.2280    11.9950     2.1800 
  227.3750   216.5390    52.9260   -24.8480    -8.0900    69.2130     7.6300     8.7570    11.9840     2.1790 
  227.5000   216.6520    52.9730   -24.8700    -7.3340    71.9260     7.3270     8.3440    11.6120     2.1850 
  227.6250   216.7660    53.0190   -24.8930    -6.4240    71.9890     7.0440     7.9500    10.5200     2.1990 
  227.7500   216.8790    53.0660   -24.9160    -5.4460    70.9760     6.6880     7.4720     9.3860     2.2050 
  227.8750   216.9930    53.1130   -24.9390    -4.4700    72.4630     6.2560     6.9280     8.7440     2.2050 
  228.0000   217.1070    53.1600   -24.9620    -3.5170    76.0900     5.7000     6.2620     8.7990     2.2080 
  228.1250   217.2200    53.2070   -24.9840    -2.5620    80.3190     5.0940     5.5670     9.4030     2.2280 
  228.2500   217.3340    53.2540   -25.0070    -1.6110    84.4890     4.5280     4.9350     8.9530     2.2570 
  228.3750   217.4470    53.3010   -25.0300    -0.7470    86.5910     4.0470     4.4300     6.7700     2.2790 
  228.5000   217.5610    53.3480   -25.0520    -0.0700    86.1240     3.7250     4.1240     4.9910     2.2880 
  228.6250   217.6750    53.3950   -25.0750     0.3260    86.0600     3.5460     3.9940     4.3130     2.2910 
  228.7500   217.7880    53.4410   -25.0970     0.4500    89.8060     3.4400     3.9300     3.8100     2.2990 
  228.8750   217.9020    53.4880   -25.1200     0.3100    94.9440     3.3290     3.8210     3.3690     2.3050 
  229.0000   218.0160    53.5350   -25.1420    -0.0340    95.4520     3.2220     3.6820     3.1860     2.3020 
  229.1250   218.1300    53.5820   -25.1640    -0.5800    91.3220     3.2500     3.6810     3.3640     2.2980 
  229.2500   218.2430    53.6290   -25.1870    -1.3370    86.4960     3.5750     4.0180     3.5270     2.2990 
  229.3750   218.3570    53.6760   -25.2100    -2.3680    82.7450     4.3210     4.8950     3.9520     2.3050 
  229.5000   218.4710    53.7230   -25.2320    -3.6780    78.7790     5.5720     6.4570     6.8560     2.3010 
  229.6250   218.5840    53.7690   -25.2550    -5.2250    76.0630     7.4690     8.7920    12.3040     2.2720 
  229.7500   218.6980    53.8160   -25.2770    -6.8010    74.1470     9.2690    10.9680    16.1260     2.2270 
  229.8750   218.8120    53.8630   -25.3000    -8.1480    70.7580    10.4490    12.3030    16.8820     2.1800 
  230.0000   218.9250    53.9100   -25.3220    -9.1470    68.3510    10.7690    12.5470    16.2090     2.1510 
  230.1250   219.0390    53.9570   -25.3450    -9.8130    68.3700    10.3050    11.8990    14.6340     2.1510 
  230.2500   219.1530    54.0040   -25.3670   -10.3090    68.4740     9.9020    11.3920    13.3030     2.1720 
  230.3750   219.2660    54.0500   -25.3900   -10.7450    68.5770     9.7460    11.2710    13.4190     2.1880 
  230.5000   219.3800    54.0970   -25.4120   -11.1450    69.9830     9.8230    11.4950    13.9820     2.1780 
  230.6250   219.4940    54.1440   -25.4350   -11.4630    71.6270    10.0570    11.9510    14.2100     2.1590 
