~V
VERS. 2.00: Ver 2.00
~W
STRT.M 10.0000:
STOP.M 230.0000:
STEP.M 0.1250:
NULL. -999.2500:
UWI. FD11119:
~C
DEPT.M :
TVD. :
DX. :
DY. :
SP.MV :
DEN.GM/CC :
GR.API :
RML.OHMM :
RI. :
RXO.OHMM :
CALI.CM :
~A
# ...
  125.5000   124.0660   -12.0260    -4.3250   -17.4700     2.5090    47.1280    23.1410    21.6480    10.1640    21.7570 
  125.6250   124.1850   -12.0590    -4.3390   -17.5060     2.5070    48.3360    22.8940    21.3850     9.7960    21.7570 
  125.7500   124.3050   -12.0920    -4.3540   -17.5670     2.4950    50.1910    22.8690    21.3250     9.9220    21.7570 
  125.8750   124.4240   -12.1260    -4.3680   -17.6240     2.4740    50.1280    22.9960    21.4480    10.6270    21.7570 
  126.0000   124.5440   -12.1590    -4.3820   -17.7070     2.4520    49.7300    23.2050    21.6720    11.6920    21.7570 
  126.1250   124.6640   -12.1930    -4.3960   -17.7880     2.4420    51.7370    23.4530    21.9120    12.4650    21.7570 
  126.2500   124.7830   -12.2260    -4.4100   -17.8690     2.4490    52.8780    23.7200    22.1270    12.5660    21.7580 
  126.3750   124.9030   -12.2600    -4.4240   -17.9810     2.4720    51.1260    23.9920    22.3160    12.5500    21.7680 
  126.5000   125.0220   -12.2930    -4.4390   -18.0970     2.5060    48.1470    24.2680    22.4910    12.6450    21.8140 
  126.6250   125.1420   -12.3260    -4.4530   -18.2180     2.5340    46.8500    24.5770    22.6800    12.8800    21.9050 
  126.7500   125.2620   -12.3600    -4.4670   -18.2980     2.5420    48.7520    24.9120    22.9050    13.0910    21.9190 
  126.8750   125.3810   -12.3930    -4.4810   -18.3840     2.5230    52.6210    25.2430    23.1610    12.5360    21.9220 
  127.0000   125.5010   -12.4270    -4.4950   -18.3960     2.4840    55.1740    25.5460    23.4230    11.7710    21.9220 
  127.1250   125.6200   -12.4600    -4.5100   -18.3940     2.4470    54.8360    25.8400    23.6640    11.3420    21.9220 
  127.2500   125.7400   -12.4940    -4.5240   -18.3980     2.4350    54.1110    26.1770    23.9020    11.3840    21.9220 
  127.3750   125.8600   -12.5270    -4.5380   -18.3890     2.4530    54.9720    26.6050    24.1880    11.4410    21.9220 
  127.5000   125.9790   -12.5600    -4.5520   -18.3830     2.4940    55.2940    27.1460    24.5740    11.4250    21.9220 
  127.6250   126.0990   -12.5940    -4.5660   -18.4210     2.5370    52.1290    27.7620    25.0730    11.9510    21.9220 
  127.7500   126.2190   -12.6270    -4.5810   -18.4680     2.5620    48.5240    28.3260    25.6050    12.8420    21.9220 
  127.8750   126.3380   -12.6610    -4.5950   -18.5100     2.5620    47.1800    28.7020    26.0820    13.8390    21.9220 
  128.0000   126.4580   -12.6940    -4.6090   -18.6080     2.5450    48.0380    28.7880    26.4040    14.7300    21.9220 
  128.1250   126.5770   -12.7280    -4.6230   -18.7120     2.5170    50.1980    28.5740    26.5090    14.8620    21.9240 
  128.2500   126.6970   -12.7610    -4.6370   -18.7910     2.4920    52.9860    28.3070    26.5340    13.9600    21.9330 
  128.3750   126.8170   -12.7940    -4.6520   -18.8560     2.4740    55.2910    28.1700    26.6000    13.7010    21.9900 
  128.5000   126.9360   -12.8280    -4.6660   -18.8940     2.4640    54.9220    28.2400    26.7780    14.2280    22.0730 
  128.6250   127.0560   -12.8610    -4.6800   -18.8890     2.4620    51.8830    28.4670    27.0530    14.9000    22.1620 
  128.7500   127.1750   -12.8950    -4.6940   -18.8880     2.4640    49.6250    28.6350    27.2750    15.7380    22.3610 
  128.8750   127.2950   -12.9280    -4.7080   -18.8540     2.4700    48.9030    28.5510    27.2710    16.2550    22.4470 
  129.0000   127.4140   -12.9620    -4.7230   -18.7900     2.4790    48.9540    28.1120    26.9180    16.0980    22.4620 
  129.1250   127.5340   -12.9970    -4.7380   -18.7090     2.4960    49.9140    27.3440    26.2080    14.9760    22.4690 
  129.2500   127.6530   -13.0310    -4.7530   -18.6340     2.5210    52.0520    26.5300    25.3920    14.4050    22.5160 
  129.3750   127.7720   -13.0660    -4.7680   -18.5630     2.5490    52.7670    25.9220    24.6870    13.7050    22.6890 
  129.5000   127.8910   -13.1000    -4.7830   -18.5450     2.5690    50.3300    25.6880    24.2640    13.3030    22.9580 
  129.6250   128.0110   -13.1350    -4.7970   -18.5360     2.5630    47.8160    25.8400    24.2180    12.9780    23.2140 
  129.7500   128.1300   -13.1690    -4.8120   -18.5390     2.5310    47.7670    26.0860    24.3780    12.5520    23.2290 
  129.8750   128.2490   -13.2030    -4.8270   -18.5870     2.4790    48.2330    26.2010    24.5870    12.0810    23.0970 
  130.0000   128.3680   -13.2380    -4.8420   -18.6540     2.4230    47.1940    26.0540    24.7040    11.9950    22.5470 
  130.1250   128.4880   -13.2720    -4.8570   -18.7330     2.3850    47.4430    25.6460    24.6180    12.2750    22.3080 
  130.2500   128.6070   -13.3070    -4.8720   -18.8030     2.3720    49.7570    25.2080    24.3940    12.2360    22.1090 
  130.3750   128.7260   -13.3410    -4.8860   -18.8960     2.3850    52.4430    24.9150    24.1560    12.0780    22.0800 
  130.5000   128.8450   -13.3760    -4.9010   -18.9530     2.4140    52.7440    24.8450    24.0320    11.6610    22.0720 
  130.6250   128.9650   -13.4100    -4.9160   -19.0230     2.4410    50.6220    24.9890    24.1060    11.2630    22.0480 
  130.7500   129.0840   -13.4440    -4.9310   -19.0770     2.4500    50.0800    25.2020    24.2730    11.4100    21.9970 
  130.8750   129.2030   -13.4790    -4.9460   -19.0910     2.4390    51.1870    25.3510    24.3810    12.2510    21.9730 
  131.0000   129.3220   -13.5130    -4.9610   -19.0560     2.4170    52.7430    25.2990    24.2900    12.9210    21.9090 
  131.1250   129.4410   -13.5480    -4.9750   -19.0310     2.4000    54.6120    24.8890    23.8890    12.4200    21.5840 
  131.2500   129.5610   -13.5820    -4.9900   -19.0070     2.3990    57.3980    24.1570    23.2650    11.8190    21.4720 
  131.3750   129.6800   -13.6160    -5.0050   -18.9500     2.4150    58.1250    23.1940    22.5220    11.7010    21.4510 
  131.5000   129.7990   -13.6510    -5.0200   -18.8720     2.4380    53.5430    22.1920    21.7770    12.1910    21.4490 
  131.6250   129.9180   -13.6850    -5.0350   -18.7540     2.4570    47.4550    21.4460    21.1950    12.9790    21.4600 
  131.7500   130.0380   -13.7200    -5.0500   -18.6520     2.4620    44.7730    21.0900    20.8700    13.2060    21.5210 
  131.8750   130.1570   -13.7540    -5.0640   -18.5810     2.4560    46.6250    21.1290    20.8250    13.0520    21.5810 
  132.0000   130.2760   -13.7890    -5.0790   -18.5600     2.4470    50.7320    21.4770    21.0250    12.8170    21.5920 
  132.1250   130.3950   -13.8230    -5.0940   -18.5290     2.4490    53.1210    22.0020    21.4040    12.6550    21.5920 
  132.2500   130.5150   -13.8570    -5.1090   -18.5350     2.4670    52.9470    22.4890    21.8040    12.9660    21.5920 
  132.3750   130.6340   -13.8920    -5.1240   -18.5590     2.4950    51.7920    22.7950    22.0920    13.6040    21.5920 
  132.5000   130.7530   -13.9260    -5.1390   -18.6200     2.5190    52.2160    22.8330    22.1510    13.4260    21.5920 
  132.6250   130.8720   -13.9610    -5.1530   -18.7060     2.5230    54.2730    22.5610    21.8990    12.6710    21.5920 
  132.7500   130.9920   -13.9950    -5.1680   -18.7850     2.5060    55.8200    22.1290    21.4480    12.8270    21.5920 
  132.8750   131.1110   -14.0300    -5.1830   -18.8230     2.4790    55.5600    21.6930    20.9180    13.3200    21.5920 
  133.0000   131.2300   -14.0640    -5.1980   -18.8330     2.4550    53.1590    21.4070    20.4640    13.3000    21.5920 
  133.1250   131.3490   -14.0980    -5.2130   -18.8760     2.4440    49.8880    21.3900    20.2740    12.4600    21.5930 
  133.2500   131.4690   -14.1330    -5.2280   -18.9090     2.4470    47.5460    21.5920    20.3750    12.4160    21.5990 
  133.3750   131.5880   -14.1670    -5.2430   -18.9700     2.4610    47.7630    21.9490    20.7310    12.8660    21.6320 
  133.5000   131.7070   -14.2020    -5.2570   -19.0400     2.4790    51.2200    22.3570    21.2350    13.5400    21.7350 
  133.6250   131.8260   -14.2360    -5.2720   -19.1440     2.4940    55.2900    22.6570    21.6840    14.3850    21.7590 
