~V
VERS. 2.00: Ver 2.00
~W
STRT.M 40.0000:
STOP.M 259.0000:
STEP.M 0.1250:
NULL. -999.2500:
UWI. FD11192:
~C
DEPT.M :
TVD. :
DX. :
DY. :
SP.MV :
GR.API :
RI. :
RML.OHMM :
RXO.OHMM :
DEN.GM/CC :
~A
# ...
   67.3750    67.3690     0.3760    -0.0160  -209.6290    65.2210     5.7370     6.4330     5.8820     2.0790 
   67.5000    67.4940     0.3820    -0.0140  -209.4410    62.2080     5.6940     6.2450     5.8150     2.0740 
   67.6250    67.6190     0.3870    -0.0110  -209.2740    59.8070     5.6700     6.1240     5.6570     2.0710 
   67.7500    67.7430     0.3930    -0.0080  -209.1200    59.9390     5.6730     6.1040     5.5660     2.0700 
   67.8750    67.8680     0.3990    -0.0050  -209.0880    61.6330     5.6990     6.0430     5.6390     2.0700 
   68.0000    67.9930     0.4050    -0.0020  -209.1180    63.7620     5.7020     5.9640     5.8760     2.0770 
   68.1250    68.1180     0.4110     0.0010  -209.1560    65.1630     5.6580     6.0830     6.1820     2.0900 
   68.2500    68.2430     0.4180     0.0040  -209.1800    65.3790     5.5650     6.2710     6.2500     2.0970 
   68.3750    68.3680     0.4240     0.0070  -209.2250    64.5070     5.5250     6.4100     6.0190     2.0960 
   68.5000    68.4920     0.4300     0.0100  -209.3270    63.3190     5.6430     6.5820     5.8560     2.1000 
   68.6250    68.6170     0.4370     0.0130  -209.5680    64.6880     5.8810     6.8520     6.6370     2.1230 
   68.7500    68.7420     0.4430     0.0160  -209.8840    68.5500     6.1790     7.2100     8.7290     2.1590 
   68.8750    68.8670     0.4500     0.0190  -210.1470    74.0690     6.3790     7.4190     9.8090     2.1920 
   69.0000    68.9920     0.4560     0.0220  -210.2410    77.3730     6.3010     7.2740     8.3950     2.1960 
   69.1250    69.1160     0.4630     0.0250  -210.1420    77.2300     5.8730     6.7340     6.7040     2.1640 
   69.2500    69.2410     0.4700     0.0290  -210.0010    77.5770     5.3180     6.0380     6.0830     2.1330 
   69.3750    69.3660     0.4770     0.0320  -209.8870    80.7220     4.7630     5.4020     5.7730     2.1430 
   69.5000    69.4910     0.4840     0.0350  -209.7890    84.9900     4.4640     5.0700     5.4480     2.1820 
   69.6250    69.6150     0.4910     0.0390  -209.7250    91.1320     4.4290     5.0510     5.2630     2.2170 
   69.7500    69.7400     0.4980     0.0420  -209.7460    99.5840     4.5450     5.2020     5.1260     2.2350 
   69.8750    69.8650     0.5050     0.0450  -209.8470   106.2210     4.7340     5.4230     5.2130     2.2370 
   70.0000    69.9900     0.5130     0.0490  -209.9840   106.0920     4.9070     5.6120     5.9050     2.2170 
   70.1250    70.1140     0.5200     0.0520  -210.1020   100.4880     5.0060     5.7030     6.4960     2.1820 
   70.2500    70.2390     0.5280     0.0560  -210.1140    94.0340     5.0410     5.7290     6.1240     2.1630 
   70.3750    70.3640     0.5350     0.0600  -210.0860    90.7820     5.0940     5.7830     5.4850     2.1760 
   70.5000    70.4880     0.5430     0.0630  -210.1090    90.9580     5.1960     5.8970     5.4340     2.1910 
   70.6250    70.6130     0.5500     0.0670  -210.2410    93.1190     5.2880     5.9990     6.1290     2.1980 
   70.7500    70.7380     0.5580     0.0710  -210.4050    92.6620     5.3210     6.0250     7.6880     2.2250 
   70.8750    70.8630     0.5660     0.0750  -210.4950    89.7460     5.2830     5.9250     8.4990     2.2860 
   71.0000    70.9870     0.5740     0.0790  -210.5760    87.4400     5.2400     5.8020     7.1770     2.3280 
   71.1250    71.1120     0.5820     0.0830  -210.7880    90.7190     5.4080     5.9730     5.8050     2.2970 
   71.2500    71.2370     0.5900     0.0870  -211.0820    96.4830     6.1440     6.8940     6.2700     2.2320 
   71.3750    71.3610     0.5980     0.0910  -211.3520    97.2500     7.4370     8.5100    11.2630     2.2280 
   71.5000    71.4860     0.6060     0.0950  -211.5810    90.1060     8.8200    10.1490    22.3290     2.3200 
   71.6250    71.6110     0.6150     0.0990  -211.7160    78.9980     9.6030    10.9310    31.9850     2.4510 
   71.7500    71.7350     0.6230     0.1030  -211.8740    72.6860     9.3040    10.3410    29.1470     2.5130 
   71.8750    71.8600     0.6320     0.1080  -211.9870    73.6490     8.2030     8.8780    16.5610     2.4410 
   72.0000    71.9850     0.6400     0.1120  -212.0950    77.7920     6.9750     7.4110     8.2280     2.2950 
   72.1250    72.1090     0.6490     0.1160  -212.1910    79.2310     6.1540     6.5470     6.7460     2.1770 
   72.2500    72.2340     0.6580     0.1210  -212.2320    77.6680     5.7910     6.2330     6.6880     2.1260 
   72.3750    72.3580     0.6660     0.1250  -212.2910    76.2150     5.7540     6.2480     6.5890     2.1220 
   72.5000    72.4830     0.6750     0.1300  -212.3380    76.4420     5.7930     6.3120     6.4850     2.1310 
   72.6250    72.6080     0.6840     0.1340  -212.3730    78.6030     5.7550     6.2570     6.4190     2.1420 
   72.7500    72.7320     0.6930     0.1390  -212.2890    82.9980     5.6550     6.1300     6.3880     2.1460 
   72.8750    72.8570     0.7020     0.1440  -212.1300    89.0080     5.5190     5.9800     6.2840     2.1480 
   73.0000    72.9810     0.7120     0.1480  -212.0120    94.5420     5.3960     5.8500     5.9060     2.1650 
   73.1250    73.1060     0.7210     0.1530  -211.9530    96.4470     5.3140     5.7770     5.6140     2.1980 
   73.2500    73.2300     0.7300     0.1580  -211.9990    97.0840     5.3020     5.7880     5.7440     2.2280 
   73.3750    73.3550     0.7400     0.1630  -212.1810    96.7540     5.3460     5.8610     5.9080     2.2340 
   73.5000    73.4800     0.7490     0.1670  -212.4510    95.8450     5.4010     5.9480     5.9920     2.2130 
   73.6250    73.6040     0.7590     0.1720  -212.7980    94.1550     5.4560     6.0310     6.1670     2.1790 
   73.7500    73.7290     0.7680     0.1770  -213.1920    93.3930     5.5760     6.1720     6.3270     2.1540 
   73.8750    73.8530     0.7780     0.1820  -213.4800    94.2470     5.9170     6.5810     6.5100     2.1520 
   74.0000    73.9780     0.7880     0.1880  -213.6300    95.3240     6.4760     7.2590     6.9530     2.1700 
   74.1250    74.1020     0.7980     0.1930  -213.6900    95.8530     7.5040     8.5490     7.9020     2.2120 
   74.2500    74.2270     0.8080     0.1980  -213.7910    93.3720     8.9450    10.3480     9.5620     2.2740 
   74.3750    74.3510     0.8180     0.2030  -213.8790    86.9380    10.3980    12.1340    12.6010     2.3440 
   74.5000    74.4760     0.8280     0.2090  -213.9170    78.7440    11.3560    13.2340    16.6020     2.4020 
   74.6250    74.6000     0.8380     0.2140  -213.8970    71.6120    11.2080    12.8950    17.6980     2.4120 
   74.7500    74.7240     0.8480     0.2190  -213.7620    67.0940    10.0370    11.3400    13.9470     2.3580 
   74.8750    74.8490     0.8590     0.2250  -213.5650    66.8780     8.5260     9.4650     9.5270     2.2640 
   75.0000    74.9730     0.8690     0.2300  -213.4110    70.1430     7.2510     7.9990     7.7900     2.1840 
   75.1250    75.0980     0.8800     0.2360  -213.3230    73.2230     6.5510     7.3120     7.5640     2.1480 
   75.2500    75.2220     0.8900     0.2410  -213.2490    73.5230     6.2750     7.1050     7.4080     2.1350 
   75.3750    75.3470     0.9010     0.2470  -213.0990    71.7410     6.2290     7.1080     7.1190     2.1280 
   75.5000    75.4710     0.9120     0.2530  -212.9590    70.5440     6.2330     7.1530     6.8560     2.1220 
   75.6250    75.5950     0.9230     0.2590  -212.8460    70.8230     6.2760     7.1980     6.8260     2.1160 
   75.7500    75.7200     0.9340     0.2640  -212.7160    68.9990     6.3470     7.2580     6.9820     2.1120 
   75.8750    75.8440     0.9450     0.2700  -212.5030    63.8450     6.4190     7.3100     7.1210     2.1120 
   76.0000    75.9690     0.9560     0.2760  -212.1570    58.8970     6.4560     7.3100     7.0430     2.1130 
   76.1250    76.0930     0.9670     0.2820  -211.7930    58.3620     6.4480     7.2620     6.7610     2.1140 
   76.2500    76.2170     0.9780     0.2880  -211.5550    59.6530     6.3880     7.1620     6.5020     2.1130 
   76.3750    76.3420     0.9900     0.2940  -211.4040    58.9250     6.2980     7.0310     6.3100     2.1100 
