~V
VERS. 2.00: Ver 2.00
~W
STRT.M 40.0000:
STOP.M 259.0000:
STEP.M 0.1250:
NULL. -999.2500:
UWI. FD11192:
~C
DEPT.M :
TVD. :
DX. :
DY. :
SP.MV :
GR.API :
RI. :
RML.OHMM :
RXO.OHMM :
DEN.GM/CC :
~A
# ...
   94.7500    94.4750     3.3060     2.0440  -218.3940    71.8650     5.6460     6.4240     6.3640     2.1960 
   94.8750    94.5970     3.3260     2.0630  -218.5710    71.3740     5.7110     6.4980     5.8410     2.2080 
   95.0000    94.7190     3.3450     2.0810  -218.6770    72.1990     5.7200     6.5030     5.5270     2.1870 
   95.1250    94.8410     3.3650     2.1000  -218.7040    74.0870     5.6720     6.4380     5.4630     2.1550 
   95.2500    94.9630     3.3840     2.1190  -218.6300    73.9590     5.5970     6.3350     5.4850     2.1370 
   95.3750    95.0850     3.4040     2.1380  -218.5000    71.9680     5.5450     6.2660     5.5280     2.1330 
   95.5000    95.2070     3.4240     2.1570  -218.3390    69.4860     5.5550     6.2900     5.4180     2.1300 
   95.6250    95.3290     3.4440     2.1760  -218.1820    66.8520     5.6280     6.3970     5.2990     2.1270 
   95.7500    95.4510     3.4640     2.1950  -218.1200    63.6630     5.7350     6.5580     5.3350     2.1330 
   95.8750    95.5730     3.4840     2.2140  -218.1650    62.0130     5.8220     6.6770     5.4370     2.1430 
   96.0000    95.6950     3.5040     2.2340  -218.1310    61.9340     5.8470     6.7050     5.5320     2.1450 
   96.1250    95.8160     3.5240     2.2530  -218.0760    61.2660     5.7960     6.6360     5.5590     2.1350 
   96.2500    95.9380     3.5440     2.2720  -218.0000    62.2920     5.6860     6.4970     5.4930     2.1280 
   96.3750    96.0600     3.5640     2.2920  -217.9640    67.5360     5.5830     6.3820     5.4530     2.1350 
   96.5000    96.1820     3.5840     2.3110  -217.9740    72.8520     5.5330     6.3430     5.5270     2.1460 
   96.6250    96.3040     3.6040     2.3310  -217.9530    73.3880     5.5530     6.3920     5.6590     2.1470 
   96.7500    96.4250     3.6240     2.3510  -217.8970    70.8810     5.6470     6.5240     5.8170     2.1360 
   96.8750    96.5470     3.6450     2.3710  -217.8080    69.0190     5.7680     6.6760     6.0100     2.1250 
   97.0000    96.6690     3.6650     2.3900  -217.7630    67.4720     5.8920     6.8170     6.1750     2.1240 
   97.1250    96.7910     3.6850     2.4100  -217.7670    66.8370     5.9990     6.9320     6.4080     2.1310 
   97.2500    96.9120     3.7060     2.4300  -217.7610    68.1570     6.0570     6.9900     6.6910     2.1370 
   97.3750    97.0340     3.7260     2.4510  -217.7530    69.4440     6.0780     6.9890     6.7250     2.1380 
   97.5000    97.1560     3.7470     2.4710  -217.6400    69.3910     6.0690     6.9530     6.3980     2.1360 
   97.6250    97.2770     3.7670     2.4910  -217.4930    68.8400     6.0540     6.9130     6.1400     2.1330 
   97.7500    97.3990     3.7880     2.5120  -217.4580    69.1070     6.0660     6.9230     6.2350     2.1260 
   97.8750    97.5200     3.8090     2.5320  -217.4800    69.8510     6.1080     6.9850     6.3070     2.1200 
   98.0000    97.6420     3.8290     2.5530  -217.4690    68.8900     6.1300     7.0320     6.3090     2.1220 
   98.1250    97.7630     3.8500     2.5730  -217.4590    66.3560     6.0730     6.9760     6.4550     2.1310 
   98.2500    97.8850     3.8710     2.5940  -217.5510    64.8650     5.8850     6.7430     6.6340     2.1400 
   98.3750    98.0060     3.8920     2.6150  -217.6980    67.2140     5.5600     6.3450     6.5340     2.1360 
   98.5000    98.1280     3.9130     2.6360  -217.8440    70.1030     5.1960     5.9030     6.0910     2.1300 
   98.6250    98.2490     3.9340     2.6570  -217.9240    70.4840     4.8970     5.5610     5.5430     2.1420 
   98.7500    98.3710     3.9550     2.6780  -217.9370    69.5870     4.7290     5.3960     5.0340     2.1710 
   98.8750    98.4920     3.9770     2.6990  -217.9580    71.6600     4.7430     5.4670     4.9460     2.1840 
   99.0000    98.6130     3.9980     2.7200  -218.0090    74.7840     4.8830     5.6940     5.3690     2.1630 
   99.1250    98.7350     4.0190     2.7410  -218.0270    76.1020     5.1080     5.9950     5.7140     2.1270 
   99.2500    98.8560     4.0410     2.7630  -218.0340    73.9790     5.3110     6.2410     5.7710     2.1060 
   99.3750    98.9770     4.0620     2.7840  -218.0380    70.0080     5.4060     6.3250     5.7040     2.1050 
   99.5000    99.0980     4.0830     2.8060  -218.0790    67.0780     5.4080     6.2940     5.5580     2.1100 
   99.6250    99.2200     4.1050     2.8280  -218.1410    65.4310     5.3430     6.1920     5.4440     2.1140 
   99.7500    99.3410     4.1270     2.8490  -218.2870    64.0700     5.2720     6.0980     5.4660     2.1200 
   99.8750    99.4620     4.1480     2.8710  -218.4260    63.7820     5.2220     6.0400     5.5780     2.1280 
  100.0000    99.5830     4.1700     2.8930  -218.4270    65.8130     5.2050     6.0340     5.7230     2.1320 
  100.1250    99.7040     4.1920     2.9150  -218.3330    69.1130     5.2380     6.0940     5.8720     2.1270 
  100.2500    99.8250     4.2130     2.9370  -218.1880    70.2310     5.3000     6.1890     5.9010     2.1230 
  100.3750    99.9460     4.2350     2.9600  -218.0910    67.8910     5.3710     6.2950     5.8050     2.1250 
  100.5000   100.0670     4.2570     2.9820  -218.0020    65.3870     5.4330     6.3870     5.7550     2.1310 
  100.6250   100.1880     4.2790     3.0040  -217.9040    66.9670     5.4760     6.4550     5.7920     2.1360 
  100.7500   100.3090     4.3010     3.0270  -217.8200    70.3530     5.5090     6.5080     5.8780     2.1410 
  100.8750   100.4300     4.3240     3.0500  -217.8460    71.8480     5.5310     6.5300     6.0030     2.1410 
  101.0000   100.5510     4.3460     3.0720  -217.9290    70.8650     5.5360     6.5170     6.0690     2.1380 
  101.1250   100.6720     4.3680     3.0950  -217.9710    69.8570     5.5300     6.4800     5.9820     2.1320 
  101.2500   100.7930     4.3910     3.1180  -217.9410    70.2330     5.5270     6.4540     5.8390     2.1270 
  101.3750   100.9140     4.4130     3.1400  -217.8690    69.8580     5.5540     6.4680     5.6960     2.1290 
  101.5000   101.0340     4.4350     3.1630  -217.7760    68.9640     5.6220     6.5450     5.5910     2.1350 
  101.6250   101.1550     4.4580     3.1860  -217.6920    68.5110     5.7290     6.6760     5.6890     2.1380 
  101.7500   101.2760     4.4810     3.2100  -217.5840    68.8120     5.8330     6.8080     6.0110     2.1360 
  101.8750   101.3970     4.5030     3.2330  -217.3960    69.5110     5.8420     6.8150     6.2950     2.1370 
  102.0000   101.5170     4.5260     3.2560  -217.1880    71.2400     5.7080     6.6350     6.2880     2.1410 
  102.1250   101.6380     4.5490     3.2800  -217.0570    73.3880     5.4090     6.2490     6.0570     2.1470 
  102.2500   101.7590     4.5710     3.3030  -217.0090    75.0560     5.0300     5.7630     5.6670     2.1540 
  102.3750   101.8790     4.5940     3.3270  -217.0240    76.1750     4.6790     5.3290     5.0590     2.1700 
  102.5000   102.0000     4.6170     3.3500  -217.0040    78.3970     4.4590     5.0730     4.5520     2.1970 
  102.6250   102.1200     4.6400     3.3740  -216.9180    82.6760     4.4350     5.0800     4.5500     2.2200 
  102.7500   102.2410     4.6630     3.3980  -216.8080    87.4400     4.6450     5.3890     4.9810     2.2200 
  102.8750   102.3610     4.6860     3.4220  -216.6270    88.7540     5.0220     5.8870     5.6190     2.1960 
  103.0000   102.4820     4.7090     3.4460  -216.3580    83.1160     5.3710     6.3080     6.0510     2.1600 
  103.1250   102.6020     4.7330     3.4700  -216.0310    72.9580     5.4840     6.3830     6.0310     2.1230 
  103.2500   102.7230     4.7560     3.4940  -215.7730    66.2750     5.3040     6.0710     5.9240     2.1020 
  103.3750   102.8430     4.7790     3.5180  -215.7360    67.1620     4.9840     5.6080     5.8350     2.1170 
  103.5000   102.9640     4.8030     3.5420  -215.8520    72.9520     4.7370     5.2790     5.4680     2.1530 
  103.6250   103.0840     4.8260     3.5670  -215.9390    80.1120     4.8030     5.3920     5.1610     2.1790 
  103.7500   103.2040     4.8500     3.5910  -215.9620    86.8980     5.1600     5.8790     6.3060     2.1750 
