~V
VERS. 2.00: Ver 2.00
~W
STRT.M 50.0000:
STOP.M 286.0000:
STEP.M 0.1250:
NULL. -999.2500:
UWI. FD11181:
~C
DEPT.M :
TVD. :
DX. :
DY. :
SP.MV :
GR.API :
RI. :
RML.OHMM :
RXO.OHMM :
DEN.GM/CC :
~A
# ...
  186.8750   183.1940   -25.3880     2.7100   -30.0460    50.7390   146.4010   151.5370   108.1170     2.1800 
  187.0000   183.3090   -25.4380     2.7120   -30.0170    53.2420   147.3850   152.4960   133.9920     2.1860 
  187.1250   183.4240   -25.4870     2.7130   -29.9930    53.2320   147.6240   152.6290   154.6820     2.1930 
  187.2500   183.5390   -25.5360     2.7150   -30.0130    50.3040   147.2890   152.3530   152.8510     2.1960 
  187.3750   183.6540   -25.5850     2.7170   -29.9800    50.4050   147.1820   152.4420   134.7990     2.1980 
  187.5000   183.7690   -25.6350     2.7180   -29.9170    54.4930   148.0890   153.7100   120.1010     2.2030 
  187.6250   183.8840   -25.6840     2.7200   -29.8890    57.0640   150.9190   156.8240   112.0900     2.2050 
  187.7500   183.9980   -25.7330     2.7220   -29.8480    56.4080   155.2140   161.3580   127.5510     2.2000 
  187.8750   184.1130   -25.7830     2.7230   -29.7560    56.5910   160.0320   166.4480   225.5820     2.1920 
  188.0000   184.2280   -25.8320     2.7250   -29.6570    57.9340   164.7180   171.0370   351.3560     2.1860 
  188.1250   184.3430   -25.8810     2.7270   -29.6240    56.6510   167.8630   174.1180   338.6640     2.1860 
  188.2500   184.4580   -25.9310     2.7280   -29.6560    53.2580   169.5670   175.4500   225.4440     2.1910 
  188.3750   184.5730   -25.9800     2.7300   -29.6860    52.1910   169.1380   174.6610   160.5100     2.1940 
  188.5000   184.6870   -26.0300     2.7320   -29.7670    54.5330   166.5860   171.8270   143.2770     2.1950 
  188.6250   184.8020   -26.0790     2.7330   -29.8410    57.3790   162.3130   167.5180   134.7570     2.1930 
  188.7500   184.9170   -26.1280     2.7350   -29.9190    57.3020   157.8420   162.9380   141.3490     2.1910 
  188.8750   185.0320   -26.1780     2.7360   -29.9600    56.4810   153.5630   158.5530   177.0430     2.1890 
  189.0000   185.1470   -26.2270     2.7380   -29.9650    55.6270   149.5660   154.3730   223.7660     2.1850 
  189.1250   185.2610   -26.2770     2.7400   -29.9760    54.3950   145.7250   150.1570   226.3330     2.1810 
  189.2500   185.3760   -26.3260     2.7410   -29.9270    51.8720   141.1970   145.4740   180.2140     2.1810 
  189.3750   185.4910   -26.3750     2.7430   -29.5720    48.5790   136.4310   140.6710   136.4970     2.1840 
  189.5000   185.6060   -26.4250     2.7450   -28.8950    46.1200   132.4480   136.4600   116.9390     2.1840 
  189.6250   185.7210   -26.4740     2.7470   -27.8980    46.0310   129.5250   133.5990   107.3840     2.1820 
  189.7500   185.8350   -26.5240     2.7490   -27.0760    48.8260   128.6200   132.6850    98.6230     2.1860 
  189.8750   185.9500   -26.5730     2.7500   -26.6440    52.5590   129.6970   133.6470   100.4330     2.1900 
  190.0000   186.0650   -26.6230     2.7520   -26.3770    54.3200   131.5360   135.3100   119.4020     2.1900 
  190.1250   186.1800   -26.6720     2.7540   -26.2580    54.2280   132.9460   136.2980   139.2090     2.1840 
  190.2500   186.2940   -26.7220     2.7560   -26.3050    54.1510   132.4350   135.5440   140.7550     2.1800 
  190.3750   186.4090   -26.7710     2.7570   -26.4810    54.2970   130.2290   133.0170   125.7940     2.1820 
  190.5000   186.5240   -26.8210     2.7590   -26.6230    54.8990   127.1130   129.7200   109.5970     2.1880 
  190.6250   186.6390   -26.8710     2.7610   -26.7800    56.0040   123.9690   126.6400   100.7490     2.1900 
  190.7500   186.7530   -26.9200     2.7620   -26.9640    57.0580   121.7420   124.3280    96.9180     2.1910 
  190.8750   186.8680   -26.9700     2.7640   -27.1570    55.3870   119.8050   122.3720   158.1280     2.1920 
  191.0000   186.9830   -27.0190     2.7660   -27.3050    51.8070   117.5740   120.1110   304.9640     2.1950 
  191.1250   187.0980   -27.0690     2.7680   -27.3420    50.3630   114.7110   117.2260   354.3130     2.2000 
  191.2500   187.2120   -27.1180     2.7700   -27.3380    51.8100   111.3130   113.9550   233.9540     2.2040 
  191.3750   187.3270   -27.1680     2.7710   -27.4350    53.9950   108.2520   111.0100   118.3930     2.2050 
  191.5000   187.4420   -27.2180     2.7730   -27.6630    54.4100   106.0310   109.0110    86.5450     2.2020 
  191.6250   187.5570   -27.2670     2.7750   -27.8980    52.9520   105.3370   108.4900    84.3100     2.1970 
  191.7500   187.6710   -27.3170     2.7760   -28.0320    51.1470   105.8660   109.2130    82.6940     2.1940 
  191.8750   187.7860   -27.3660     2.7780   -28.1230    50.7110   107.1200   110.7050    82.1560     2.1920 
  192.0000   187.9010   -27.4160     2.7790   -28.1900    52.2630   108.5990   112.2850    87.6380     2.1870 
  192.1250   188.0150   -27.4650     2.7810   -28.2230    54.0230   109.4590   113.1440    97.2850     2.1830 
  192.2500   188.1300   -27.5150     2.7830   -28.2260    55.0210   109.2510   112.8890   101.9640     2.1830 
  192.3750   188.2450   -27.5650     2.7840   -28.1800    54.6060   107.9460   111.6040   101.0940     2.1870 
  192.5000   188.3600   -27.6140     2.7860   -28.1000    53.8550   106.1860   109.9150   100.1900     2.1910 
  192.6250   188.4740   -27.6640     2.7880   -27.9690    54.1350   104.4920   108.4400    96.8590     2.1910 
  192.7500   188.5890   -27.7130     2.7890   -27.8140    55.6710   103.4230   107.5690    87.3430     2.1910 
  192.8750   188.7040   -27.7630     2.7910   -27.5910    57.9100   102.9820   107.3540    88.1740     2.1930 
  193.0000   188.8190   -27.8130     2.7930   -27.2810    59.4230   102.8080   107.2530   128.0110     2.1960 
  193.1250   188.9330   -27.8620     2.7950   -26.9530    57.8830   102.1200   106.7070   177.6560     2.2040 
  193.2500   189.0480   -27.9120     2.7960   -26.7130    54.2440   100.9710   105.8180   168.8730     2.2180 
  193.3750   189.1630   -27.9620     2.7980   -26.5770    52.5620    99.8930   105.2190   123.6820     2.2270 
  193.5000   189.2770   -28.0110     2.8000   -26.4280    53.1210    99.8520   105.4930    97.9980     2.2210 
  193.6250   189.3920   -28.0610     2.8020   -26.1460    54.7330   100.4620   106.3740    80.1150     2.2030 
  193.7500   189.5070   -28.1100     2.8040   -25.8640    55.4280   100.7290   106.9010    64.4120     2.1860 
  193.8750   189.6220   -28.1600     2.8070   -25.7190    54.1480   100.0740   106.4470    65.0630     2.1780 
  194.0000   189.7360   -28.2100     2.8090   -25.6020    53.3480    98.3510   105.1450    78.7630     2.1790 
  194.1250   189.8510   -28.2590     2.8110   -25.4110    54.8720    96.5100   103.7630    95.7320     2.1870 
  194.2500   189.9660   -28.3090     2.8130   -25.1630    57.3920    95.3780   103.3920   104.2100     2.1910 
  194.3750   190.0800   -28.3590     2.8150   -24.9080    56.7680    96.5360   105.3940   105.3890     2.1880 
  194.5000   190.1950   -28.4080     2.8170   -24.7180    55.7990    99.9510   109.5160   106.7020     2.1830 
  194.6250   190.3100   -28.4580     2.8190   -24.5550    56.6510   104.0370   113.9440   102.7360     2.1810 
  194.7500   190.4240   -28.5080     2.8220   -24.1580    55.4660   106.8600   116.2280    92.5120     2.1840 
  194.8750   190.5390   -28.5570     2.8240   -23.5420    51.9450   105.5250   114.2410    86.5770     2.1870 
  195.0000   190.6540   -28.6070     2.8260   -22.8240    51.8900   100.9650   108.6950    87.0480     2.1900 
  195.1250   190.7680   -28.6570     2.8290   -22.1000    56.4960    94.2120   101.3460    83.5850     2.1940 
  195.2500   190.8830   -28.7060     2.8310   -21.4090    60.2680    87.3960    94.4760    74.7350     2.2030 
  195.3750   190.9980   -28.7560     2.8330   -20.7050    60.6040    82.8370    89.8760    69.0640     2.2140 
  195.5000   191.1120   -28.8060     2.8360   -20.0790    60.4870    80.6220    87.7980    68.4190     2.2200 
  195.6250   191.2270   -28.8550     2.8390   -19.6680    59.7090    80.6800    87.6540    68.9010     2.2170 
  195.7500   191.3420   -28.9050     2.8410   -19.6100    58.2220    81.0130    87.3800    68.2980     2.2080 
  195.8750   191.4560   -28.9550     2.8440   -19.5980    58.2770    79.2410    84.7020    70.2040     2.2030 
