~V
VERS. 2.00: Ver 2.00
~W
STRT.M 30.0000:
STOP.M 272.0000:
STEP.M 0.1250:
NULL. -999.2500:
UWI. FD11176:
~C
DEPT.M :
TVD. :
DX. :
DY. :
SP.MV :
GR.API :
RI. :
RML.OHMM :
RXO.OHMM :
DEN.GM/CC :
~A
# ...
  157.7500   152.7660    27.7880   -12.6780   -10.9740    63.5530     4.9470     5.8680     6.8100     2.3880 
  157.8750   152.8810    27.8310   -12.6980   -11.2190    65.1850     5.1340     6.1130     7.4940     2.3460 
  158.0000   152.9970    27.8740   -12.7190   -11.4310    64.0510     5.3540     6.3850     7.7830     2.3340 
  158.1250   153.1120    27.9170   -12.7400   -11.5980    62.9150     5.5750     6.6340     7.4480     2.3480 
  158.2500   153.2270    27.9610   -12.7600   -11.7540    65.9850     5.7480     6.8210     7.0710     2.3660 
  158.3750   153.3430    28.0040   -12.7810   -11.9300    69.9040     5.7580     6.8140     7.4800     2.3820 
  158.5000   153.4580    28.0470   -12.8020   -12.1050    69.3920     5.6060     6.6170     8.5040     2.3930 
  158.6250   153.5740    28.0910   -12.8220   -12.2150    66.4360     5.3150     6.2500     9.0570     2.3900 
  158.7500   153.6890    28.1340   -12.8430   -12.2280    66.1440     4.9530     5.7950     8.4220     2.3740 
  158.8750   153.8040    28.1780   -12.8640   -12.1660    67.4330     4.6680     5.4390     6.9460     2.3500 
  159.0000   153.9200    28.2210   -12.8850   -12.1100    67.1020     4.4990     5.2590     6.1180     2.3350 
  159.1250   154.0350    28.2640   -12.9060   -12.1380    66.0740     4.5060     5.3330     6.6360     2.3360 
  159.2500   154.1510    28.3070   -12.9270   -12.2720    65.4350     4.6400     5.5580     6.8740     2.3480 
  159.3750   154.2660    28.3510   -12.9480   -12.4910    65.2810     4.8220     5.8250     6.3150     2.3610 
  159.5000   154.3810    28.3940   -12.9690   -12.7500    65.4730     4.9930     6.0350     6.3290     2.3690 
  159.6250   154.4970    28.4370   -12.9900   -13.0070    64.9760     5.1060     6.1490     6.6910     2.3700 
  159.7500   154.6120    28.4800   -13.0100   -13.2190    63.3730     5.1810     6.2220     7.0210     2.3620 
  159.8750   154.7280    28.5230   -13.0310   -13.3620    63.3110     5.1980     6.2310     7.5190     2.3470 
  160.0000   154.8430    28.5670   -13.0520   -13.4600    65.0430     5.1780     6.2010     7.9230     2.3400 
  160.1250   154.9590    28.6100   -13.0740   -13.5420    66.4450     5.1420     6.1460     7.7030     2.3500 
  160.2500   155.0740    28.6530   -13.0950   -13.6270    66.2830     5.1000     6.0810     7.1840     2.3620 
  160.3750   155.1890    28.6960   -13.1160   -13.7200    67.1650     5.0880     6.0600     7.1540     2.3650 
  160.5000   155.3050    28.7390   -13.1370   -13.8070    69.1850     5.1120     6.0950     7.2230     2.3680 
  160.6250   155.4200    28.7820   -13.1580   -13.8680    70.3680     5.1570     6.1540     7.3570     2.3790 
  160.7500   155.5360    28.8250   -13.1790   -13.9010    69.3330     5.1710     6.1560     7.7660     2.3960 
  160.8750   155.6510    28.8680   -13.2000   -13.8880    66.5190     5.0980     6.0240     7.8210     2.3920 
  161.0000   155.7670    28.9110   -13.2200   -13.8200    63.6400     4.9570     5.8040     7.2120     2.3630 
  161.1250   155.8820    28.9540   -13.2410   -13.6900    64.4390     4.7930     5.5440     6.4930     2.3280 
  161.2500   155.9980    28.9970   -13.2620   -13.5250    67.6630     4.6540     5.3250     6.0780     2.3110 
  161.3750   156.1130    29.0400   -13.2830   -13.3850    70.4230     4.5930     5.2110     5.8860     2.3070 
  161.5000   156.2290    29.0830   -13.3040   -13.3280    72.3150     4.6240     5.2140     5.5760     2.3020 
  161.6250   156.3440    29.1260   -13.3250   -13.3620    77.5410     4.7450     5.3330     5.0670     2.3030 
  161.7500   156.4600    29.1690   -13.3460   -13.4440    84.7450     4.8840     5.4680     4.8850     2.3080 
  161.8750   156.5750    29.2120   -13.3670   -13.5510    88.4610     4.9320     5.4930     5.2350     2.3050 
  162.0000   156.6910    29.2550   -13.3870   -13.6850    88.4590     4.8210     5.3310     5.7980     2.2900 
  162.1250   156.8060    29.2980   -13.4080   -13.8510    88.4640     4.5770     5.0210     6.0810     2.2740 
  162.2500   156.9220    29.3410   -13.4280   -14.0160    90.9370     4.2630     4.6470     5.5720     2.2700 
  162.3750   157.0370    29.3840   -13.4490   -14.1200    92.7530     3.9570     4.3010     4.7450     2.2750 
  162.5000   157.1530    29.4270   -13.4700   -14.1550    92.2970     3.7300     4.0740     4.2200     2.2780 
  162.6250   157.2680    29.4700   -13.4910   -14.1910    91.3810     3.6120     3.9860     3.7740     2.2790 
  162.7500   157.3840    29.5130   -13.5110   -14.3120    91.5650     3.6260     4.0350     3.6400     2.2800 
  162.8750   157.4990    29.5560   -13.5320   -14.5580    92.5620     3.7980     4.2200     3.9790     2.2820 
  163.0000   157.6150    29.5990   -13.5530   -14.8990    92.0860     4.1500     4.5830     4.5890     2.2850 
  163.1250   157.7300    29.6430   -13.5730   -15.3340    90.3670     4.8360     5.3350     5.4000     2.2810 
  163.2500   157.8460    29.6860   -13.5940   -15.8860    89.2780     5.8020     6.4080     5.9900     2.2740 
  163.3750   157.9610    29.7290   -13.6140   -16.5930    88.8470     7.1660     7.9250     7.0760     2.2780 
  163.5000   158.0770    29.7720   -13.6350   -17.4110    84.4880     8.6670     9.5750    10.2270     2.2840 
  163.6250   158.1920    29.8150   -13.6560   -18.2390    75.7910    10.3080    11.3420    13.3200     2.2660 
  163.7500   158.3080    29.8580   -13.6770   -18.9610    67.9580    11.6900    12.7470    13.3590     2.2290 
  163.8750   158.4230    29.9010   -13.6980   -19.4950    65.4790    12.5600    13.5890    12.4000     2.2110 
  164.0000   158.5390    29.9440   -13.7180   -19.8590    66.7930    13.1270    14.1560    13.0070     2.2130 
  164.1250   158.6540    29.9870   -13.7390   -20.0830    69.3190    13.7270    14.8770    14.1880     2.2060 
  164.2500   158.7700    30.0300   -13.7590   -20.2270    70.3600    14.7760    16.2420    15.1470     2.1840 
  164.3750   158.8850    30.0740   -13.7800   -20.3240    69.1680    16.3470    18.2140    18.0110     2.1690 
  164.5000   159.0010    30.1170   -13.8010   -20.4070    67.5640    18.2820    20.5180    22.2870     2.1670 
  164.6250   159.1160    30.1600   -13.8210   -20.5090    66.6580    19.8470    22.2570    23.6960     2.1640 
  164.7500   159.2320    30.2040   -13.8420   -20.6360    65.1390    20.5350    22.8840    20.7410     2.1530 
  164.8750   159.3470    30.2470   -13.8620   -20.7660    63.1920    20.2960    22.4380    15.8870     2.1440 
  165.0000   159.4630    30.2900   -13.8830   -20.8740    63.1660    19.4640    21.3930    13.4040     2.1420 
  165.1250   159.5780    30.3340   -13.9040   -20.9730    64.8390    18.6030    20.4010    14.9850     2.1480 
  165.2500   159.6930    30.3770   -13.9240   -21.0870    68.7010    18.1270    19.9070    17.4670     2.1540 
  165.3750   159.8090    30.4200   -13.9450   -21.2090    72.2660    18.0060    19.7480    18.3490     2.1530 
  165.5000   159.9240    30.4640   -13.9650   -21.3030    74.0450    18.0410    19.6970    18.4020     2.1490 
  165.6250   160.0400    30.5070   -13.9860   -21.3510    73.9840    18.0980    19.6050    18.4890     2.1440 
  165.7500   160.1550    30.5510   -14.0070   -21.3860    73.7320    17.9890    19.3150    17.5930     2.1400 
  165.8750   160.2700    30.5940   -14.0270   -21.4550    73.5440    17.6210    18.7930    16.0260     2.1430 
  166.0000   160.3860    30.6370   -14.0480   -21.5710    71.0360    17.1110    18.1700    16.0740     2.1570 
  166.1250   160.5010    30.6810   -14.0690   -21.7100    66.7630    16.5840    17.5920    17.2380     2.1750 
  166.2500   160.6160    30.7250   -14.0890   -21.8390    64.0940    16.0910    17.0830    18.2090     2.1910 
  166.3750   160.7320    30.7680   -14.1100   -21.9600    63.6980    15.6790    16.6690    18.9100     2.2010 
  166.5000   160.8470    30.8120   -14.1300   -22.1000    66.0480    15.2780    16.2350    17.8630     2.2120 
  166.6250   160.9620    30.8550   -14.1510   -22.2640    68.0720    14.9350    15.8140    14.7290     2.2220 
  166.7500   161.0780    30.8980   -14.1720   -22.4190    68.5240    14.7730    15.5740    12.8930     2.2270 
