~V
VERS. 2.00: Ver 2.00
~W
STRT.M 10.0000:
STOP.M 249.0000:
STEP.M 0.1250:
NULL. -999.2500:
UWI. FD11114:
~C
DEPT.M :
TVD. :
DX. :
DY. :
GR.API :
RML.OHMM :
RI. :
RXO.OHMM :
CALI.CM :
SP.MV :
DEN.GM/CC :
~A
# ...
  125.5000   125.4250     2.1330     0.2120    56.4460    16.8070    14.4770     9.5560    25.2300   -24.0510     2.4410 
  125.6250   125.5490     2.1490     0.2110    55.4320    15.8550    13.6320    10.0010    25.1740   -24.2050     2.4920 
  125.7500   125.6730     2.1660     0.2090    53.7230    15.1160    12.8760    13.0660    25.1890   -24.3560     2.5130 
  125.8750   125.7970     2.1820     0.2080    56.9660    14.3930    12.1280    13.2540    25.1890   -24.4600     2.4880 
  126.0000   125.9210     2.1980     0.2060    66.0130    13.7110    11.4230    11.4690    25.1870   -24.4900     2.4250 
  126.1250   126.0450     2.2140     0.2050    74.1010    13.2420    10.8960    10.6830    25.1850   -24.4440     2.3490 
  126.2500   126.1690     2.2300     0.2040    75.0940    13.2980    10.7720     9.7000    25.1820   -24.3220     2.2940 
  126.3750   126.2930     2.2460     0.2020    71.6130    13.9930    11.1240     9.2230    25.1810   -24.1450     2.2680 
  126.5000   126.4170     2.2630     0.2010    68.5470    15.3650    12.0010    10.2630    25.1840   -23.9300     2.2650 
  126.6250   126.5410     2.2790     0.1990    67.4090    17.2430    13.3240    12.4090    25.1870   -23.7140     2.2760 
  126.7500   126.6650     2.2950     0.1980    66.0130    19.1840    14.8210    14.6430    25.1570   -23.5390     2.2910 
  126.8750   126.7880     2.3110     0.1960    64.8220    20.6690    16.0630    15.1660    25.0880   -23.4010     2.3070 
  127.0000   126.9120     2.3270     0.1950    63.5840    21.4480    16.7940    14.5590    25.0130   -23.2890     2.3240 
  127.1250   127.0360     2.3430     0.1930    61.4980    21.5740    16.9750    14.6530    24.9660   -23.2100     2.3370 
  127.2500   127.1600     2.3600     0.1920    59.7290    21.3730    16.8000    15.1650    24.9500   -23.1710     2.3440 
  127.3750   127.2840     2.3760     0.1900    59.5760    21.3620    16.6830    14.4730    24.9400   -23.1590     2.3540 
  127.5000   127.4080     2.3920     0.1890    59.7240    21.8400    16.8730    14.1660    24.9210   -23.1760     2.3750 
  127.6250   127.5320     2.4080     0.1870    57.9180    22.9480    17.5090    14.8580    24.8830   -23.2110     2.4150 
  127.7500   127.6560     2.4240     0.1860    55.9140    24.7520    18.6900    17.1640    24.8360   -23.2660     2.4730 
  127.8750   127.7800     2.4400     0.1840    55.4300    26.8670    20.2020    20.3950    24.8080   -23.3400     2.5310 
  128.0000   127.9040     2.4560     0.1830    55.1390    28.7700    21.7230    23.2090    24.8020   -23.4330     2.5760 
  128.1250   128.0280     2.4730     0.1810    53.6230    29.8420    22.8090    23.3640    24.8040   -23.5480     2.6020 
  128.2500   128.1520     2.4890     0.1800    50.3970    29.5100    22.9650    22.4530    24.8070   -23.6900     2.6060 
  128.3750   128.2760     2.5050     0.1780    47.4690    28.1510    22.3360    19.2650    24.8100   -23.8600     2.5950 
  128.5000   128.4000     2.5210     0.1770    49.6700    26.1080    21.1090    16.9430    24.8110   -24.0460     2.5780 
  128.6250   128.5240     2.5370     0.1760    56.6460    23.5780    19.4150    14.9990    24.8110   -24.2380     2.5650 
  128.7500   128.6480     2.5530     0.1740    60.9080    20.5420    17.2350    13.6650    24.8100   -24.4200     2.5590 
  128.8750   128.7710     2.5700     0.1730    61.0390    17.2020    14.7430    13.6620    24.8090   -24.5690     2.5490 
  129.0000   128.8950     2.5860     0.1710    63.5680    13.8770    12.1840    13.7330    24.8300   -24.6650     2.5230 
  129.1250   129.0190     2.6020     0.1700    70.9770    10.9700     9.8680    10.8040    24.9100   -24.6910     2.4760 
  129.2500   129.1430     2.6180     0.1680    78.5430     8.8910     8.1230     7.0220    25.0350   -24.6440     2.4170 
  129.3750   129.2670     2.6340     0.1670    83.2860     7.5410     6.9310     5.5470    25.1290   -24.5590     2.3630 
  129.5000   129.3910     2.6500     0.1650    87.1150     6.7910     6.2320     5.1670    25.1670   -24.4630     2.3260 
  129.6250   129.5150     2.6670     0.1640    90.2990     6.4810     5.9310     5.0500    25.2130   -24.3770     2.3100 
  129.7500   129.6390     2.6830     0.1620    90.5190     6.4690     5.9460     4.9850    25.3240   -24.3410     2.3080 
  129.8750   129.7630     2.6990     0.1610    88.0530     6.5500     6.0930     4.9550    25.4450   -24.3500     2.3090 
  130.0000   129.8870     2.7150     0.1590    85.6210     6.6250     6.2670     4.9170    25.5300   -24.4000     2.3090 
  130.1250   130.0110     2.7310     0.1580    85.1420     6.6540     6.4050     5.0550    25.5780   -24.4830     2.3110 
  130.2500   130.1350     2.7470     0.1560    87.3560     6.6450     6.4830     5.3550    25.6110   -24.5820     2.3180 
  130.3750   130.2590     2.7630     0.1550    89.6290     6.6570     6.5420     5.4770    25.6280   -24.6900     2.3300 
  130.5000   130.3830     2.7800     0.1530    90.2550     6.7440     6.6260     5.3090    25.6300   -24.7990     2.3360 
  130.6250   130.5070     2.7960     0.1520    88.5910     6.9260     6.7550     5.1960    25.6270   -24.8850     2.3270 
  130.7500   130.6300     2.8120     0.1500    84.8700     7.1420     6.8840     5.8110    25.6270   -24.9220     2.3010 
  130.8750   130.7540     2.8280     0.1490    81.1680     7.2550     6.9070     6.6170    25.6450   -24.9050     2.2740 
  131.0000   130.8780     2.8440     0.1480    79.3160     7.1560     6.7390     6.8620    25.6810   -24.8440     2.2610 
  131.1250   131.0020     2.8600     0.1460    81.1860     6.8350     6.3720     6.4060    25.7150   -24.7480     2.2710 
  131.2500   131.1260     2.8770     0.1450    85.7720     6.4320     5.9130     5.5680    25.7270   -24.6440     2.3000 
  131.3750   131.2500     2.8930     0.1430    88.4870     6.1990     5.5670     4.8460    25.7400   -24.5620     2.3300 
  131.5000   131.3740     2.9090     0.1420    88.8460     6.3230     5.4780     4.7310    25.7720   -24.5110     2.3420 
  131.6250   131.4980     2.9250     0.1400    87.9170     6.9180     5.7400     5.5510    25.8080   -24.4860     2.3270 
  131.7500   131.6220     2.9410     0.1390    83.1860     8.1160     6.4690     7.1210    25.8250   -24.4590     2.2800 
  131.8750   131.7460     2.9570     0.1370    74.4810     9.7890     7.5980     9.3510    25.8310   -24.3890     2.2220 
  132.0000   131.8700     2.9740     0.1360    67.3350    11.8240     9.0710    10.9260    25.8200   -24.2480     2.1770 
  132.1250   131.9940     2.9900     0.1340    64.3380    14.0610    10.7810    11.4950    25.7710   -24.0220     2.1680 
  132.2500   132.1180     3.0060     0.1330    62.0510    16.3520    12.6030    11.9000    25.6840   -23.7200     2.2270 
  132.3750   132.2420     3.0220     0.1310    57.8390    18.6050    14.4250    12.6690    25.6150   -23.3900     2.3420 
  132.5000   132.3660     3.0380     0.1300    55.9220    20.7450    16.1840    14.1250    25.5850   -23.0730     2.4810 
  132.6250   132.4890     3.0540     0.1280    57.1580    22.6080    17.7790    15.9890    25.5810   -22.8080     2.5960 
  132.7500   132.6130     3.0700     0.1270    56.3640    23.8150    18.9380    17.7730    25.5810   -22.6100     2.6400 
  132.8750   132.7370     3.0870     0.1250    52.6040    24.2200    19.5020    17.8630    25.5890   -22.4510     2.6230 
  133.0000   132.8610     3.1030     0.1240    50.2430    23.8290    19.4190    16.7920    25.6050   -22.3180     2.5660 
  133.1250   132.9850     3.1190     0.1220    50.9050    22.8790    18.8310    15.7330    25.6250   -22.1910     2.5020 
  133.2500   133.1090     3.1350     0.1210    52.3290    21.7530    18.0180    14.3440    25.6350   -22.0530     2.4620 
  133.3750   133.2330     3.1510     0.1200    51.9540    20.8530    17.3150    13.4580    25.6370   -21.9040     2.4410 
  133.5000   133.3570     3.1670     0.1180    51.1740    20.3960    16.9110    12.6700    25.6550   -21.7460     2.4220 
  133.6250   133.4810     3.1840     0.1170    50.5530    20.4590    16.8960    13.1620    25.6680   -21.5920     2.3910 
