~V
VERS. 2.00: Ver 2.00
~W
STRT.M 20.0000:
STOP.M 285.0000:
STEP.M 0.1250:
NULL. -999.2500:
UWI. FD11157:
~C
DEPT.M :
TVD. :
DX. :
DY. :
GR.API :
RML.OHMM :
RI. :
RXO.OHMM :
CALI.CM :
SP.MV :
DEN.GM/CC :
~A
# ...
  102.5000   102.2130    -2.6850    -3.8230    64.0650     9.8290     8.2890    13.6380    22.9380   -35.6250     2.1800 
  102.6250   102.3370    -2.6940    -3.8390    62.9070    10.0870     8.5630    13.8460    23.1980   -35.9030     2.1640 
  102.7500   102.4610    -2.7020    -3.8540    61.8260    10.1770     8.7650    13.8830    23.3940   -36.1930     2.1530 
  102.8750   102.5840    -2.7110    -3.8690    59.3500    10.1450     8.8650    13.8200    23.5000   -36.4420     2.1450 
  103.0000   102.7080    -2.7200    -3.8840    55.6850    10.0900     8.8840    13.6470    23.5010   -36.5960     2.1410 
  103.1250   102.8320    -2.7290    -3.9000    52.0420    10.0990     8.8750    13.3470    23.6550   -36.6090     2.1410 
  103.2500   102.9560    -2.7370    -3.9150    50.7640    10.1480     8.8740    13.1830    23.9060   -36.5240     2.1420 
  103.3750   103.0790    -2.7460    -3.9300    54.3410    10.1990     8.8840    13.1840    24.2390   -36.3510     2.1410 
  103.5000   103.2030    -2.7550    -3.9450    60.4090    10.2210     8.8870    13.1960    24.5110   -36.1150     2.1400 
  103.6250   103.3270    -2.7640    -3.9610    62.3050    10.1910     8.8650    13.0170    24.7520   -35.8280     2.1380 
  103.7500   103.4510    -2.7730    -3.9760    58.8030    10.1350     8.8320    12.6730    24.8410   -35.4870     2.1330 
  103.8750   103.5740    -2.7810    -3.9910    54.5620    10.0790     8.8110    12.0400    24.6060   -35.1410     2.1260 
  104.0000   103.6980    -2.7900    -4.0070    53.9800    10.0350     8.8180    11.4020    23.9700   -34.8160     2.1220 
  104.1250   103.8220    -2.7990    -4.0220    56.1650     9.9960     8.8390    11.5650    23.6630   -34.4440     2.1290 
  104.2500   103.9460    -2.8080    -4.0370    56.8530     9.9390     8.8410    12.0160    23.7530   -33.9950     2.1430 
  104.3750   104.0690    -2.8170    -4.0520    55.8920     9.8460     8.8000    12.4670    23.9770   -33.4740     2.1580 
  104.5000   104.1930    -2.8250    -4.0680    56.6490     9.6900     8.6900    12.5870    24.1180   -32.9000     2.1670 
  104.6250   104.3170    -2.8340    -4.0830    61.3950     9.4120     8.4500    12.2120    24.0640   -32.2350     2.1690 
  104.7500   104.4410    -2.8430    -4.0980    65.1290     8.9970     8.0770    11.8080    23.9900   -31.4780     2.1740 
  104.8750   104.5640    -2.8520    -4.1140    63.6520     8.4810     7.6080    11.6270    23.9680   -30.6350     2.1930 
  105.0000   104.6880    -2.8610    -4.1290    61.3970     7.9590     7.1360    10.3990    23.9410   -29.7510     2.2250 
  105.1250   104.8120    -2.8690    -4.1440    66.1140     7.5840     6.7990     8.5480    24.0160   -28.9730     2.2590 
  105.2500   104.9360    -2.8780    -4.1590    72.2540     7.4270     6.6600     7.3370    24.2760   -28.4060     2.2760 
  105.3750   105.0590    -2.8870    -4.1750    73.0940     7.4830     6.7220     7.9330    24.2800   -28.0440     2.2650 
  105.5000   105.1830    -2.8960    -4.1900    69.9990     7.6500     6.9120    10.0140    24.0230   -27.7620     2.2300 
  105.6250   105.3070    -2.9040    -4.2050    67.3800     7.7270     7.0680    11.2110    24.2700   -27.5180     2.1900 
  105.7500   105.4310    -2.9130    -4.2210    66.7230     7.5930     7.0410    10.7170    24.5570   -27.3420     2.1680 
  105.8750   105.5540    -2.9220    -4.2360    69.1110     7.2740     6.8010     8.8520    24.6720   -27.2980     2.1720 
  106.0000   105.6780    -2.9310    -4.2510    75.8850     6.9230     6.4430     6.7630    24.6000   -27.4400     2.1980 
  106.1250   105.8020    -2.9400    -4.2660    80.5640     6.7490     6.1370     6.0220    24.3630   -27.7590     2.2340 
  106.2500   105.9260    -2.9480    -4.2820    77.2420     6.7840     5.9830     6.4950    24.0580   -28.1540     2.2630 
  106.3750   106.0500    -2.9550    -4.2970    71.2600     6.9800     6.0020     8.0840    23.8690   -28.6090     2.2800 
  106.5000   106.1730    -2.9620    -4.3130    69.3470     7.2680     6.1660     9.1150    23.8560   -29.1920     2.2860 
  106.6250   106.2970    -2.9680    -4.3280    71.6770     7.6380     6.4560     9.2570    23.8690   -30.0150     2.2790 
  106.7500   106.4210    -2.9750    -4.3440    71.3790     8.1170     6.8380     9.2180    23.9000   -31.0390     2.2590 
  106.8750   106.5450    -2.9820    -4.3600    67.3300     8.7410     7.3080    10.1590    23.9290   -32.1310     2.2310 
  107.0000   106.6690    -2.9880    -4.3750    62.8790     9.4700     7.8520    10.9610    23.8700   -33.1780     2.2030 
  107.1250   106.7930    -2.9950    -4.3910    60.4910    10.1390     8.3970    11.7140    23.8090   -34.0700     2.1850 
  107.2500   106.9160    -3.0020    -4.4060    59.7800    10.5570     8.8150    12.1530    23.7550   -34.7930     2.1810 
  107.3750   107.0400    -3.0080    -4.4220    59.8080    10.6120     8.9990    11.8390    23.6140   -35.4200     2.1830 
  107.5000   107.1640    -3.0150    -4.4370    60.6020    10.3520     8.9290    11.1080    23.5270   -36.0170     2.1850 
  107.6250   107.2880    -3.0210    -4.4530    63.3670     9.9750     8.6910    11.0380    23.6090   -36.5360     2.1760 
  107.7500   107.4120    -3.0280    -4.4690    65.6330     9.6950     8.4590    11.8580    23.6950   -36.9330     2.1550 
  107.8750   107.5360    -3.0350    -4.4840    64.4250     9.5770     8.3150    12.6260    23.7700   -37.2480     2.1190 
  108.0000   107.6590    -3.0410    -4.5000    61.4090     9.6150     8.2800    12.8820    23.8640   -37.5010     2.0740 
  108.1250   107.7830    -3.0480    -4.5150    59.5400     9.7510     8.3330    12.8420    23.9770   -37.6940     2.0430 
  108.2500   107.9070    -3.0550    -4.5310    57.4080     9.8560     8.3990    13.1020    24.0070   -37.8490     2.0470 
  108.3750   108.0310    -3.0610    -4.5470    53.3680     9.8510     8.4230    13.3840    23.9030   -37.9320     2.0950 
  108.5000   108.1550    -3.0680    -4.5620    50.9920     9.7190     8.3820    13.3950    23.7740   -37.9170     2.1660 
  108.6250   108.2790    -3.0750    -4.5780    52.5830     9.5070     8.2880    13.0980    23.7490   -37.8030     2.2080 
  108.7500   108.4030    -3.0810    -4.5930    53.7850     9.3320     8.2020    12.9310    24.0300   -37.6610     2.1930 
  108.8750   108.5260    -3.0880    -4.6090    53.3170     9.2680     8.1650    13.4210    24.4970   -37.5010     2.1270 
  109.0000   108.6500    -3.0950    -4.6240    52.7060     9.3230     8.1890    14.4660    24.9000   -37.3010     2.0380 
  109.1250   108.7740    -3.1010    -4.6400    53.7000     9.4470     8.2660    15.7960    24.9310   -37.0300     1.9700 
  109.2500   108.8980    -3.1080    -4.6560    55.7080     9.5660     8.3560    16.0880    24.7150   -36.6910     1.9490 
  109.3750   109.0220    -3.1150    -4.6710    57.6070     9.6470     8.4310    15.0640    24.7200   -36.2750     1.9830 
  109.5000   109.1460    -3.1210    -4.6870    57.4650     9.6860     8.4760    13.9510    24.9280   -35.7940     2.0510 
  109.6250   109.2690    -3.1280    -4.7020    56.7010     9.7010     8.4820    13.4820    25.0980   -35.2510     2.1130 
  109.7500   109.3930    -3.1340    -4.7180    56.2130     9.7170     8.4640    13.5710    25.0920   -34.5990     2.1450 
  109.8750   109.5170    -3.1410    -4.7340    56.3990     9.7270     8.4270    13.7910    24.8950   -33.7990     2.1440 
  110.0000   109.6410    -3.1480    -4.7490    57.0920     9.7070     8.3760    13.6700    24.7110   -32.8780     2.1240 
  110.1250   109.7650    -3.1540    -4.7650    58.4320     9.6560     8.3310    13.1370    24.4620   -31.8530     2.1030 
  110.2500   109.8890    -3.1610    -4.7800    57.5140     9.6050     8.3190    12.5040    24.1970   -30.7270     2.0950 
  110.3750   110.0130    -3.1680    -4.7960    52.5030     9.5440     8.3410    11.8180    24.3320   -29.5090     2.1040 
  110.5000   110.1360    -3.1740    -4.8110    49.2390     9.4160     8.3490    11.3180    24.5160   -28.1790     2.1360 
  110.6250   110.2600    -3.1810    -4.8270    52.1950     9.1170     8.2230    11.5370    24.5230   -26.6470     2.2050 
