~V
VERS. 2.00: Ver 2.00
~W
STRT.M 50.0000:
STOP.M 268.0000:
STEP.M 0.1250:
NULL. -999.2500:
UWI. FD11187:
~C
DEPT.M :
TVD. :
DX. :
DY. :
SP.MV :
GR.API :
RI. :
RML.OHMM :
RXO.OHMM :
DEN.GM/CC :
~A
# ...
  241.6250   231.0810    50.6940   -12.8350    -6.5060    59.8110    12.9360    13.4140    16.5750     2.2030 
  241.7500   231.1930    50.7480   -12.8430    -5.9470    57.3810    13.6840    14.3560    15.1540     2.2100 
  241.8750   231.3060    50.8010   -12.8510    -4.9870    55.6370    16.1850    17.6580    11.3040     2.2580 
  242.0000   231.4190    50.8540   -12.8590    -4.2600    55.9310    19.8150    23.3100    12.7780     2.3350 
  242.1250   231.5320    50.9080   -12.8670    -3.0600    57.5790    22.6780    27.3240    51.4610     2.5020 
  242.2500   231.6440    50.9610   -12.8740    -2.2220    58.1120    20.5610    24.9690   104.4060     2.5990 
  242.3750   231.7570    51.0150   -12.8810    -1.0020    57.1550    14.1080    17.1220   149.3940     2.6380 
  242.5000   231.8700    51.0680   -12.8890    -0.2820    56.8800     7.2590     8.0000   123.6950     2.5680 
  242.6250   231.9830    51.1220   -12.8970     0.5440    59.2720     3.0230     3.2240    46.8040     2.3960 
  242.7500   232.0950    51.1750   -12.9040     0.8820    63.4660     2.1000     2.2300    13.7350     2.3080 
  242.8750   232.2080    51.2290   -12.9120     1.0650    72.1900     1.7050     1.8700     2.5510     2.2830 
  243.0000   232.3210    51.2820   -12.9200     1.0100    77.7210     1.7210     1.9570     3.2500     2.3120 
  243.1250   232.4330    51.3360   -12.9270     0.7780    80.9590     1.9830     2.3440     3.8740     2.3510 
  243.2500   232.5460    51.3900   -12.9350     0.5890    80.4820     2.2070     2.6130     3.8880     2.3610 
  243.3750   232.6590    51.4430   -12.9430     0.3320    80.5000     2.4610     2.8730     4.1290     2.3610 
  243.5000   232.7710    51.4970   -12.9500     0.1950    81.3570     2.5560     2.9500     4.5170     2.3600 
  243.6250   232.8840    51.5510   -12.9580     0.0400    81.3200     2.6110     2.9620     4.7130     2.3500 
  243.7500   232.9960    51.6050   -12.9650    -0.0410    81.5330     2.6180     2.9450     4.5610     2.3400 
  243.8750   233.1090    51.6590   -12.9730    -0.1410    84.1020     2.6210     2.9230     4.4860     2.3280 
  244.0000   233.2210    51.7120   -12.9810    -0.1950    86.3760     2.6200     2.9060     4.6440     2.3270 
  244.1250   233.3340    51.7660   -12.9890    -0.2520    88.9560     2.6130     2.9080     4.7840     2.3290 
  244.2500   233.4460    51.8200   -12.9970    -0.2760    90.5640     2.6010     2.9210     4.7150     2.3290 
  244.3750   233.5590    51.8740   -13.0060    -0.2990    91.5560     2.5600     2.9330     4.6190     2.3300 
  244.5000   233.6710    51.9280   -13.0140    -0.3160    90.9530     2.5250     2.9290     4.6020     2.3310 
  244.6250   233.7840    51.9820   -13.0220    -0.3560    92.3900     2.4620     2.9090     4.6220     2.3290 
  244.7500   233.8960    52.0370   -13.0310    -0.3920    95.3630     2.4250     2.8860     4.6940     2.3240 
  244.8750   234.0080    52.0910   -13.0390    -0.4430    99.3230     2.3850     2.8640     4.7080     2.3150 
  245.0000   234.1200    52.1450   -13.0470    -0.4580   100.4060     2.3660     2.8550     4.6110     2.3130 
  245.1250   234.2330    52.2000   -13.0550    -0.4340   100.4770     2.3670     2.8760     4.5160     2.3110 
  245.2500   234.3450    52.2540   -13.0630    -0.3840    98.2370     2.4040     2.9280     4.5410     2.3100 
  245.3750   234.4570    52.3080   -13.0720    -0.2800    93.2530     2.4820     3.0340     4.7280     2.3080 
  245.5000   234.5690    52.3630   -13.0800    -0.2130    91.4830     2.5440     3.1090     4.9190     2.3020 
  245.6250   234.6820    52.4170   -13.0880    -0.1510    93.9280     2.6040     3.1690     5.1410     2.2920 
  245.7500   234.7940    52.4720   -13.0960    -0.1480    96.7160     2.6320     3.1830     5.1670     2.2920 
  245.8750   234.9060    52.5260   -13.1040    -0.1920    98.4290     2.6570     3.1740     4.9560     2.2920 
  246.0000   235.0180    52.5810   -13.1120    -0.2370    98.1690     2.6730     3.1770     4.7020     2.2880 
  246.1250   235.1300    52.6350   -13.1200    -0.2890    98.4670     2.7280     3.2350     4.5960     2.2790 
  246.2500   235.2430    52.6900   -13.1270    -0.2990   102.8040     2.7890     3.3110     4.7220     2.2820 
  246.3750   235.3550    52.7440   -13.1350    -0.2720   114.4460     2.8800     3.4230     5.0500     2.3000 
  246.5000   235.4670    52.7990   -13.1420    -0.2340   119.0230     2.9160     3.4680     5.4610     2.3150 
  246.6250   235.5790    52.8530   -13.1500    -0.1660   116.5740     2.8840     3.4060     5.6840     2.3220 
  246.7500   235.6920    52.9080   -13.1580    -0.1220   112.0780     2.8060     3.3010     5.3260     2.3130 
  246.8750   235.8040    52.9620   -13.1660    -0.0740   108.3130     2.6990     3.1670     4.7720     2.3050 
  247.0000   235.9160    53.0160   -13.1740    -0.0580   106.7030     2.6590     3.1230     4.5980     2.3090 
  247.1250   236.0290    53.0700   -13.1820    -0.0650   102.1500     2.7000     3.1940     4.9760     2.3090 
  247.2500   236.1410    53.1250   -13.1900    -0.0960    98.9400     2.8080     3.3370     5.6560     2.2980 
  247.3750   236.2530    53.1790   -13.1980    -0.2000    98.1320     3.1030     3.7050     6.2760     2.2790 
  247.5000   236.3660    53.2330   -13.2060    -0.3210    99.9960     3.3840     4.0250     6.2880     2.2740 
  247.6250   236.4780    53.2870   -13.2140    -0.6050    99.6830     3.8240     4.5230     6.4440     2.2760 
  247.7500   236.5900    53.3410   -13.2230    -0.8680    97.2700     4.2380     4.9910     7.3820     2.2780 
  247.8750   236.7030    53.3960   -13.2310    -1.3590    95.6220     5.0150     5.8480     9.5160     2.2790 
  248.0000   236.8150    53.4500   -13.2390    -1.7400    95.8850     5.5730     6.4700    10.1800     2.2740 
  248.1250   236.9270    53.5040   -13.2460    -2.3870    91.6450     6.6230     7.6820    11.5190     2.2650 
  248.2500   237.0400    53.5580   -13.2540    -2.8710    87.1400     7.6460     8.8870    13.3750     2.2610 
  248.3750   237.1520    53.6130   -13.2610    -3.6680    79.9700     9.2670    10.7910    16.7650     2.2560 
  248.5000   237.2640    53.6670   -13.2690    -4.2250    73.7930    10.4790    12.2300    18.3760     2.2460 
  248.6250   237.3770    53.7210   -13.2760    -5.0250    62.7780    11.9210    13.8180    17.6340     2.2130 
  248.7500   237.4890    53.7750   -13.2830    -5.4810    58.3320    12.4630    14.3900    16.4990     2.1890 
  248.8750   237.6020    53.8300   -13.2900    -5.9800    57.0790    13.1020    15.0520    15.9850     2.1700 
  249.0000   237.7140    53.8840   -13.2980    -6.1840    57.2040    13.3340    15.2620    15.9760     2.1660 
  249.1250   237.8270    53.9380   -13.3050    -6.3760    56.5400    13.6740    15.6050    16.6720     2.1710 
  249.2500   237.9390    53.9920   -13.3130    -6.5020    56.8380    13.8780    15.7870    17.3610     2.1770 
  249.3750   238.0510    54.0460   -13.3200    -6.7520    56.6540    14.0970    15.9070    17.3550     2.1890 
  249.5000   238.1640    54.1000   -13.3290    -6.9270    56.4130    14.2220    15.9350    16.5490     2.1940 
  249.6250   238.2760    54.1540   -13.3370    -7.0980    55.9720    14.6020    16.1920    15.4070     2.1920 
  249.7500   238.3890    54.2080   -13.3460    -7.1210    57.0360    15.0790    16.6270    15.1970     2.1880 
  249.8750   238.5010    54.2620   -13.3550    -7.0630    58.9100    16.3130    17.9150    15.9060     2.1830 
  250.0000   238.6140    54.3150   -13.3650    -7.0070    59.1040    17.5050    19.1890    17.0960     2.1810 
  250.1250   238.7260    54.3690   -13.3740    -6.9340    56.3270    19.6830    21.4410    18.9550     2.1780 
  250.2500   238.8390    54.4230   -13.3830    -6.8860    54.2840    20.9980    22.7360    19.6130     2.1750 
  250.3750   238.9510    54.4760   -13.3920    -6.7940    54.3290    22.2990    23.8490    19.4010     2.1750 
  250.5000   239.0640    54.5300   -13.4010    -6.7200    55.2360    22.4550    23.8170    18.4600     2.1750 
  250.6250   239.1760    54.5840   -13.4100    -6.6140    55.0870    21.8910    23.0110    17.1870     2.1700 
