~V
VERS. 2.00: Ver 2.00
~W
STRT.M 20.0000:
STOP.M 286.0000:
STEP.M 0.1250:
NULL. -999.2500:
UWI. FD11156:
~C
DEPT.M :
TVD. :
DX. :
DY. :
DEN.GM/CC :
GR.API :
RML.OHMM :
RI. :
RXO.OHMM :
CALI.CM :
SP.MV :
~A
# ...
  102.5000   102.4910     0.0390    -0.4570     2.2440    66.5650     8.8710     7.3930    11.0020    23.6110   -22.0170 
  102.6250   102.6160     0.0410    -0.4640     2.2540    63.2380     8.9580     7.4650    11.1070    23.3830   -22.0090 
  102.7500   102.7400     0.0420    -0.4710     2.2670    58.2650     9.0250     7.5210    10.8110    23.4750   -22.0440 
  102.8750   102.8650     0.0430    -0.4790     2.2770    53.8140     9.0270     7.5230    10.5030    23.6410   -22.1750 
  103.0000   102.9900     0.0450    -0.4860     2.2790    54.0840     8.9370     7.4480    10.6320    23.6330   -22.3880 
  103.1250   103.1150     0.0460    -0.4930     2.2710    59.3940     8.7800     7.3170    10.7310    23.3180   -22.6360 
  103.2500   103.2390     0.0470    -0.5000     2.2590    64.6360     8.6450     7.2040    10.7090    23.3530   -22.9890 
  103.3750   103.3640     0.0490    -0.5080     2.2500    66.0170     8.5910     7.1590    10.8400    23.5180   -23.4100 
  103.5000   103.4890     0.0500    -0.5150     2.2450    64.4510     8.6500     7.2080    11.0000    23.3940   -23.8820 
  103.6250   103.6140     0.0520    -0.5220     2.2440    61.5080     8.8170     7.3480    11.6150    23.2160   -24.4010 
  103.7500   103.7390     0.0530    -0.5300     2.2420    56.2870     9.0140     7.5120    12.0780    23.3320   -24.9410 
  103.8750   103.8630     0.0540    -0.5370     2.2390    51.4780     9.1800     7.6500    12.2780    23.6360   -25.4080 
  104.0000   103.9880     0.0560    -0.5440     2.2330    50.8470     9.2800     7.7330    12.2220    23.7310   -25.7610 
  104.1250   104.1130     0.0570    -0.5520     2.2290    53.8410     9.3240     7.7700    12.3000    23.6180   -26.0760 
  104.2500   104.2380     0.0590    -0.5590     2.2270    55.5700     9.3620     7.8020    12.5170    23.6440   -26.2860 
  104.3750   104.3620     0.0600    -0.5660     2.2270    55.2700     9.4270     7.8560    12.7150    23.6660   -26.3860 
  104.5000   104.4870     0.0610    -0.5740     2.2270    55.6660     9.5000     7.9170    12.6950    23.5420   -26.4140 
  104.6250   104.6120     0.0630    -0.5810     2.2270    58.3510     9.5060     7.9220    12.5250    23.3890   -26.4030 
  104.7500   104.7370     0.0640    -0.5880     2.2270    58.9840     9.4040     7.8370    12.3580    23.4470   -26.3610 
  104.8750   104.8620     0.0660    -0.5960     2.2260    56.0360     9.2080     7.6730    12.0240    23.5780   -26.3110 
  105.0000   104.9860     0.0670    -0.6030     2.2250    53.1350     8.9820     7.4850    11.6100    23.6260   -26.3030 
  105.1250   105.1110     0.0680    -0.6100     2.2260    54.1020     8.8140     7.3450    11.2770    23.6200   -26.3030 
  105.2500   105.2360     0.0700    -0.6180     2.2280    55.5300     8.7160     7.2640    11.2300    23.6850   -26.3020 
  105.3750   105.3610     0.0710    -0.6250     2.2310    55.3050     8.6600     7.2170    11.4750    23.7060   -26.3340 
  105.5000   105.4850     0.0720    -0.6320     2.2350    55.1840     8.5940     7.1620    11.5950    23.6620   -26.3870 
  105.6250   105.6100     0.0740    -0.6390     2.2370    57.8870     8.4940     7.0790    11.5780    23.4130   -26.3720 
  105.7500   105.7350     0.0750    -0.6470     2.2380    60.1050     8.3920     6.9930    11.3730    23.2970   -26.3320 
  105.8750   105.8600     0.0770    -0.6540     2.2360    59.5370     8.3380     6.9480    11.0260    23.2820   -26.3430 
  106.0000   105.9840     0.0780    -0.6610     2.2320    57.2760     8.3740     6.9780    11.0490    23.2880   -26.3800 
  106.1250   106.1090     0.0790    -0.6690     2.2270    55.7260     8.4980     7.0820    11.1350    23.3520   -26.4030 
  106.2500   106.2340     0.0810    -0.6760     2.2220    55.2890     8.6400     7.2000    11.4390    23.4770   -26.4810 
  106.3750   106.3580     0.0840    -0.6880     2.2200    56.4190     8.7350     7.2800    11.6990    23.5410   -26.6130 
  106.5000   106.4830     0.0860    -0.7000     2.2220    57.6130     8.7500     7.2910    11.5830    23.4650   -26.7400 
  106.6250   106.6070     0.0890    -0.7120     2.2280    58.8750     8.6900     7.2410    11.1580    23.2760   -26.9440 
  106.7500   106.7320     0.0910    -0.7230     2.2340    59.8470     8.6170     7.1800    10.8030    23.0770   -27.2400 
  106.8750   106.8560     0.0940    -0.7350     2.2370    58.5150     8.5770     7.1480    10.2840    22.9990   -27.5540 
  107.0000   106.9800     0.0970    -0.7470     2.2340    54.7240     8.5870     7.1560     9.8510    23.0590   -27.8860 
  107.1250   107.1050     0.0990    -0.7590     2.2260    51.3840     8.6420     7.2020    10.4490    23.0720   -28.2800 
  107.2500   107.2290     0.1020    -0.7700     2.2170    51.5760     8.7180     7.2650    11.2320    23.2290   -28.6640 
  107.3750   107.3540     0.1050    -0.7820     2.2130    54.3180     8.7950     7.3290    11.5070    23.4290   -28.9980 
  107.5000   107.4780     0.1070    -0.7940     2.2150    56.4190     8.8450     7.3710    11.4540    23.5330   -29.3200 
  107.6250   107.6020     0.1100    -0.8060     2.2210    56.9520     8.8400     7.3660    11.6740    23.4530   -29.6060 
  107.7500   107.7270     0.1130    -0.8180     2.2230    55.5740     8.8510     7.3760    12.0850    23.3020   -29.8170 
  107.8750   107.8510     0.1150    -0.8290     2.2190    52.3760     9.0010     7.5010    12.3750    23.2610   -29.9450 
  108.0000   107.9760     0.1180    -0.8410     2.2060    49.8590     9.3860     7.8210    12.6370    23.2950   -29.9780 
  108.1250   108.1000     0.1200    -0.8530     2.1910    50.8330    10.0480     8.3730    14.1390    23.5610   -29.9110 
  108.2500   108.2240     0.1230    -0.8650     2.1780    53.6400    10.7930     8.9940    19.8240    24.1380   -29.7980 
  108.3750   108.3490     0.1260    -0.8760     2.1730    53.9730    11.3570     9.4640    33.2120    24.5610   -29.6430 
  108.5000   108.4730     0.1280    -0.8880     2.1750    51.5000    11.4670     9.5560    39.9590    24.4210   -29.4830 
  108.6250   108.5980     0.1310    -0.9000     2.1800    50.5530    10.9890     9.1580    23.9360    23.6540   -29.3100 
  108.7500   108.7220     0.1340    -0.9120     2.1820    50.6850    10.2740     8.5610    15.4880    23.3480   -29.1190 
  108.8750   108.8470     0.1360    -0.9230     2.1790    51.4010     9.5920     7.9930    13.2340    23.4730   -28.9560 
  109.0000   108.9710     0.1390    -0.9350     2.1690    52.7150     9.1220     7.6020    13.1660    24.2200   -28.7920 
  109.1250   109.0950     0.1420    -0.9470     2.1550    53.7270     8.9600     7.4660    13.2170    25.4000   -28.5710 
  109.2500   109.2200     0.1440    -0.9590     2.1420    52.5320     8.9840     7.4870    13.0930    26.6020   -28.3070 
  109.3750   109.3440     0.1470    -0.9700     2.1340    50.7170     9.0720     7.5600    13.0930    26.6920   -27.9970 
  109.5000   109.4690     0.1500    -0.9820     2.1330    51.5200     9.1210     7.6010    13.2110    25.9280   -27.5520 
  109.6250   109.5930     0.1520    -0.9940     2.1420    52.2860     9.0560     7.5470    13.1370    25.2910   -26.9560 
  109.7500   109.7170     0.1550    -1.0060     2.1570    51.0650     8.8730     7.3940    12.9750    24.8210   -26.2090 
  109.8750   109.8420     0.1570    -1.0170     2.1740    50.8220     8.6340     7.1950    12.9320    24.4200   -25.2160 
  110.0000   109.9660     0.1600    -1.0290     2.1890    53.5520     8.5250     7.1040    12.9950    24.7650   -23.9990 
  110.1250   110.0910     0.1630    -1.0410     2.2020    56.3460     8.8730     7.3940    12.9420    25.1630   -22.5570 
  110.2500   110.2150     0.1650    -1.0530     2.2200    56.5300     9.7750     8.1460    13.3000    25.0990   -20.9320 
  110.3750   110.3390     0.1680    -1.0650     2.2510    56.9010    11.1510     9.2930    15.7180    24.7610   -19.1690 
  110.5000   110.4640     0.1710    -1.0760     2.2990    60.4380    12.5850    10.4880    24.1290    24.2620   -17.3460 
  110.6250   110.5880     0.1730    -1.0880     2.3560    65.0570    13.0720    10.8940    38.9230    23.8840   -15.5420 
