~V
VERS. 2.00: Ver 2.00
~W
STRT.M 50.0000:
STOP.M 268.0000:
STEP.M 0.1250:
NULL. -999.2500:
UWI. FD11187:
~C
DEPT.M :
TVD. :
DX. :
DY. :
SP.MV :
GR.API :
RI. :
RML.OHMM :
RXO.OHMM :
DEN.GM/CC :
~A
# ...
   77.3750    77.3710     0.1310    -0.3290   -30.6440    57.6160     5.8790     6.7230     7.2600     2.0720 
   77.5000    77.4960     0.1350    -0.3310   -30.7080    60.4320     5.8970     6.7120     7.2660     2.0750 
   77.6250    77.6210     0.1390    -0.3330   -30.7960    63.9680     5.9130     6.6980     6.4000     2.0900 
   77.7500    77.7460     0.1430    -0.3350   -30.8420    64.6310     5.9080     6.6710     6.1380     2.0970 
   77.8750    77.8710     0.1470    -0.3370   -30.8760    64.1820     5.9320     6.6920     6.2410     2.0970 
   78.0000    77.9960     0.1520    -0.3400   -30.8740    63.7210     5.9410     6.6990     6.2850     2.0920 
   78.1250    78.1210     0.1560    -0.3420   -30.8390    64.7770     5.9480     6.7220     6.3820     2.0820 
   78.2500    78.2450     0.1610    -0.3440   -30.8000    65.8440     5.9450     6.7260     6.3930     2.0770 
   78.3750    78.3700     0.1650    -0.3460   -30.7310    66.3030     5.8780     6.6520     6.1500     2.0810 
   78.5000    78.4950     0.1700    -0.3480   -30.6790    64.9270     5.8290     6.5900     5.9920     2.0880 
   78.6250    78.6200     0.1740    -0.3500   -30.5840    64.1210     5.7830     6.5150     5.9910     2.0960 
   78.7500    78.7450     0.1790    -0.3530   -30.5070    65.1210     5.7780     6.4900     6.0020     2.0930 
   78.8750    78.8700     0.1840    -0.3550   -30.3820    65.6010     5.8650     6.5800     5.9110     2.0790 
   79.0000    78.9950     0.1890    -0.3570   -30.3040    63.9020     6.1170     6.9090     5.9630     2.0830 
   79.1250    79.1200     0.1940    -0.3590   -30.2210    59.2080     6.8280     7.7880     6.5360     2.1670 
   79.2500    79.2450     0.1990    -0.3620   -30.2010    57.2900     7.1620     8.1760     9.9030     2.2790 
   79.3750    79.3690     0.2040    -0.3640   -30.2380    57.5210     7.3210     8.2950    21.0230     2.4250 
   79.5000    79.4940     0.2090    -0.3670   -30.3100    61.1600     7.0380     7.8600    22.4890     2.4340 
   79.6250    79.6190     0.2140    -0.3690   -30.4830    73.1710     6.1970     6.7410    10.9050     2.3200 
   79.7500    79.7440     0.2200    -0.3710   -30.6330    81.0810     5.6380     6.0500     5.4990     2.2290 
   79.8750    79.8690     0.2250    -0.3740   -30.8800    84.2600     4.9740     5.2830     4.8170     2.1540 
   80.0000    79.9940     0.2310    -0.3760   -31.0360    82.1770     4.7160     5.0210     4.9850     2.1340 
   80.1250    80.1190     0.2360    -0.3780   -31.2160    79.0180     4.6860     5.0200     5.0930     2.1180 
   80.2500    80.2430     0.2420    -0.3810   -31.2810    77.8560     4.7980     5.1280     5.1390     2.1120 
   80.3750    80.3680     0.2470    -0.3830   -31.2870    76.5380     5.0080     5.3240     5.3820     2.1030 
   80.5000    80.4930     0.2530    -0.3860   -31.2350    76.7280     5.2990     5.6350     5.6800     2.0950 
   80.6250    80.6180     0.2590    -0.3880   -31.0900    76.5910     6.2990     6.8270     7.2060     2.1020 
   80.7500    80.7430     0.2650    -0.3900   -30.9620    74.8330     7.3380     8.0720    11.8670     2.1480 
   80.8750    80.8680     0.2710    -0.3930   -30.7450    71.1610     8.4600     9.4470    23.1230     2.2930 
   81.0000    80.9930     0.2760    -0.3950   -30.5960    69.1560     8.6310     9.6760    27.7850     2.3870 
   81.1250    81.1170     0.2820    -0.3980   -30.3850    71.2140     7.6520     8.5180    22.3170     2.4060 
   81.2500    81.2420     0.2890    -0.4000   -30.2610    77.9640     6.4930     7.1710    12.5200     2.3440 
   81.3750    81.3670     0.2950    -0.4030   -30.1040    91.2380     4.8890     5.3130     4.4120     2.2490 
   81.5000    81.4920     0.3010    -0.4050   -30.0190    97.9270     4.1170     4.4670     4.0690     2.2200 
   81.6250    81.6170     0.3070    -0.4080   -29.9150   101.3500     3.5410     3.8830     3.9190     2.2160 
   81.7500    81.7410     0.3140    -0.4100   -29.8550   101.0570     3.4860     3.8540     3.8620     2.2170 
   81.8750    81.8660     0.3200    -0.4130   -29.7610    96.4080     3.7050     4.1130     3.7520     2.2050 
   82.0000    81.9910     0.3270    -0.4150   -29.6920    92.9590     3.9330     4.3520     4.0390     2.1780 
   82.1250    82.1160     0.3330    -0.4180   -29.5800    87.6030     4.3890     4.8210     4.8750     2.1320 
   82.2500    82.2410     0.3400    -0.4200   -29.5120    82.9850     4.7620     5.2110     5.2630     2.1110 
   82.3750    82.3650     0.3470    -0.4230   -29.4370    74.0320     5.3770     5.8430     5.7090     2.1110 
   82.5000    82.4900     0.3540    -0.4250   -29.4100    71.5300     5.7030     6.1770     5.9750     2.1420 
   82.6250    82.6150     0.3600    -0.4280   -29.3860    73.8660     5.9200     6.3660     6.0390     2.2120 
   82.7500    82.7400     0.3670    -0.4310   -29.3620    75.8160     5.8190     6.2340     5.8670     2.2370 
   82.8750    82.8650     0.3740    -0.4330   -29.2770    77.2390     5.3380     5.6790     5.3960     2.2110 
   83.0000    82.9890     0.3820    -0.4360   -29.1740    79.2870     4.8560     5.1540     5.0770     2.1840 
   83.1250    83.1140     0.3890    -0.4380   -28.9590    85.1650     4.0950     4.3500     4.5680     2.1810 
   83.2500    83.2390     0.3960    -0.4410   -28.7960    90.4950     3.6630     3.9120     4.0270     2.2000 
   83.3750    83.3640     0.4030    -0.4440   -28.5690    98.2300     3.2380     3.5100     3.3420     2.2240 
   83.5000    83.4880     0.4110    -0.4460   -28.4560   101.8260     3.0980     3.3950     3.2650     2.2340 
   83.6250    83.6130     0.4180    -0.4490   -28.3610   103.2270     3.0050     3.3480     3.4230     2.2480 
   83.7500    83.7380     0.4260    -0.4520   -28.3460   101.8180     3.0000     3.3690     3.4130     2.2580 
   83.8750    83.8630     0.4340    -0.4550   -28.3740    99.6070     3.0130     3.3930     3.3110     2.2650 
   84.0000    83.9870     0.4410    -0.4580   -28.4150    98.7440     3.0320     3.4130     3.4030     2.2560 
   84.1250    84.1120     0.4490    -0.4610   -28.5020    97.6040     3.0990     3.4690     3.6310     2.2330 
   84.2500    84.2370     0.4570    -0.4630   -28.5770    96.1630     3.1730     3.5480     3.7430     2.2210 
   84.3750    84.3610     0.4650    -0.4660   -28.7140    95.4220     3.3550     3.7450     4.1150     2.2030 
   84.5000    84.4860     0.4730    -0.4690   -28.8220    97.1400     3.5200     3.9350     4.3250     2.1840 
   84.6250    84.6110     0.4810    -0.4720   -28.9950    95.9630     3.8480     4.3000     4.2540     2.1380 
   84.7500    84.7360     0.4890    -0.4750   -29.1060    90.5030     4.0530     4.5260     4.4460     2.1250 
   84.8750    84.8600     0.4980    -0.4780   -29.2440    81.7410     4.3390     4.8460     5.1390     2.1180 
   85.0000    84.9850     0.5060    -0.4820   -29.3110    78.7190     4.4540     4.9770     5.3210     2.1210 
   85.1250    85.1100     0.5140    -0.4850   -29.3830    76.6130     4.5900     5.1550     5.3900     2.1280 
   85.2500    85.2340     0.5230    -0.4880   -29.4220    75.5150     4.6700     5.2590     5.4510     2.1270 
   85.3750    85.3590     0.5310    -0.4910   -29.4890    74.8150     4.7350     5.3530     5.5740     2.1080 
   85.5000    85.4840     0.5400    -0.4940   -29.5460    73.9700     4.7290     5.3590     5.8310     2.0980 
   85.6250    85.6080     0.5490    -0.4980   -29.6560    68.9970     4.7510     5.4180     6.1430     2.0970 
   85.7500    85.7330     0.5570    -0.5010   -29.7410    63.7350     4.7990     5.4900     6.0570     2.0930 
   85.8750    85.8580     0.5660    -0.5040   -29.8700    57.5270     4.9020     5.6490     6.0860     2.0610 
   86.0000    85.9820     0.5750    -0.5080   -29.9430    56.1810     5.0210     5.8150     6.7080     2.0360 
   86.1250    86.1070     0.5840    -0.5110   -30.0090    56.2200     5.3380     6.2640     7.4230     2.0270 
   86.2500    86.2310     0.5930    -0.5140   -30.0210    55.5520     5.6330     6.6540     7.0150     2.0390 
   86.3750    86.3560     0.6020    -0.5180   -30.0030    52.6610     6.0750     7.2400     8.3580     2.0560 
