~V
VERS. 2.00: Ver 2.00
~W
STRT.M 56.0000:
STOP.M 276.0000:
STEP.M 0.1250:
NULL. -999.2500:
UWI. FD11178:
~C
DEPT.M :
TVD. :
DX. :
DY. :
SP.MV :
GR.API :
RI. :
RML.OHMM :
DEN.GM/CC :
RXO.OHMM :
~A
# ...
  156.3750   153.8750    -2.5630   -19.2020    -5.5300    65.4630     6.5040     6.7050     2.2930     6.2410 
  156.5000   153.9930    -2.5700   -19.2430    -5.6440    68.8950     7.0350     7.4210     2.3520     5.3670 
  156.6250   154.1110    -2.5770   -19.2840    -5.6860    68.0220     8.7230     9.3690     2.4350     6.3090 
  156.7500   154.2290    -2.5850   -19.3250    -5.5810    61.6090    11.3200    12.1640     2.4920     8.1190 
  156.8750   154.3460    -2.5920   -19.3660    -5.3840    53.9390    13.8980    14.7890     2.5160    12.7450 
  157.0000   154.4640    -2.5990   -19.4070    -5.1460    51.0250    15.7650    16.5670     2.5220    19.0480 
  157.1250   154.5820    -2.6070   -19.4480    -4.9620    50.8740    16.1760    16.8460     2.5170    19.9630 
  157.2500   154.7000    -2.6140   -19.4890    -4.7810    49.4950    15.7910    16.3600     2.5020    15.1370 
  157.3750   154.8180    -2.6220   -19.5300    -4.7050    47.0610    15.1740    15.7070     2.4880    13.6510 
  157.5000   154.9360    -2.6290   -19.5710    -4.6740    46.7440    14.5590    15.1160     2.4840    16.5630 
  157.6250   155.0530    -2.6370   -19.6120    -4.7050    46.9830    14.1190    14.7970     2.4900    24.0740 
  157.7500   155.1710    -2.6450   -19.6530    -4.9200    44.9280    13.8300    14.6550     2.4970    28.0630 
  157.8750   155.2890    -2.6530   -19.6940    -5.2490    41.3010    13.5470    14.4560     2.5030    21.8270 
  158.0000   155.4070    -2.6610   -19.7350    -5.5690    38.9870    13.2040    14.0810     2.5050    16.7660 
  158.1250   155.5250    -2.6690   -19.7760    -5.7920    41.0770    12.7240    13.4780     2.4930    15.0550 
  158.2500   155.6430    -2.6760   -19.8170    -5.9710    46.9050    12.4060    13.1120     2.4620    13.8430 
  158.3750   155.7600    -2.6840   -19.8580    -6.0830    52.8290    12.5400    13.3320     2.4380    14.0520 
  158.5000   155.8780    -2.6910   -19.9000    -6.2230    56.0110    13.0090    13.9540     2.4400    14.5780 
  158.6250   155.9960    -2.6990   -19.9410    -6.3220    56.5600    13.6590    14.7690     2.4630    15.5860 
  158.7500   156.1140    -2.7060   -19.9820    -6.3980    55.1080    14.3040    15.5670     2.4800    16.6430 
  158.8750   156.2310    -2.7140   -20.0240    -6.4460    50.9100    14.5920    15.7810     2.4840    16.6720 
  159.0000   156.3490    -2.7210   -20.0650    -6.4600    47.4770    14.5010    15.5070     2.4910    16.0240 
  159.1250   156.4670    -2.7280   -20.1070    -6.4090    47.9720    14.1620    14.9690     2.4980    13.3300 
  159.2500   156.5840    -2.7360   -20.1490    -6.2550    50.5060    13.7440    14.4010     2.4970    10.3180 
  159.3750   156.7020    -2.7430   -20.1900    -6.1020    52.6500    13.4890    14.2600     2.4830    11.9020 
  159.5000   156.8200    -2.7510   -20.2320    -5.9750    53.0820    13.4600    14.4680     2.4660    14.9080 
  159.6250   156.9370    -2.7580   -20.2740    -5.7910    52.4880    13.6210    14.8720     2.4630    14.8290 
  159.7500   157.0550    -2.7650   -20.3160    -5.4580    52.1970    13.8990    15.3310     2.4760    14.8200 
  159.8750   157.1720    -2.7730   -20.3570    -4.9670    53.8610    14.2470    15.7420     2.4930    15.1640 
  160.0000   157.2900    -2.7800   -20.3990    -4.4630    57.1100    14.6050    16.1050     2.4990    15.4580 
  160.1250   157.4070    -2.7870   -20.4410    -4.2310    59.1920    14.8650    16.3660     2.5000    15.5910 
  160.2500   157.5250    -2.7940   -20.4830    -4.1830    58.0670    14.9810    16.4750     2.5100    15.6880 
  160.3750   157.6420    -2.8020   -20.5250    -4.1890    54.0870    14.8710    16.2930     2.5190    16.1920 
  160.5000   157.7600    -2.8090   -20.5670    -4.1680    50.9270    14.5880    15.9320     2.5070    16.0010 
  160.6250   157.8770    -2.8160   -20.6090    -4.0450    51.9680    14.2050    15.5510     2.4790    15.1710 
  160.7500   157.9950    -2.8230   -20.6510    -3.9010    53.9340    13.8060    15.2310     2.4590    14.7480 
  160.8750   158.1120    -2.8310   -20.6930    -3.7290    53.7710    13.4880    15.0440     2.4600    14.5150 
  161.0000   158.2300    -2.8380   -20.7350    -3.5060    52.1960    13.3010    14.9690     2.4650    14.3400 
  161.1250   158.3480    -2.8450   -20.7770    -3.2850    52.7780    13.2420    14.9370     2.4650    14.3390 
  161.2500   158.4650    -2.8520   -20.8190    -3.1180    55.0530    13.1880    14.8800     2.4750    14.3600 
  161.3750   158.5830    -2.8600   -20.8610    -3.1150    57.0520    13.0140    14.6610     2.4870    14.2020 
  161.5000   158.7000    -2.8670   -20.9030    -3.1670    57.5380    12.6050    14.1660     2.4690    13.7310 
  161.6250   158.8180    -2.8740   -20.9450    -3.3300    57.2480    12.0980    13.5770     2.4100    12.9950 
  161.7500   158.9350    -2.8810   -20.9860    -3.5010    57.1490    11.6170    13.0510     2.3560    12.3340 
  161.8750   159.0530    -2.8880   -21.0280    -3.5270    57.0380    11.2430    12.6650     2.3390    11.9330 
  162.0000   159.1700    -2.8950   -21.0700    -3.5260    56.9570    11.0210    12.4330     2.3430    11.7550 
  162.1250   159.2880    -2.9030   -21.1120    -3.5460    57.6350    10.8980    12.3080     2.3550    11.6850 
  162.2500   159.4060    -2.9100   -21.1540    -3.4840    57.6070    10.8470    12.2750     2.3690    11.5230 
  162.3750   159.5230    -2.9180   -21.1950    -3.3730    58.3360    10.7480    12.2110     2.3830    11.1490 
  162.5000   159.6410    -2.9250   -21.2370    -3.3060    61.3250    10.5270    12.0180     2.3930    10.6870 
  162.6250   159.7580    -2.9330   -21.2790    -3.3110    64.7660    10.1570    11.6180     2.3940    10.4020 
  162.7500   159.8760    -2.9410   -21.3210    -3.3820    64.4640     9.6640    11.0430     2.3920    10.2520 
  162.8750   159.9930    -2.9480   -21.3620    -3.4930    63.7710     9.1610    10.4520     2.3990     9.7040 
  163.0000   160.1110    -2.9560   -21.4040    -3.5770    65.6950     8.7410     9.9720     2.4220     8.9520 
  163.1250   160.2290    -2.9630   -21.4460    -3.6810    68.0730     8.5290     9.7660     2.4510     8.3670 
  163.2500   160.3460    -2.9710   -21.4870    -3.8190    68.3500     8.6180     9.9290     2.4730    10.6640 
  163.3750   160.4640    -2.9790   -21.5290    -3.9980    66.0780     9.0540    10.5100     2.4830    17.6600 
  163.5000   160.5810    -2.9870   -21.5710    -4.0780    61.2490     9.6880    11.3180     2.4820    25.1200 
  163.6250   160.6990    -2.9950   -21.6130    -4.0280    55.4370    10.3650    12.1650     2.4630    23.8940 
  163.7500   160.8160    -3.0030   -21.6540    -3.9370    53.7210    10.8090    12.7470     2.4380    16.2300 
  163.8750   160.9340    -3.0110   -21.6960    -3.8530    55.6560    10.8340    12.8020     2.4300    11.7910 
  164.0000   161.0510    -3.0190   -21.7380    -3.7660    57.5860    10.4770    12.3690     2.4450    11.4260 
  164.1250   161.1690    -3.0270   -21.7800    -3.7550    57.7890     9.8880    11.6560     2.4680    11.7140 
  164.2500   161.2860    -3.0350   -21.8220    -3.8190    56.6700     9.4240    11.1040     2.4840    11.9610 
  164.3750   161.4040    -3.0440   -21.8640    -3.9090    54.6280     9.3140    11.0520     2.4930    12.2170 
  164.5000   161.5210    -3.0520   -21.9060    -4.0980    52.3430     9.5690    11.4920     2.5090    13.5400 
  164.6250   161.6390    -3.0590   -21.9480    -4.2800    51.2240     9.9780    12.1370     2.5270    16.2640 
  164.7500   161.7560    -3.0670   -21.9900    -4.4860    49.6800    10.3890    12.7320     2.5220    17.2940 
  164.8750   161.8740    -3.0750   -22.0320    -4.6110    46.2310    10.5380    12.9420     2.4840    14.2590 
  165.0000   161.9910    -3.0820   -22.0740    -4.6710    43.4960    10.4860    12.8660     2.4530    11.8490 
  165.1250   162.1090    -3.0900   -22.1160    -4.7630    44.5680    10.2920    12.6330     2.4510    10.2210 
  165.2500   162.2260    -3.0980   -22.1580    -4.9170    48.9810    10.0730    12.4190     2.4580    11.3400 
  165.3750   162.3440    -3.1060   -22.2000    -5.0990    51.7200     9.9750    12.3550     2.4560    13.0910 
