~V
VERS. 2.00: Ver 2.00
~W
STRT.M 50.0000:
STOP.M 286.0000:
STEP.M 0.1250:
NULL. -999.2500:
UWI. FD11181:
~C
DEPT.M :
TVD. :
DX. :
DY. :
SP.MV :
GR.API :
RI. :
RML.OHMM :
RXO.OHMM :
DEN.GM/CC :
~A
# ...
  278.1250   266.4610   -62.6600     4.5630    -9.1030    49.0600     5.4900     6.1320     4.5470     2.3480 
  278.2500   266.5750   -62.7120     4.5670    -9.1030    49.1770     5.4850     6.1210     4.7380     2.3540 
  278.3750   266.6880   -62.7630     4.5710    -9.1030    48.9110     5.4830     6.1130     5.0930     2.3580 
  278.5000   266.8020   -62.8150     4.5750    -9.1030    48.9400     5.4880     6.1100     5.3290     2.3720 
  278.6250   266.9160   -62.8670     4.5790    -9.1030    48.9290     5.4880     6.1110     5.3390     2.4000 
  278.7500   267.0300   -62.9180     4.5830    -9.1030    48.9290     5.4840     6.1120     5.4000     2.4300 
  278.8750   267.1430   -62.9700     4.5860    -9.1030    48.9290     5.4830     6.1120     5.4600     2.4460 
  279.0000   267.2570   -63.0220     4.5900    -9.1030    48.9290     5.4780     6.1130     5.4300     2.4460 
  279.1250   267.3710   -63.0740     4.5940    -9.1030    48.9290     5.4780     6.1140     5.4170     2.4410 
  279.2500   267.4850   -63.1250     4.5980    -9.1030    48.9290     5.4780     6.1140     5.3450     2.4330 
  279.3750   267.5980   -63.1770     4.6020    -9.1030    48.9290     5.4810     6.1140     5.1310     2.4170 
  279.5000   267.7120   -63.2290     4.6060    -9.1030    48.9290     5.4810     6.1140     5.0810     2.3980 
  279.6250   267.8260   -63.2800     4.6100    -9.1030    48.9290     5.4840     6.1150     5.5020     2.3860 
  279.7500   267.9390   -63.3320     4.6140    -9.1030    48.9290     5.4840     6.1150     6.0540     2.3860 
  279.8750   268.0530   -63.3840     4.6180    -9.1030    48.9290     5.4810     6.1150     6.5340     2.3890 
  280.0000   268.1670   -63.4350     4.6220    -9.1030    48.9290     5.4880     6.1150     6.9940     2.3890 
  280.1250   268.2810   -63.4870     4.6260    -9.1030    48.9290     5.4880     6.1150     6.9070     2.3880 
  280.2500   268.3940   -63.5390     4.6300    -9.1030    48.9290     5.4910     6.1160     6.3060     2.3930 
  280.3750   268.5080   -63.5900     4.6340    -9.1030    48.9290     5.4980     6.1160     5.7720     2.3990 
  280.5000   268.6220   -63.6420     4.6380    -9.1030    48.9290     5.4980     6.1170     5.6820     2.4020 
  280.6250   268.7360   -63.6940     4.6420    -9.1030    48.9290     5.5060     6.1170     5.9890     2.4040 
  280.7500   268.8490   -63.7460     4.6450    -9.1030    48.9290     5.5080     6.1170     5.8490     2.4080 
  280.8750   268.9630   -63.7970     4.6490    -9.1030    48.9290     5.5080     6.1170     5.3660     2.4140 
  281.0000   269.0770   -63.8490     4.6530    -9.1030    48.9290     5.5080     6.1170     5.3290     2.4190 
  281.1250   269.1910   -63.9010     4.6570    -9.1030    48.9290     5.5080     6.1170     5.5650     2.4210 
  281.2500   269.3040   -63.9520     4.6610    -9.1030    48.9290     5.5080     6.1170     5.7780     2.4140 
  281.3750   269.4180   -64.0040     4.6650    -9.1030    48.9290     5.5080     6.1170     6.0870     2.3970 
  281.5000   269.5320   -64.0560     4.6690    -9.1030    48.9290     5.5080     6.1170     6.3960     2.3790 
  281.6250   269.6460   -64.1070     4.6730    -9.1030    48.9290     5.5080     6.1170     6.5340     2.3710 
  281.7500   269.7590   -64.1590     4.6770    -9.1030    48.9290     5.5080     6.1170     6.5840     2.3700 
  281.8750   269.8730   -64.2110     4.6810    -9.1030    48.9290     5.5080     6.1170     6.5810     2.3700 
  282.0000   269.9870   -64.2620     4.6850    -9.1030    48.9290     5.5080     6.1170     6.5170     2.3710 
  282.1250   270.1010   -64.3140     4.6890    -9.1030    48.9290     5.5080     6.1170     6.4010     2.3740 
  282.2500   270.2140   -64.3660     4.6930    -9.1030    48.9290     5.5080     6.1170     6.2930     2.3770 
  282.3750   270.3280   -64.4180     4.6970    -9.1030    48.9290     5.5080     6.1170     6.0720     2.3740 
  282.5000   270.4420   -64.4690     4.7010    -9.1030    48.9290     5.5080     6.1170     5.6250     2.3640 
  282.6250   270.5560   -64.5210     4.7040    -9.1030    48.9290     5.5080     6.1170     5.1760     2.3540 
  282.7500   270.6690   -64.5730     4.7080    -9.1030    48.9290     5.5080     6.1170     4.8410     2.3480 
  282.8750   270.7830   -64.6240     4.7120    -9.1030    48.9290     5.5080     6.1170     4.5820     2.3470 
  283.0000   270.8970   -64.6760     4.7160    -9.1030    48.9290     5.5080     6.1170     4.4600     2.3500 
  283.1250   271.0110   -64.7280     4.7200    -9.1030    48.9290     5.5080     6.1170     4.4480     2.3540 
  283.2500   271.1240   -64.7790     4.7240    -9.1030    48.9290     5.5080     6.1170     4.4480     2.3550 
  283.3750   271.2380   -64.8310     4.7280    -9.1030    48.9290     5.5080     6.1170     4.4480     2.3520 
  283.5000   271.3520   -64.8830     4.7320    -9.1030    48.9290     5.5080     6.1170     4.4480     2.3490 
  283.6250   271.4660   -64.9340     4.7360    -9.1030    48.9290     5.5080     6.1170     4.4480     2.3460 
  283.7500   271.5790   -64.9860     4.7400    -9.1030    48.9290     5.5080     6.1170     4.4480     2.3430 
  283.8750   271.6930   -65.0380     4.7440    -9.1030    48.9290     5.5080     6.1170     4.4480     2.3420 
  284.0000   271.8070   -65.0900     4.7480    -9.1030    48.9290     5.5080     6.1170     4.4480     2.3430 
  284.1250   271.9200   -65.1410     4.7520    -9.1030    48.9290     5.5080     6.1170     4.4480     2.3440 
  284.2500   272.0340   -65.1930     4.7560    -9.1030    48.9290     5.5080     6.1170     4.4480     2.3450 
  284.3750   272.1480   -65.2450     4.7600    -9.1030    48.9290     5.5080     6.1170     4.4480     2.3420 
  284.5000   272.2620   -65.2960     4.7630    -9.1030    48.9290     5.5080     6.1170     4.4480     2.3380 
  284.6250   272.3750   -65.3480     4.7670    -9.1030    48.9290     5.5080     6.1170     4.4480     2.3390 
  284.7500   272.4890   -65.4000     4.7710    -9.1030    48.9290     5.5080     6.1170     4.4470     2.3460 
  284.8750   272.6030   -65.4510     4.7750    -9.1030    48.9290     5.5080     6.1170     4.4470     2.3550 
  285.0000   272.7170   -65.5030     4.7790    -9.1030    48.9290     5.5080     6.1170     4.4470     2.3590 
  285.1250   272.8300   -65.5550     4.7830    -9.1030    48.9290     5.5080     6.1170     4.4470     2.3560 
  285.2500   272.9440   -65.6060     4.7870    -9.1030    48.9290     5.5080     6.1170     4.4470     2.3510 
  285.3750   273.0580   -65.6580     4.7910    -9.1030    48.9290     5.5080     6.1170     4.4460     2.3480 
  285.5000   273.1720   -65.7100     4.7950    -9.1030    48.9290     5.5080     6.1170     4.4460     2.3450 
  285.6250   273.2850   -65.7620     4.7990    -9.1030    48.9290     5.5080     6.1170     4.4460     2.3350 
  285.7500   273.3990   -65.8130     4.8030    -9.1030    48.9290     5.5080     6.1170     4.4450     2.3230 
  285.8750   273.5130   -65.8650     4.8070    -9.1030    48.9290     5.5080     6.1170     4.4420     2.3160 
  286.0000   273.6270   -65.9170     4.8110    -9.1030    48.9290     5.5080     6.1170     4.4370     2.3130 
