~V
VERS. 2.00: Ver 2.00
~W
STRT.M 56.0000:
STOP.M 276.0000:
STEP.M 0.1250:
NULL. -999.2500:
UWI. FD11178:
~C
DEPT.M :
TVD. :
DX. :
DY. :
SP.MV :
GR.API :
RI. :
RML.OHMM :
DEN.GM/CC :
RXO.OHMM :
~A
# ...
  110.7500   110.3500    -0.0200    -5.9230    -8.1360    76.0980     5.8180     6.4240     2.2820     5.3970 
  110.8750   110.4720    -0.0250    -5.9480    -8.7180    72.3240     7.5640     8.4190     2.4070     7.3810 
  111.0000   110.5950    -0.0300    -5.9730    -9.1480    70.0070    10.2370    11.4730     2.5340    14.4860 
  111.1250   110.7170    -0.0340    -5.9980    -8.9390    68.4130    13.6440    15.2110     2.5940    24.0620 
  111.2500   110.8390    -0.0390    -6.0230    -8.4210    67.1680    16.5720    18.2740     2.5790    29.4700 
  111.3750   110.9620    -0.0440    -6.0480    -7.7820    62.9630    17.9680    19.5530     2.5400    30.0710 
  111.5000   111.0840    -0.0490    -6.0730    -7.3030    58.0790    17.2480    18.4700     2.5300    26.9580 
  111.6250   111.2060    -0.0540    -6.0980    -7.3920    57.2370    14.6350    15.5030     2.5440    21.8810 
  111.7500   111.3290    -0.0590    -6.1230    -7.8710    59.9270    11.7410    12.3680     2.5360    19.5120 
  111.8750   111.4510    -0.0630    -6.1480    -8.5940    63.2210     8.9280     9.4140     2.4560    16.4370 
  112.0000   111.5730    -0.0680    -6.1740    -9.5170    65.3980     7.0470     7.5030     2.3130     9.8060 
  112.1250   111.6960    -0.0730    -6.1990   -10.6810    64.9930     5.7990     6.3020     2.1610     5.8350 
  112.2500   111.8180    -0.0780    -6.2250   -11.9370    63.2250     5.1110     5.7160     2.0690     5.4840 
  112.3750   111.9400    -0.0830    -6.2500   -12.8770    64.2440     4.9120     5.6460     2.0570     5.7500 
  112.5000   112.0620    -0.0880    -6.2760   -13.2500    68.6060     4.9370     5.7590     2.0770     5.8710 
  112.6250   112.1850    -0.0930    -6.3020   -13.1210    70.4950     5.0130     5.8410     2.0850     5.6110 
  112.7500   112.3070    -0.0980    -6.3280   -12.8690    67.9220     5.0270     5.7970     2.0820     5.4270 
  112.8750   112.4290    -0.1030    -6.3540   -12.7920    65.6840     4.9980     5.6840     2.0850     5.4700 
  113.0000   112.5510    -0.1080    -6.3800   -12.8370    67.7700     4.9500     5.5580     2.1000     5.3980 
  113.1250   112.6730    -0.1140    -6.4060   -12.8530    70.0520     4.9260     5.4940     2.1110     5.3070 
  113.2500   112.7950    -0.1190    -6.4320   -12.8040    69.3800     4.9980     5.5590     2.1160     5.5410 
  113.3750   112.9170    -0.1240    -6.4580   -12.8640    67.7020     5.1540     5.7350     2.1330     5.5030 
  113.5000   113.0390    -0.1290    -6.4850   -12.9690    67.8590     5.3650     5.9900     2.1770     5.2420 
  113.6250   113.1620    -0.1350    -6.5110   -13.0560    68.9900     5.5520     6.2210     2.2120     5.5570 
  113.7500   113.2840    -0.1400    -6.5380   -13.1640    70.1370     5.6470     6.3590     2.1980     5.8430 
  113.8750   113.4060    -0.1450    -6.5650   -13.3760    71.3750     5.6430     6.3890     2.1530     5.8900 
  114.0000   113.5270    -0.1510    -6.5920   -13.6810    71.3600     5.5820     6.3540     2.1250     6.0290 
  114.1250   113.6490    -0.1560    -6.6190   -13.8360    70.7730     5.4810     6.2610     2.1210     6.1840 
  114.2500   113.7710    -0.1620    -6.6460   -13.9230    70.9100     5.4000     6.1940     2.1150     6.4800 
  114.3750   113.8930    -0.1670    -6.6730   -14.1530    71.6780     5.4060     6.2220     2.0980     6.9000 
  114.5000   114.0150    -0.1730    -6.7000   -14.5180    70.6600     5.4550     6.2990     2.0850     7.4170 
  114.6250   114.1370    -0.1780    -6.7270   -14.9320    67.5310     5.5230     6.3880     2.0850     8.3290 
  114.7500   114.2590    -0.1840    -6.7540   -15.4110    63.2260     5.5820     6.4610     2.0930     8.7500 
  114.8750   114.3810    -0.1900    -6.7820   -15.9430    60.6180     5.6180     6.5050     2.1010     7.8090 
  115.0000   114.5030    -0.1950    -6.8090   -16.3560    63.1950     5.6400     6.5230     2.1030     6.7340 
  115.1250   114.6240    -0.2010    -6.8360   -16.5240    68.8460     5.5870     6.4390     2.0990     6.3140 
  115.2500   114.7460    -0.2070    -6.8640   -16.5160    70.4500     5.4480     6.2580     2.0940     6.4270 
  115.3750   114.8680    -0.2120    -6.8910   -16.3920    66.4150     5.2520     6.0070     2.0930     6.8350 
  115.5000   114.9900    -0.2180    -6.9190   -16.2030    63.5090     5.0450     5.7530     2.1000     6.7540 
  115.6250   115.1120    -0.2240    -6.9460   -15.8270    66.2250     4.9200     5.6080     2.1080     6.0210 
  115.7500   115.2330    -0.2300    -6.9740   -15.3740    70.7910     4.8920     5.5920     2.1070     5.6440 
  115.8750   115.3550    -0.2350    -7.0020   -14.9200    72.3330     4.9880     5.7410     2.1000     5.8880 
  116.0000   115.4770    -0.2410    -7.0290   -14.7000    69.1180     5.1540     5.9870     2.0950     6.0960 
  116.1250   115.5990    -0.2470    -7.0570   -14.9830    63.7200     5.2630     6.1410     2.0930     6.0370 
  116.2500   115.7200    -0.2520    -7.0850   -15.2410    61.3550     5.2490     6.1130     2.0910     5.9580 
  116.3750   115.8420    -0.2580    -7.1130   -15.1860    64.4790     5.0710     5.8780     2.0940     6.1030 
  116.5000   115.9640    -0.2640    -7.1410   -14.8700    69.9550     4.8510     5.5940     2.1060     6.0770 
  116.6250   116.0850    -0.2700    -7.1690   -14.5550    74.6870     4.7300     5.4450     2.1230     5.6780 
  116.7500   116.2070    -0.2760    -7.1980   -14.2140    77.2420     4.7330     5.4600     2.1310     5.6020 
  116.8750   116.3290    -0.2810    -7.2260   -13.8240    76.8050     4.8910     5.6690     2.1260     5.8920 
  117.0000   116.4500    -0.2870    -7.2550   -13.5910    73.7800     5.1380     5.9680     2.1320     5.9260 
  117.1250   116.5720    -0.2930    -7.2830   -13.6500    71.1760     5.4170     6.2750     2.1690     5.8080 
  117.2500   116.6930    -0.2990    -7.3120   -13.7150    70.5300     5.7800     6.6680     2.2150     5.8500 
  117.3750   116.8150    -0.3050    -7.3400   -13.4700    70.7610     6.2740     7.2010     2.2380     6.0170 
  117.5000   116.9360    -0.3110    -7.3690   -12.9470    73.5990     6.7620     7.7850     2.2660     6.3770 
  117.6250   117.0580    -0.3170    -7.3980   -12.1900    79.8920     7.1400     8.2730     2.3220    12.3020 
  117.7500   117.1790    -0.3230    -7.4270   -11.2870    83.1990     7.2340     8.3950     2.3450    20.5020 
  117.8750   117.3010    -0.3290    -7.4560   -10.4870    78.1640     6.7030     7.7220     2.2730    17.3950 
  118.0000   117.4220    -0.3350    -7.4850    -9.8910    70.7320     5.7240     6.5070     2.1700     8.7920 
  118.1250   117.5430    -0.3420    -7.5150    -9.4190    70.0950     4.5890     5.1400     2.1360     5.5060 
  118.2500   117.6650    -0.3480    -7.5440    -8.7710    77.3240     3.5860     3.9960     2.1730     4.6110 
  118.3750   117.7860    -0.3540    -7.5740    -7.5570    87.1100     3.0900     3.5020     2.2210     3.4660 
  118.5000   117.9070    -0.3600    -7.6030    -6.0090    96.2300     2.9380     3.3920     2.2310     2.9730 
  118.6250   118.0290    -0.3670    -7.6330    -4.6160   101.5870     2.9720     3.4940     2.2060     3.2330 
  118.7500   118.1500    -0.3730    -7.6620    -3.7150   102.9020     3.1280     3.7170     2.1740     3.3440 
  118.8750   118.2710    -0.3790    -7.6920    -3.4150   102.0050     3.3210     3.9560     2.1530     3.4150 
  119.0000   118.3920    -0.3860    -7.7220    -3.4350   102.0220     3.4820     4.1300     2.1430     3.6660 
  119.1250   118.5130    -0.3920    -7.7520    -3.4920   102.2780     3.5570     4.1820     2.1460     3.7410 
  119.2500   118.6350    -0.3980    -7.7820    -3.6160   100.0660     3.5790     4.1720     2.1650     3.7400 
  119.3750   118.7560    -0.4050    -7.8120    -3.8540    96.8230     3.5800     4.1500     2.2020     3.9140 
  119.5000   118.8770    -0.4110    -7.8420    -4.0620    96.3450     3.5830     4.1430     2.2470     4.1060 
  119.6250   118.9980    -0.4180    -7.8720    -4.2050    98.2810     3.5930     4.1640     2.2800     4.1460 
  119.7500   119.1190    -0.4240    -7.9020    -4.2770    97.2440     3.6090     4.2060     2.2850     4.2000 
