~V
VERS. 2.00: Ver 2.00
~W
STRT.M 15.0000:
STOP.M 219.0000:
STEP.M 0.1250:
NULL. -999.2500:
UWI. FD11101:
~C
DEPT.M :
TVD. :
DX. :
DY. :
GR.API :
RML.OHMM :
RI. :
RXO.OHMM :
CALI.CM :
SP.MV :
DEN.GM/CC :
~A
# ...
   39.7500    39.7460     0.0300     0.1500    99.1390     7.0440     5.3310     4.1160    27.1740   -15.7350     2.2150 
   39.8750    39.8710     0.0320     0.1530    96.5370     7.0280     5.2960     4.2260    27.1190   -15.7520     2.2150 
   40.0000    39.9960     0.0350     0.1550    96.5480     7.2470     5.3850     5.2400    26.9860   -15.7080     2.1920 
   40.1250    40.1210     0.0370     0.1570   102.0930     7.5300     5.5400     6.0300    26.8520   -15.5450     2.1520 
   40.2500    40.2460     0.0390     0.1600   105.7520     7.6510     5.6350     6.1620    26.8100   -15.3110     2.1150 
   40.3750    40.3710     0.0420     0.1620   103.8810     7.4730     5.5790     5.5140    26.8300   -15.0640     2.0980 
   40.5000    40.4960     0.0440     0.1640   101.0200     6.9720     5.3340     5.4400    26.7780   -14.8230     2.1060 
   40.6250    40.6210     0.0460     0.1660   101.8240     6.2710     4.9320     5.0170    26.6880   -14.5580     2.1340 
   40.7500    40.7460     0.0490     0.1690   103.2210     5.6880     4.5350     4.4880    26.6050   -14.2220     2.1660 
   40.8750    40.8710     0.0510     0.1710   103.4880     5.5230     4.2960     4.0860    26.5410   -13.8230     2.1920 
   41.0000    40.9960     0.0530     0.1730   104.4340     6.0440     4.3630     3.7340    26.4680   -13.4200     2.2120 
   41.1250    41.1210     0.0560     0.1760   105.9880     7.5510     4.9270     3.9290    26.2970   -13.1270     2.2430 
   41.2500    41.2460     0.0580     0.1780   103.2880     9.7880     5.9430     5.4750    26.0120   -13.0300     2.2950 
   41.3750    41.3710     0.0600     0.1800    95.3870    12.2960     7.2670     9.6900    25.7000   -13.1560     2.3640 
   41.5000    41.4950     0.0630     0.1820    86.6790    14.3300     8.5630    17.5090    25.4630   -13.5060     2.4260 
   41.6250    41.6200     0.0650     0.1850    83.1790    14.9310     9.2690    17.2030    25.2360   -14.0950     2.4410 
   41.7500    41.7450     0.0670     0.1870    84.2220    14.2080     9.2380    11.4700    25.0250   -14.9100     2.4030 
   41.8750    41.8700     0.0700     0.1890    87.9940    12.7690     8.6560     7.5880    24.8780   -15.9720     2.3280 
   42.0000    41.9950     0.0720     0.1910    95.0540    11.4450     7.9230     7.3540    24.7620   -17.2420     2.2450 
   42.1250    42.1200     0.0740     0.1940   102.1460    11.0150     7.4890     8.0260    24.7250   -18.6990     2.1850 
   42.2500    42.2450     0.0770     0.1960   102.9940    11.4960     7.4920     7.9030    24.7300   -20.2330     2.1530 
   42.3750    42.3700     0.0800     0.1990    96.2220    12.6930     7.9120     7.5310    24.7100   -21.7160     2.1360 
   42.5000    42.4950     0.0850     0.2020    87.0650    14.2700     8.6320     9.7740    24.6200   -23.0650     2.1230 
   42.6250    42.6190     0.0910     0.2060    81.6090    15.8060     9.4770    11.2820    24.5470   -24.2360     2.1100 
   42.7500    42.7440     0.0970     0.2100    81.4130    17.0020    10.2430    11.5670    24.4630   -25.2570     2.0960 
   42.8750    42.8690     0.1030     0.2130    86.2900    17.7780    10.8360    11.0240    24.3300   -26.1310     2.0850 
   43.0000    42.9940     0.1090     0.2170    91.3940    18.2300    11.2460    10.6750    24.2350   -26.9050     2.0810 
   43.1250    43.1180     0.1150     0.2210    90.8550    18.5650    11.5270    10.7840    24.2190   -27.5670     2.0820 
   43.2500    43.2430     0.1210     0.2250    87.3960    18.9810    11.7850    11.3470    24.2630   -28.1170     2.0820 
   43.3750    43.3680     0.1270     0.2280    83.5350    19.5020    12.0570    11.8740    24.3400   -28.6200     2.0800 
   43.5000    43.4930     0.1330     0.2320    79.7720    20.0380    12.3250    12.0280    24.4250   -29.1210     2.0740 
   43.6250    43.6170     0.1390     0.2360    77.8100    20.4160    12.5170    12.0250    24.4550   -29.6170     2.0620 
   43.7500    43.7420     0.1450     0.2400    79.7320    20.5600    12.5930    12.0510    24.4810   -30.0740     2.0470 
   43.8750    43.8670     0.1510     0.2430    83.3230    20.4600    12.5410    12.1540    24.4600   -30.4610     2.0310 
   44.0000    43.9920     0.1560     0.2470    84.2920    20.1560    12.3810    12.0120    24.2750   -30.7510     2.0190 
   44.1250    44.1160     0.1620     0.2510    81.2550    19.7050    12.1400    11.3150    23.9930   -30.9180     2.0160 
   44.2500    44.2410     0.1680     0.2550    78.7120    19.2280    11.8830    10.8780    23.8440   -31.0020     2.0200 
   44.3750    44.3660     0.1740     0.2580    77.7530    18.8480    11.6650    10.9960    23.8480   -31.0080     2.0290 
   44.5000    44.4910     0.1800     0.2620    77.2240    18.7100    11.5530    11.4600    23.9700   -30.9590     2.0420 
   44.6250    44.6150     0.1860     0.2660    77.4950    19.0300    11.6500    11.8270    24.1970   -30.9020     2.0610 
   44.7500    44.7400     0.1920     0.2700    78.3840    19.8100    11.9710    12.7320    24.3740   -30.9020     2.0810 
   44.8750    44.8650     0.1980     0.2730    78.6290    20.9980    12.5140    14.4720    24.3950   -31.0120     2.0990 
   45.0000    44.9900     0.2040     0.2770    76.6760    22.4450    13.2330    14.7900    24.2110   -31.2410     2.1080 
   45.1250    45.1140     0.2100     0.2810    74.5490    23.9040    14.0410    13.3030    24.0690   -31.5670     2.1030 
   45.2500    45.2390     0.2160     0.2840    74.2860    25.1290    14.8030    11.7160    24.0980   -31.9520     2.0890 
   45.3750    45.3640     0.2220     0.2880    73.7880    25.9770    15.4240    11.3030    24.1930   -32.3920     2.0720 
   45.5000    45.4890     0.2270     0.2920    71.4210    26.4090    15.8470    12.0920    24.2110   -32.8470     2.0590 
   45.6250    45.6130     0.2330     0.2960    68.9770    26.4200    16.0300    12.8010    24.2180   -33.2540     2.0540 
   45.7500    45.7380     0.2390     0.2990    69.2690    26.1660    16.0370    12.8040    24.3030   -33.6040     2.0520 
   45.8750    45.8630     0.2450     0.3030    72.1160    25.7140    15.9040    12.4430    24.4520   -33.8800     2.0480 
   46.0000    45.9880     0.2510     0.3070    74.2500    25.0950    15.6550    12.2850    24.5220   -34.0800     2.0370 
   46.1250    46.1120     0.2570     0.3110    75.0760    24.2880    15.2910    12.0980    24.4750   -34.2460     2.0190 
   46.2500    46.2370     0.2630     0.3140    74.7500    23.3370    14.8360    11.6500    24.3930   -34.4220     2.0020 
   46.3750    46.3620     0.2690     0.3180    73.2960    22.3000    14.3140    11.5300    24.3490   -34.6020     1.9960 
   46.5000    46.4870     0.2750     0.3220    71.9240    21.2820    13.7710    12.4090    24.3230   -34.7890     2.0080 
   46.6250    46.6110     0.2810     0.3260    72.0150    20.4630    13.2880    12.4470    24.3080   -34.9810     2.0400 
   46.7500    46.7360     0.2870     0.3290    72.3170    19.9260    12.9260    11.5740    24.3770   -35.1460     2.0790 
   46.8750    46.8610     0.2930     0.3330    71.6140    19.6900    12.7130    10.4830    24.5020   -35.2740     2.1120 
   47.0000    46.9860     0.2980     0.3370    69.6480    19.6890    12.6390     9.8870    24.6010   -35.3810     2.1260 
   47.1250    47.1100     0.3040     0.3410    67.8230    19.8070    12.6680    10.0280    24.6380   -35.4440     2.1120 
   47.2500    47.2350     0.3100     0.3440    68.2120    19.9070    12.7250    10.4880    24.6940   -35.4430     2.0790 
   47.3750    47.3600     0.3160     0.3480    71.3080    19.9480    12.7720    10.5720    24.8080   -35.4000     2.0430 
   47.5000    47.4850     0.3220     0.3520    73.1560    19.9480    12.8010    10.3970    24.9160   -35.3450     2.0200 
   47.6250    47.6090     0.3280     0.3550    69.7460    19.9580    12.8240    10.3650    24.9480   -35.2900     2.0260 
   47.7500    47.7340     0.3340     0.3590    68.0160    19.9920    12.8530    10.3120    24.9910   -35.2450     2.0550 
   47.8750    47.8590     0.3400     0.3630    70.5830    20.0040    12.8750    10.3440    24.9920   -35.1990     2.0890 
