~V
VERS. 2.00: Ver 2.00
~W
STRT.M 25.0000:
STOP.M 287.0000:
STEP.M 0.1250:
NULL. -999.2500:
UWI. FD11174:
~C
DEPT.M :
TVD. :
DX. :
DY. :
SP.MV :
GR.API :
RI. :
RML.OHMM :
RXO.OHMM :
DEN.GM/CC :
~A
# ...
   61.5000    61.4770    -0.2880    -1.0010   -28.0760    59.7480     5.1250     5.7080     8.1070     2.0840 
   61.6250    61.6010    -0.2920    -1.0100   -27.8380    59.5040     5.1400     5.7600     7.8150     2.0980 
   61.7500    61.7260    -0.2950    -1.0180   -27.5220    62.2750     5.1850     5.8450     7.6280     2.1190 
   61.8750    61.8510    -0.2990    -1.0270   -27.2530    67.1150     5.2410     5.9170     7.6300     2.1320 
   62.0000    61.9750    -0.3030    -1.0360   -27.1100    69.6290     5.2710     5.9400     7.8650     2.1340 
   62.1250    62.1000    -0.3070    -1.0450   -27.2350    67.9540     5.2690     5.9190     8.0100     2.1320 
   62.2500    62.2250    -0.3100    -1.0540   -27.5390    63.5720     5.2500     5.8730     7.9140     2.1270 
   62.3750    62.3490    -0.3140    -1.0620   -27.8900    62.4890     5.2220     5.8330     8.2080     2.1200 
   62.5000    62.4740    -0.3180    -1.0710   -28.1880    64.4620     5.1990     5.8020     8.8790     2.1140 
   62.6250    62.5980    -0.3220    -1.0810   -28.4210    66.5350     5.1750     5.7720     8.8100     2.1090 
   62.7500    62.7230    -0.3260    -1.0900   -28.6060    66.4240     5.1500     5.7430     7.9650     2.1050 
   62.8750    62.8480    -0.3300    -1.0990   -28.7990    65.7330     5.1200     5.7000     7.3670     2.1060 
   63.0000    62.9720    -0.3340    -1.1080   -28.9940    63.7980     5.0790     5.6430     7.3630     2.1150 
   63.1250    63.0970    -0.3380    -1.1180   -29.1140    61.5180     5.0280     5.5830     7.7010     2.1210 
   63.2500    63.2210    -0.3410    -1.1270   -29.1420    60.8110     4.9800     5.5210     8.0510     2.1120 
   63.3750    63.3460    -0.3460    -1.1360   -29.0900    63.0830     4.9510     5.4860     8.2810     2.0940 
   63.5000    63.4700    -0.3500    -1.1460   -29.0410    65.0170     4.9480     5.4860     8.4440     2.0830 
   63.6250    63.5950    -0.3540    -1.1560   -29.0270    62.4950     4.9730     5.5150     8.4160     2.0840 
   63.7500    63.7200    -0.3580    -1.1650   -28.9860    59.5530     5.0050     5.5550     8.1130     2.0890 
   63.8750    63.8440    -0.3620    -1.1750   -28.9150    60.3230     5.0290     5.5690     7.6940     2.0990 
   64.0000    63.9690    -0.3660    -1.1850   -28.8010    64.0250     5.0290     5.5540     7.3460     2.1080 
   64.1250    64.0930    -0.3700    -1.1950   -28.7220    66.3040     5.0110     5.5150     7.2360     2.1100 
   64.2500    64.2180    -0.3750    -1.2050   -28.6530    65.4330     4.9750     5.4720     7.4760     2.1050 
   64.3750    64.3420    -0.3790    -1.2150   -28.6660    63.9290     4.9480     5.4470     7.9580     2.0940 
   64.5000    64.4670    -0.3830    -1.2250   -28.7360    65.1690     4.9390     5.4400     8.4450     2.0840 
   64.6250    64.5910    -0.3880    -1.2350   -28.7740    67.7140     4.9430     5.4570     8.6720     2.0860 
   64.7500    64.7160    -0.3920    -1.2450   -28.7640    66.4540     4.9590     5.4880     8.3860     2.1010 
   64.8750    64.8400    -0.3960    -1.2550   -28.6680    62.3220     4.9760     5.5180     7.7590     2.1180 
   65.0000    64.9650    -0.4010    -1.2660   -28.4540    61.1460     4.9880     5.5360     7.3630     2.1240 
   65.1250    65.0890    -0.4050    -1.2760   -28.1770    63.1580     4.9910     5.5410     7.3950     2.1210 
   65.2500    65.2140    -0.4100    -1.2870   -27.9130    66.6060     4.9780     5.5290     7.6200     2.1180 
   65.3750    65.3380    -0.4140    -1.2970   -27.7090    70.4070     4.9680     5.5200     7.9820     2.1160 
   65.5000    65.4630    -0.4190    -1.3080   -27.5280    71.8370     4.9640     5.5260     8.4740     2.1130 
   65.6250    65.5870    -0.4230    -1.3190   -27.4340    69.0550     4.9740     5.5430     8.8240     2.1060 
   65.7500    65.7120    -0.4280    -1.3290   -27.4480    65.2170     4.9990     5.5730     8.7260     2.1030 
   65.8750    65.8360    -0.4320    -1.3400   -27.5710    65.1260     5.0390     5.6330     8.1630     2.1070 
   66.0000    65.9600    -0.4370    -1.3510   -27.7240    66.9090     5.1000     5.7090     7.6110     2.1140 
   66.1250    66.0850    -0.4420    -1.3620   -27.8400    68.5890     5.1590     5.7740     7.4710     2.1190 
   66.2500    66.2090    -0.4460    -1.3730   -27.8850    68.5260     5.1920     5.8030     7.5910     2.1240 
   66.3750    66.3340    -0.4510    -1.3850   -27.8740    67.9920     5.1840     5.7740     7.8930     2.1260 
   66.5000    66.4580    -0.4560    -1.3960   -27.8870    66.5840     5.1480     5.7200     8.3530     2.1210 
   66.6250    66.5830    -0.4610    -1.4070   -27.9790    63.8530     5.1020     5.6620     8.6660     2.1130 
   66.7500    66.7070    -0.4660    -1.4190   -28.1260    62.9850     5.0580     5.6120     8.7410     2.1090 
   66.8750    66.8310    -0.4710    -1.4300   -28.3130    66.3930     5.0210     5.5780     8.5500     2.1080 
   67.0000    66.9560    -0.4760    -1.4420   -28.5180    69.9810     4.9950     5.5550     7.9590     2.1030 
   67.1250    67.0800    -0.4810    -1.4530   -28.7170    68.8830     4.9690     5.5240     7.1750     2.0920 
   67.2500    67.2040    -0.4860    -1.4650   -28.9390    63.5100     4.9420     5.4880     6.6820     2.0830 
   67.3750    67.3290    -0.4910    -1.4770   -29.2030    58.2420     4.9270     5.4570     6.7360     2.0820 
   67.5000    67.4530    -0.4960    -1.4890   -29.3380    56.7720     4.9250     5.4380     7.1250     2.0870 
   67.6250    67.5770    -0.5010    -1.5010   -29.3320    60.3920     4.9430     5.4370     7.5260     2.0940 
   67.7500    67.7020    -0.5060    -1.5130   -29.3150    64.6490     4.9640     5.4450     7.6710     2.0980 
   67.8750    67.8260    -0.5110    -1.5250   -29.2530    65.0360     4.9800     5.4490     7.3320     2.0980 
   68.0000    67.9500    -0.5170    -1.5370   -29.0830    62.3470     4.9920     5.4450     6.7990     2.0950 
   68.1250    68.0750    -0.5220    -1.5490   -28.8530    58.7630     4.9960     5.4260     6.6690     2.0900 
   68.2500    68.1990    -0.5270    -1.5620   -28.6240    57.9720     4.9900     5.3960     7.0330     2.0830 
   68.3750    68.3230    -0.5320    -1.5740   -28.4580    60.5020     4.9930     5.3720     7.5480     2.0770 
   68.5000    68.4470    -0.5380    -1.5860   -28.2520    63.5040     5.0290     5.3940     7.9330     2.0760 
   68.6250    68.5720    -0.5430    -1.5990   -27.8600    64.3390     5.0690     5.4240     8.1700     2.0770 
   68.7500    68.6960    -0.5480    -1.6120   -27.3180    62.1660     5.0560     5.4040     8.1860     2.0740 
   68.8750    68.8200    -0.5540    -1.6240   -26.6640    59.2470     4.9800     5.3170     7.7170     2.0760 
   69.0000    68.9440    -0.5590    -1.6370   -25.9120    59.1890     4.8540     5.1810     6.8120     2.0920 
   69.1250    69.0690    -0.5650    -1.6500   -24.9530    67.4430     4.7360     5.0560     5.8850     2.1170 
   69.2500    69.1930    -0.5700    -1.6630   -23.7940    81.7690     4.6760     5.0090     5.5030     2.1340 
   69.3750    69.3170    -0.5760    -1.6760   -22.5440    94.2330     4.6880     5.0570     5.8670     2.1340 
   69.5000    69.4410    -0.5810    -1.6890   -21.5580    99.7170     4.7610     5.1680     6.4560     2.1260 
   69.6250    69.5650    -0.5870    -1.7020   -21.2040    98.4640     4.8450     5.2660     6.8580     2.1220 
   69.7500    69.6890    -0.5930    -1.7160   -21.1350    95.9740     4.8850     5.2930     7.1060     2.1210 
   69.8750    69.8140    -0.5980    -1.7290   -21.0570    92.6510     4.9740     5.3630     7.2230     2.1250 
   70.0000    69.9380    -0.6040    -1.7420   -20.7810    88.0770     5.3100     5.7380     7.2270     2.1460 
   70.1250    70.0620    -0.6090    -1.7560   -20.1950    85.6280     6.0850     6.6800     8.0550     2.2060 
   70.2500    70.1860    -0.6150    -1.7700   -19.4640    88.7940     7.1010     7.9490    12.4660     2.3080 
   70.3750    70.3100    -0.6210    -1.7830   -18.7520    95.7390     8.0160     9.0940    20.9720     2.4130 
   70.5000    70.4340    -0.6260    -1.7970   -18.2270    96.6450     8.4840     9.6350    25.1520     2.4440 
