~V
VERS. 2.00: Ver 2.00
~W
STRT.M 40.0000:
STOP.M 279.0000:
STEP.M 0.1250:
NULL. -999.2500:
UWI. FD11188:
~C
DEPT.M :
TVD. :
DX. :
DY. :
SP.MV :
GR.API :
RI. :
RML.OHMM :
RXO.OHMM :
DEN.GM/CC :
~A
# ...
  204.2500   196.4510    10.8420    40.8840   -14.9370    64.1160    38.1110    37.4290    42.6100     2.1400 
  204.3750   196.5650    10.8510    40.9360   -14.7420    64.4780    37.7910    37.0940    44.3390     2.1410 
  204.5000   196.6780    10.8610    40.9880   -14.5990    64.4400    37.2630    36.5920    47.1340     2.1390 
  204.6250   196.7910    10.8700    41.0400   -14.5310    65.6660    36.7520    36.1720    49.1960     2.1420 
  204.7500   196.9050    10.8800    41.0920   -14.5120    67.0630    36.3240    35.8530    46.6600     2.1460 
  204.8750   197.0180    10.8890    41.1430   -14.4970    66.5110    36.0540    35.6960    41.8150     2.1450 
  205.0000   197.1320    10.8990    41.1950   -14.4510    64.6570    35.9230    35.6810    39.8990     2.1370 
  205.1250   197.2450    10.9090    41.2470   -14.3620    63.7520    35.9910    35.8560    41.6490     2.1310 
  205.2500   197.3580    10.9180    41.2990   -14.2590    63.6980    36.2870    36.2740    45.5210     2.1290 
  205.3750   197.4720    10.9280    41.3510   -14.1810    65.1190    36.8870    36.9960    51.3100     2.1330 
  205.5000   197.5850    10.9370    41.4030   -14.1470    68.2620    37.7200    37.9440    54.5900     2.1350 
  205.6250   197.6980    10.9470    41.4550   -14.1550    69.9090    38.7500    39.1060    46.8160     2.1300 
  205.7500   197.8110    10.9570    41.5070   -14.1740    68.1550    39.8040    40.2840    32.3000     2.1190 
  205.8750   197.9250    10.9670    41.5590   -14.1820    66.2380    40.6940    41.2810    22.9890     2.1060 
  206.0000   198.0380    10.9760    41.6110   -14.1760    66.8120    41.4830    42.1420    22.5320     2.0990 
  206.1250   198.1510    10.9860    41.6630   -14.1770    66.9770    42.1250    42.8030    29.3410     2.0990 
  206.2500   198.2640    10.9960    41.7150   -14.2080    64.7950    42.7410    43.3770    37.9970     2.1010 
  206.3750   198.3780    11.0050    41.7670   -14.2780    62.9550    43.1630    43.6540    43.9880     2.1020 
  206.5000   198.4910    11.0150    41.8190   -14.3710    62.9930    43.1760    43.4300    44.7850     2.1060 
  206.6250   198.6040    11.0250    41.8710   -14.4610    63.8650    42.6950    42.6320    40.9000     2.1140 
  206.7500   198.7170    11.0350    41.9230   -14.5260    64.4250    41.6980    41.3110    39.7730     2.1250 
  206.8750   198.8300    11.0440    41.9760   -14.5570    65.4170    40.3940    39.7350    42.3450     2.1380 
  207.0000   198.9430    11.0540    42.0280   -14.5630    65.7560    38.6890    37.7830    44.1060     2.1460 
  207.1250   199.0570    11.0640    42.0800   -14.5550    64.2170    36.2730    35.1550    46.3500     2.1470 
  207.2500   199.1700    11.0730    42.1320   -14.5430    62.1310    33.0330    31.7680    48.6230     2.1540 
  207.3750   199.2830    11.0830    42.1840   -14.5280    62.2920    29.2000    27.8770    48.3010     2.1780 
  207.5000   199.3960    11.0930    42.2360   -14.5100    65.5470    25.4270    24.1610    45.3780     2.2100 
  207.6250   199.5090    11.1020    42.2890   -14.4890    69.4440    22.4430    21.3090    26.5170     2.2300 
  207.7500   199.6230    11.1120    42.3410   -14.4730    70.1590    20.4420    19.4560    22.2210     2.2380 
  207.8750   199.7360    11.1220    42.3930   -14.4790    67.7350    19.5640    18.7330    19.7550     2.2360 
  208.0000   199.8490    11.1310    42.4450   -14.5160    66.3370    19.6350    18.9100    20.5710     2.2310 
  208.1250   199.9620    11.1410    42.4970   -14.5900    68.2470    20.2750    19.6070    23.3820     2.2260 
  208.2500   200.0750    11.1510    42.5490   -14.6810    68.6150    21.1290    20.4800    25.1500     2.2210 
  208.3750   200.1890    11.1610    42.6010   -14.7630    65.5810    22.0700    21.4490    25.9190     2.2190 
  208.5000   200.3020    11.1700    42.6530   -14.8090    64.4580    23.0780    22.5320    27.6000     2.2180 
  208.6250   200.4150    11.1800    42.7050   -14.7950    68.5520    24.2570    23.8550    29.0230     2.2060 
  208.7500   200.5280    11.1900    42.7570   -14.7150    72.0580    25.8660    25.6580    28.7010     2.1820 
  208.8750   200.6420    11.1990    42.8090   -14.5550    70.1120    27.8540    27.8990    29.5200     2.1580 
  209.0000   200.7550    11.2090    42.8610   -14.3140    65.0420    30.3780    30.7510    34.0800     2.1430 
  209.1250   200.8680    11.2190    42.9130   -13.9770    61.6000    33.1560    33.9160    40.0500     2.1320 
  209.2500   200.9810    11.2280    42.9650   -13.5430    58.9310    35.3640    36.4720    42.8970     2.1200 
  209.3750   201.0950    11.2380    43.0170   -12.9990    56.2740    36.0570    37.3240    42.9720     2.1120 
  209.5000   201.2080    11.2480    43.0690   -12.3530    55.6070    35.1730    36.5050    41.7120     2.1130 
  209.6250   201.3210    11.2570    43.1220   -11.5990    58.5270    33.7240    35.1300    37.9190     2.1350 
  209.7500   201.4340    11.2670    43.1740   -10.7500    61.4180    32.0010    33.3260    34.0180     2.2030 
  209.8750   201.5470    11.2770    43.2260    -9.8050    61.2130    29.3020    30.5630    31.7180     2.3290 
  210.0000   201.6610    11.2860    43.2780    -8.7820    60.4270    26.2770    27.4710    35.6850     2.4580 
  210.1250   201.7740    11.2960    43.3300    -7.6950    60.5320    22.9430    24.0840    59.5120     2.5230 
  210.2500   201.8870    11.3060    43.3820    -6.5800    59.8100    20.3050    21.5420    74.9340     2.5370 
  210.3750   202.0000    11.3150    43.4340    -5.4820    57.3330    18.1310    19.3690    51.2230     2.5570 
  210.5000   202.1130    11.3250    43.4870    -4.4430    56.3520    15.7420    16.9520    30.0780     2.6060 
  210.6250   202.2270    11.3350    43.5390    -3.5090    57.8270    12.7670    13.8470    31.8100     2.6630 
  210.7500   202.3400    11.3440    43.5910    -2.4220    59.6550     8.7890     9.5990    28.6610     2.6930 
  210.8750   202.4530    11.3540    43.6430    -1.8380    59.6380     6.5210     7.0730    17.6580     2.6610 
  211.0000   202.5660    11.3640    43.6950    -1.4100    61.1690     4.8190     5.1610     9.1320     2.5750 
  211.1250   202.6790    11.3740    43.7480    -1.1360    64.7510     3.8970     4.1770     6.2220     2.4840 
  211.2500   202.7920    11.3830    43.8000    -0.9680    66.5790     3.5440     3.8360     5.3460     2.4210 
  211.3750   202.9050    11.3930    43.8520    -0.8600    65.1830     3.4910     3.8120     5.1940     2.3890 
  211.5000   203.0190    11.4030    43.9040    -0.7550    63.6700     3.4430     3.7720     5.5250     2.3730 
  211.6250   203.1320    11.4130    43.9560    -0.6150    63.5470     3.2670     3.5820     5.6740     2.3840 
  211.7500   203.2450    11.4230    44.0090    -0.4340    62.7070     2.9490     3.2230     5.2600     2.4290 
  211.8750   203.3580    11.4330    44.0610    -0.2210    61.4610     2.5310     2.7410     4.3210     2.4740 
  212.0000   203.4710    11.4430    44.1130    -0.0050    61.2710     2.1740     2.3420     3.2650     2.4750 
  212.1250   203.5840    11.4530    44.1650     0.1830    62.0730     1.9300     2.0710     2.7960     2.4330 
  212.2500   203.6970    11.4630    44.2170     0.3150    63.5840     1.8070     1.9400     2.7850     2.4030 
  212.3750   203.8110    11.4730    44.2700     0.3600    66.3460     1.8510     2.0010     2.8190     2.4030 
  212.5000   203.9240    11.4820    44.3220     0.3110    69.8630     1.9980     2.1710     2.8780     2.4000 
  212.6250   204.0370    11.4920    44.3740     0.1590    74.5920     2.1980     2.4030     3.4480     2.3820 
  212.7500   204.1500    11.5030    44.4270    -0.0740    81.2350     2.4370     2.6900     4.6320     2.3720 
  212.8750   204.2630    11.5130    44.4790    -0.3590    87.3170     2.7000     3.0100     5.3610     2.3750 
  213.0000   204.3760    11.5230    44.5310    -0.6570    90.1560     2.9340     3.2940     5.2050     2.3750 
  213.1250   204.4890    11.5330    44.5840    -0.9400    92.7300     3.1320     3.5380     5.0530     2.3710 
  213.2500   204.6020    11.5430    44.6360    -1.2020    97.4170     3.2230     3.6530     5.2960     2.3750 
