~V
VERS. 2.00: Ver 2.00
~W
STRT.M 20.0000:
STOP.M 286.0000:
STEP.M 0.1250:
NULL. -999.2500:
UWI. FD11156:
~C
DEPT.M :
TVD. :
DX. :
DY. :
DEN.GM/CC :
GR.API :
RML.OHMM :
RI. :
RXO.OHMM :
CALI.CM :
SP.MV :
~A
# ...
  209.7500   206.8690     9.1320   -21.3990     2.5120    78.8300     8.2790     7.5270    10.2940    21.1790   -28.9330 
  209.8750   206.9870     9.1520   -21.4350     2.5290    74.9810     8.2810     7.5290    15.5050    21.1220   -28.4020 
  210.0000   207.1050     9.1720   -21.4710     2.5490    74.2170     8.5920     7.8110    22.1850    21.1140   -27.8950 
  210.1250   207.2230     9.1920   -21.5080     2.5740    74.1010     9.5220     8.6560    19.9120    21.1570   -27.4940 
  210.2500   207.3410     9.2120   -21.5440     2.5920    74.8770    11.1510    10.1370    20.0330    21.0610   -27.2200 
  210.3750   207.4590     9.2320   -21.5800     2.5840    78.0570    13.4140    12.1940    24.3090    20.7250   -27.0250 
  210.5000   207.5770     9.2520   -21.6160     2.5330    81.9210    15.8040    14.3670    25.6150    20.5740   -26.8990 
  210.6250   207.6950     9.2720   -21.6530     2.4360    86.3730    16.8920    15.3570    26.9630    20.5360   -26.7920 
  210.7500   207.8130     9.2930   -21.6890     2.3290    88.7160    15.8900    14.4450    24.3720    20.5270   -26.6240 
  210.8750   207.9310     9.3130   -21.7250     2.2460    84.4900    13.2650    12.0590    19.0730    20.5490   -26.4060 
  211.0000   208.0490     9.3330   -21.7620     2.2100    73.4500    10.2420     9.3110    14.1610    20.5470   -26.1480 
  211.1250   208.1660     9.3530   -21.7980     2.2270    64.4390     7.8620     7.1470     7.4410    20.4850   -25.7980 
  211.2500   208.2840     9.3730   -21.8340     2.2710    63.2020     6.2640     5.6940     5.1980    20.2470   -25.4850 
  211.3750   208.4020     9.3930   -21.8700     2.3190    66.3350     5.3530     4.8670     4.6400    20.0030   -25.2410 
  211.5000   208.5200     9.4130   -21.9070     2.3560    69.0580     4.9880     4.5350     4.5190    19.9400   -25.0060 
  211.6250   208.6380     9.4330   -21.9430     2.3770    67.6450     5.0500     4.5910     4.5370    20.0190   -24.8650 
  211.7500   208.7560     9.4530   -21.9790     2.3920    66.2550     5.2900     4.8090     4.6460    20.4740   -24.8100 
  211.8750   208.8740     9.4740   -22.0150     2.4050    70.3230     5.5710     5.0640     4.8180    21.3330   -24.7820 
  212.0000   208.9920     9.4940   -22.0520     2.4140    77.4200     5.7950     5.2680     4.9650    21.9780   -24.8150 
  212.1250   209.1100     9.5140   -22.0880     2.4170    80.6460     5.9090     5.3720     5.1540    22.2290   -24.8660 
  212.2500   209.2280     9.5340   -22.1240     2.4170    80.0790     5.9380     5.3980     5.1490    22.2700   -24.8000 
  212.3750   209.3460     9.5540   -22.1610     2.4140    79.7720     5.9110     5.3740     5.1770    22.2750   -24.6420 
  212.5000   209.4640     9.5740   -22.1970     2.4140    80.4530     5.8690     5.3360     5.3430    22.2690   -24.3690 
  212.6250   209.5810     9.5940   -22.2330     2.4160    80.4500     5.8600     5.3270     5.4340    22.2050   -23.9490 
  212.7500   209.6990     9.6140   -22.2690     2.4190    81.5150     5.9000     5.3640     5.5610    21.9840   -23.4230 
  212.8750   209.8170     9.6340   -22.3060     2.4200    83.4250     5.9760     5.4320     5.8320    21.8240   -22.7810 
  213.0000   209.9350     9.6550   -22.3420     2.4190    82.0810     6.0440     5.4940     6.2760    21.7950   -22.0670 
  213.1250   210.0530     9.6750   -22.3780     2.4140    75.8040     6.0530     5.5030     6.6560    21.7950   -21.3830 
  213.2500   210.1710     9.6950   -22.4150     2.4050    69.9600     6.0200     5.4730     6.5790    21.7950   -20.7390 
  213.3750   210.2890     9.7150   -22.4510     2.3940    67.9590     5.9920     5.4470     6.3700    21.7950   -20.1550 
  213.5000   210.4070     9.7350   -22.4870     2.3820    70.0070     6.0330     5.4850     6.2210    21.7950   -19.7230 
  213.6250   210.5250     9.7550   -22.5230     2.3710    72.8140     6.2160     5.6510     6.4030    21.7950   -19.4170 
  213.7500   210.6430     9.7750   -22.5600     2.3630    71.7000     6.5220     5.9290     6.8650    21.7950   -19.2150 
  213.8750   210.7610     9.7950   -22.5960     2.3610    68.2580     6.9070     6.2790     7.3950    21.7850   -19.1560 
  214.0000   210.8790     9.8150   -22.6320     2.3630    67.6520     7.3060     6.6410     7.8510    21.7500   -19.1600 
  214.1250   210.9970     9.8350   -22.6680     2.3690    71.3560     7.6460     6.9510     8.1480    21.5390   -19.1690 
  214.2500   211.1140     9.8560   -22.7050     2.3740    72.2170     7.9090     7.1900     8.3220    21.4770   -19.2150 
  214.3750   211.2320     9.8760   -22.7410     2.3760    70.7800     8.1000     7.3640     8.3880    21.3930   -19.2280 
  214.5000   211.3500     9.8960   -22.7770     2.3730    72.3590     8.2150     7.4690     8.3440    21.3370   -19.1840 
  214.6250   211.4680     9.9160   -22.8140     2.3680    75.8930     8.1980     7.4530     8.5100    21.3000   -19.1040 
  214.7500   211.5860     9.9360   -22.8500     2.3640    77.2230     8.0150     7.2860     8.6710    21.1410   -18.9570 
  214.8750   211.7040     9.9560   -22.8860     2.3650    76.6560     7.6600     6.9640     8.6580    20.9290   -18.7830 
  215.0000   211.8220     9.9760   -22.9220     2.3700    76.8440     7.2010     6.5460     7.9010    20.8620   -18.6030 
  215.1250   211.9400     9.9960   -22.9590     2.3780    77.1820     6.7670     6.1510     7.0180    20.8000   -18.4150 
  215.2500   212.0580    10.0160   -22.9950     2.3860    77.3820     6.4750     5.8870     6.4260    20.7900   -18.2360 
  215.3750   212.1760    10.0370   -23.0310     2.3940    79.0950     6.3870     5.8060     6.2070    20.7920   -18.0710 
  215.5000   212.2940    10.0570   -23.0680     2.4040    81.0560     6.5030     5.9120     6.3470    20.7930   -17.9250 
  215.6250   212.4120    10.0770   -23.1040     2.4160    79.9170     6.7790     6.1630     6.8280    20.7930   -17.8500 
  215.7500   212.5290    10.0970   -23.1400     2.4270    77.3680     7.0740     6.4310     7.4750    20.7930   -17.8390 
  215.8750   212.6470    10.1170   -23.1760     2.4340    76.3980     7.2650     6.6050     7.9840    20.7930   -17.8320 
  216.0000   212.7650    10.1370   -23.2130     2.4320    75.8860     7.2690     6.6080     7.7380    20.7930   -17.8630 
  216.1250   212.8830    10.1570   -23.2490     2.4210    74.1090     7.0600     6.4180     7.2450    20.8020   -17.8960 
  216.2500   213.0010    10.1770   -23.2850     2.4090    74.5020     6.7660     6.1510     6.6120    20.8590   -17.9170 
  216.3750   213.1190    10.1970   -23.3210     2.4020    77.8560     6.5010     5.9100     6.2470    21.0190   -17.9890 
  216.5000   213.2370    10.2180   -23.3580     2.4020    81.0400     6.3540     5.7760     6.0940    21.0830   -18.0880 
  216.6250   213.3550    10.2380   -23.3940     2.4120    82.5820     6.3980     5.8160     6.1420    21.0730   -18.1500 
  216.7500   213.4730    10.2580   -23.4300     2.4260    84.2890     6.5930     5.9940     6.3700    21.0300   -18.2430 
  216.8750   213.5910    10.2780   -23.4670     2.4390    83.3130     6.8870     6.2610     6.7070    21.0230   -18.3950 
  217.0000   213.7090    10.2980   -23.5030     2.4500    78.6220     7.2150     6.5590     7.4050    21.0220   -18.5380 
  217.1250   213.8270    10.3180   -23.5390     2.4540    76.2510     7.5010     6.8190     9.0340    21.0270   -18.6920 
  217.2500   213.9440    10.3380   -23.5750     2.4520    79.1270     7.6780     6.9800    10.2420    21.0600   -18.8250 
  217.3750   214.0620    10.3580   -23.6120     2.4440    82.5060     7.7040     7.0030     9.0440    21.0920   -18.8930 
  217.5000   214.1800    10.3780   -23.6490     2.4340    83.1770     7.5750     6.8870     7.5510    21.0980   -18.9400 
  217.6250   214.2980    10.3960   -23.6860     2.4240    85.5390     7.3160     6.6510     6.9790    21.0980   -18.9900 
  217.7500   214.4160    10.4150   -23.7240     2.4170    87.6930     7.0250     6.3860     7.0210    21.1000   -19.0100 
  217.8750   214.5330    10.4340   -23.7610     2.4150    86.5260     6.8020     6.1830     7.1580    21.1090   -18.9980 
