~V
VERS. 2.00: Ver 2.00
~W
STRT.M 20.0000:
STOP.M 292.0000:
STEP.M 0.1250:
NULL. -999.2500:
UWI. FD11146:
~C
DEPT.M :
TVD. :
DX. :
DY. :
GR.API :
RML.OHMM :
RI. :
RXO.OHMM :
CALI.CM :
SP.MV :
DEN.GM/CC :
~A
   20.0000    20.0000     0.0000     0.0000  -999.2500  -999.2500  -999.2500  -999.2500  -999.2500    44.0370     0.0000 
   20.1250    20.1250     0.0000     0.0000  -999.2500  -999.2500  -999.2500  -999.2500  -999.2500    45.1690     0.4350 
   20.2500    20.2500     0.0000     0.0000  -999.2500  -999.2500  -999.2500  -999.2500  -999.2500    46.4070     1.7470 
   20.3750    20.3750     0.0000     0.0000  -999.2500  -999.2500  -999.2500  -999.2500  -999.2500    47.6750     1.7650 
   20.5000    20.5000     0.0000     0.0000  -999.2500  -999.2500  -999.2500  -999.2500  -999.2500    48.9050     1.7880 
   20.6250    20.6250     0.0000     0.0000  -999.2500  -999.2500  -999.2500  -999.2500  -999.2500    49.9610     1.7950 
   20.7500    20.7500     0.0000     0.0000  -999.2500  -999.2500  -999.2500  -999.2500  -999.2500    50.7790     1.7890 
   20.8750    20.8750     0.0000     0.0000  -999.2500  -999.2500  -999.2500  -999.2500  -999.2500    51.3520     1.7810 
   21.0000    21.0000     0.0000     0.0000  -999.2500  -999.2500  -999.2500  -999.2500  -999.2500    51.7000     1.7790 
   21.1250    21.1250     0.0000     0.0000  -999.2500  -999.2500  -999.2500  -999.2500  -999.2500    51.8080     1.7860 
   21.2500    21.2500     0.0000     0.0000  -999.2500  -999.2500  -999.2500  -999.2500  -999.2500    51.7220     1.7980 
   21.3750    21.3750     0.0000     0.0000  -999.2500  -999.2500  -999.2500  -999.2500  -999.2500    51.4750     1.8110 
   21.5000    21.5000     0.0000     0.0000  -999.2500  -999.2500  -999.2500  -999.2500  -999.2500    51.1080     1.8150 
   21.6250    21.6250     0.0000     0.0000  -999.2500  -999.2500  -999.2500  -999.2500  -999.2500    50.6730     1.8090 
   21.7500    21.7500     0.0000     0.0000  -999.2500  -999.2500  -999.2500  -999.2500  -999.2500    50.2410     1.8010 
   21.8750    21.8750     0.0000     0.0000  -999.2500  -999.2500  -999.2500  -999.2500  -999.2500    49.8360     1.7920 
   22.0000    22.0000     0.0000     0.0000  -999.2500  -999.2500  -999.2500  -999.2500  -999.2500    49.4450     1.7790 
   22.1250    22.1250     0.0000     0.0000  -999.2500  -999.2500  -999.2500  -999.2500  -999.2500    49.0790     1.7640 
   22.2500    22.2500     0.0000     0.0000  -999.2500  -999.2500  -999.2500  -999.2500  -999.2500    48.7660     1.7510 
   22.3750    22.3750     0.0000     0.0000  -999.2500  -999.2500  -999.2500  -999.2500  -999.2500    48.5330     1.7480 
   22.5000    22.5000     0.0000     0.0000  -999.2500  -999.2500  -999.2500  -999.2500  -999.2500    48.4070     1.7610 
   22.6250    22.6250     0.0000     0.0000  -999.2500  -999.2500  -999.2500  -999.2500  -999.2500    48.4320     1.7940 
   22.7500    22.7500     0.0000     0.0000  -999.2500  -999.2500  -999.2500  -999.2500  -999.2500    48.6100     1.8350 
   22.8750    22.8750     0.0000     0.0000    40.6520    35.4760     5.8960     0.9760    25.6980    48.9540     1.8710 
   23.0000    23.0000     0.0000     0.0000    40.6520    35.4760     5.8960     0.9760    25.6980    49.4480     1.9060 
   23.1250    23.1250     0.0000     0.0000    40.8170    34.5820     5.9240     0.9400    25.6960    50.0930     1.9470 
   23.2500    23.2500     0.0000     0.0000    42.6180    33.8700     5.9120     0.9680    25.6970    50.8120     1.9790 
   23.3750    23.3750     0.0000     0.0000    47.2150    33.5200     5.8830     0.9970    25.6980    51.5190     1.9830 
   23.5000    23.5000     0.0000     0.0000    51.1250    33.4900     5.8710     1.0090    25.6970    52.1270     1.9650 
   23.6250    23.6250     0.0000     0.0000    49.6700    33.4930     5.9090     1.0190    25.6960    52.5290     1.9510 
   23.7500    23.7500     0.0000     0.0000    47.3500    33.2830     5.9920     1.0350    25.6950    52.7270     1.9510 
   23.8750    23.8750     0.0000     0.0000    48.1470    32.9210     6.1010     1.0530    25.6940    52.7310     1.9560 
   24.0000    24.0000     0.0000     0.0000    49.1170    32.6090     6.2030     1.0430    25.6940    52.5730     1.9590 
   24.1250    24.1250     0.0000     0.0000    46.8750    32.5090     6.2770     1.0020    25.6940    52.2610     1.9540 
   24.2500    24.2500     0.0000     0.0000    45.4190    32.5430     6.3350     0.9700    25.6940    51.8530     1.9440 
   24.3750    24.3750     0.0000     0.0000    46.4170    32.6040     6.3930     0.9580    25.6940    51.4130     1.9380 
   24.5000    24.5000     0.0000     0.0000    46.9430    32.6390     6.4600     0.9680    25.6940    51.0350     1.9420 
   24.6250    24.6250     0.0000     0.0000    45.7420    32.5970     6.5290     0.9890    25.6940    50.8120     1.9530 
   24.7500    24.7500     0.0000     0.0000    45.0510    32.4060     6.5870     1.0300    25.6940    50.7050     1.9570 
   24.8750    24.8750     0.0000     0.0000    45.1120    32.0200     6.6230     1.0700    25.6940    50.6720     1.9520 
   25.0000    25.0000     0.0000     0.0000    43.5570    31.5050     6.6370     1.1310    25.6940    50.6900     1.9450 
   25.1250    25.1250     0.0000     0.0000    39.6320    31.0340     6.6160     1.1930    25.6940    50.7800     1.9350 
   25.2500    25.2500     0.0000     0.0000    35.7300    30.7000     6.5560     1.3140    25.6940    50.9310     1.9170 
   25.3750    25.3750     0.0000     0.0000    35.0290    30.5190     6.4550     1.5150    25.6940    51.1370     1.8950 
   25.5000    25.5000     0.0000     0.0000    39.5980    30.4690     6.3310     1.7660    25.6940    51.3610     1.8830 
   25.6250    25.6250     0.0000     0.0000    45.2770    30.4450     6.2310     1.9370    25.6940    51.5990     1.8940 
   25.7500    25.7500     0.0000     0.0000    47.6980    30.3400     6.1880     1.9720    25.6940    51.8740     1.9220 
   25.8750    25.8750     0.0000     0.0000    47.3620    30.1560     6.2140     1.8780    25.6940    52.1990     1.9580 
   26.0000    26.0000     0.0000     0.0000    46.4690    29.9480     6.2920     1.8090    25.6940    52.5820     1.9910 
   26.1250    26.1250     0.0000     0.0000    46.5080    29.8180     6.3860     1.7920    25.6940    53.0240     2.0120 
   26.2500    26.2500     0.0000     0.0000    46.8150    29.8460     6.4600     1.7380    25.6940    53.5080     2.0240 
   26.3750    26.3750     0.0000     0.0000    47.4110    30.0470     6.5020     1.7040    25.6940    54.0390     2.0310 
   26.5000    26.5000     0.0000     0.0000    47.6500    30.3390     6.5190     1.7870    25.6940    54.6120     2.0310 
   26.6250    26.6250     0.0000     0.0000    47.4090    30.5980     6.5150     1.8770    25.6940    55.2050     2.0200 
   26.7500    26.7500     0.0000     0.0000    47.0870    30.8260     6.4740     1.8170    25.6940    55.7760     2.0040 
   26.8750    26.8750     0.0000     0.0000    47.1040    30.9690     6.3340     1.6470    25.6940    56.2500     1.9950 
   27.0000    27.0000     0.0000     0.0000    48.7320    30.4560     5.9520     1.4680    25.6940    56.4910     2.0030 
   27.1250    27.1250     0.0000     0.0000    51.1150    27.2180     5.0150     1.3930    25.6940    56.2110     2.0350 
   27.2500    27.2500     0.0000     0.0000    51.0800    20.9200     3.6630     1.3600    25.6940    55.1960     2.0880 
   27.3750    27.3750     0.0000     0.0000    48.4890    13.8360     2.3490     1.3230    25.6920    53.1230     2.1620 
   27.5000    27.5000     0.0000     0.0000    45.2110     8.5800     1.4260     1.2880    25.6770    49.6400     2.2530 
   27.6250    27.6250     0.0000     0.0000    43.0730     6.4140     0.9870     1.3060    25.6220    44.0730     2.3560 
   27.7500    27.7500     0.0000     0.0000    43.6990     6.6470     0.8630     1.5640    25.5530    36.4870     2.4490 
   27.8750    27.8750     0.0000     0.0000    47.6800     9.2190     1.0180     2.5260    25.6320    27.2630     2.4880 
   28.0000    28.0000     0.0000     0.0000    53.0420    14.4590     1.4830     4.8170    26.0810    17.2490     2.4330 
   28.1250    28.1250     0.0000     0.0000    57.5630    23.1760     2.3800     6.1130    27.0390     7.1850     2.3000 
