~V
VERS. 2.00: Ver 2.00
~W
STRT.M 50.0000:
STOP.M 286.0000:
STEP.M 0.1250:
NULL. -999.2500:
UWI. FD11181:
~C
DEPT.M :
TVD. :
DX. :
DY. :
SP.MV :
GR.API :
RI. :
RML.OHMM :
RXO.OHMM :
DEN.GM/CC :
~A
# ...
  250.7500   241.5440   -51.3430     3.8750   -14.9220    68.0410    19.4540    21.1940    23.8440     2.2340 
  250.8750   241.6580   -51.3950     3.8780   -15.2390    67.7490    24.1350    26.1440    28.6660     2.2790 
  251.0000   241.7720   -51.4470     3.8810   -15.4540    64.2110    27.9450    30.1310    31.3320     2.3390 
  251.1250   241.8860   -51.4990     3.8840   -15.5780    57.0560    30.2310    32.5690    31.1370     2.3590 
  251.2500   241.9990   -51.5500     3.8870   -15.6580    50.2440    31.2590    33.7210    29.8250     2.3280 
  251.3750   242.1130   -51.6020     3.8900   -15.8000    46.9670    32.0330    34.4020    29.5570     2.3000 
  251.5000   242.2270   -51.6540     3.8920   -15.8680    49.0060    32.8140    35.1440    34.3580     2.3220 
  251.6250   242.3400   -51.7060     3.8950   -15.6470    53.8690    33.5030    35.8800    44.8590     2.3590 
  251.7500   242.4540   -51.7580     3.8980   -15.3760    57.2410    34.0080    36.4720    45.6770     2.3470 
  251.8750   242.5670   -51.8100     3.9000   -15.2350    57.5480    34.4500    36.9320    35.7310     2.2870 
  252.0000   242.6810   -51.8620     3.9030   -15.0680    56.5660    35.2210    37.5930    30.9070     2.2320 
  252.1250   242.7950   -51.9140     3.9050   -14.7400    57.8870    36.1500    38.8210    30.7460     2.2050 
  252.2500   242.9080   -51.9660     3.9080   -14.3930    59.2980    37.6740    40.8130    30.6610     2.1880 
  252.3750   243.0220   -52.0180     3.9100   -14.0960    57.3390    39.5920    43.0270    35.4610     2.1730 
  252.5000   243.1360   -52.0710     3.9130   -13.9320    52.6400    40.6030    44.2490    42.6120     2.1650 
  252.6250   243.2490   -52.1230     3.9150   -14.1160    50.3480    40.2600    43.6900    42.2600     2.1650 
  252.7500   243.3630   -52.1750     3.9180   -14.1720    52.4900    38.4130    41.4820    40.8970     2.1680 
  252.8750   243.4760   -52.2270     3.9210   -13.8600    54.7400    35.4090    38.1800    44.2710     2.1740 
  253.0000   243.5900   -52.2790     3.9240   -13.4330    54.3780    32.3220    34.9270    41.2500     2.1820 
  253.1250   243.7040   -52.3310     3.9260   -13.0470    52.4590    30.1110    32.3450    31.0400     2.1870 
  253.2500   243.8170   -52.3830     3.9290   -12.8260    51.9350    28.2080    30.2830    25.0300     2.1890 
  253.3750   243.9310   -52.4350     3.9320   -12.6820    53.1710    26.9520    28.8520    24.7760     2.1940 
  253.5000   244.0440   -52.4870     3.9350   -12.6330    54.1070    26.4310    28.1380    24.5440     2.2070 
  253.6250   244.1580   -52.5390     3.9380   -12.7400    54.5190    26.5730    28.2070    23.1840     2.2150 
  253.7500   244.2720   -52.5910     3.9410   -12.8230    53.8590    27.4370    29.1950    23.5260     2.2100 
  253.8750   244.3850   -52.6430     3.9440   -12.9230    52.0590    29.2780    31.1870    28.2300     2.1960 
  254.0000   244.4990   -52.6950     3.9470   -13.0160    50.4820    31.4480    33.2220    34.8620     2.1840 
  254.1250   244.6120   -52.7470     3.9500   -13.0210    49.3110    31.9840    33.5050    37.7610     2.1740 
  254.2500   244.7260   -52.7990     3.9530   -12.9480    48.3470    29.9710    31.0590    35.7930     2.1650 
  254.3750   244.8400   -52.8510     3.9550   -12.7600    48.5410    25.0550    25.8340    35.0100     2.1670 
  254.5000   244.9530   -52.9030     3.9580   -12.4940    49.9710    18.8240    19.7100    33.9070     2.1900 
  254.6250   245.0670   -52.9550     3.9610   -12.0790    51.5280    14.1600    14.7990    25.2490     2.2260 
  254.7500   245.1810   -53.0070     3.9640   -11.3990    52.5900    11.1270    11.7210    15.4880     2.2530 
  254.8750   245.2940   -53.0590     3.9660   -10.5420    54.3810     9.9610    10.4780    11.1840     2.2590 
  255.0000   245.4080   -53.1110     3.9690    -9.5980    57.0200     9.8540    10.4580     9.9530     2.2480 
  255.1250   245.5220   -53.1630     3.9710    -8.9710    58.5990    10.5840    11.3410    11.6410     2.2350 
  255.2500   245.6350   -53.2150     3.9740    -9.0350    59.3860    11.9980    12.7790    13.7790     2.2240 
  255.3750   245.7490   -53.2670     3.9770    -9.5220    58.1750    13.5880    14.3440    13.4780     2.2150 
  255.5000   245.8630   -53.3190     3.9800    -9.8250    55.0960    15.1440    15.6570    16.0000     2.2100 
  255.6250   245.9760   -53.3710     3.9820    -9.7590    52.5460    16.1460    16.4910    22.4550     2.2080 
  255.7500   246.0900   -53.4230     3.9850    -9.7570    52.5250    16.9270    17.1110    24.6450     2.2080 
  255.8750   246.2040   -53.4750     3.9880    -9.9410    54.0570    17.8790    18.0320    21.3360     2.2060 
  256.0000   246.3170   -53.5270     3.9910   -10.0190    55.1530    19.2940    19.4750    18.0750     2.1980 
  256.1250   246.4310   -53.5790     3.9930    -9.9800    55.6060    20.7700    20.8860    16.9860     2.1850 
  256.2500   246.5450   -53.6300     3.9960    -9.8020    55.8460    21.0890    21.2480    20.0250     2.1730 
  256.3750   246.6580   -53.6820     3.9990    -9.5100    54.2970    19.6090    19.8560    26.0350     2.1720 
  256.5000   246.7720   -53.7340     4.0020    -9.3300    51.4280    16.7140    17.0670    27.6470     2.1860 
  256.6250   246.8860   -53.7860     4.0050    -9.4270    50.0970    13.5050    13.8820    20.9650     2.2080 
  256.7500   247.0000   -53.8380     4.0080    -9.5370    52.6290    10.8830    11.2990    12.5570     2.2290 
  256.8750   247.1130   -53.8900     4.0110    -9.4680    57.3810     9.2980     9.7600     9.4520     2.2430 
  257.0000   247.2270   -53.9410     4.0140    -9.3950    62.5510     8.6330     9.1680     9.6560     2.2550 
  257.1250   247.3410   -53.9930     4.0170    -9.3690    67.3160     8.7540     9.4850    10.2730     2.2650 
  257.2500   247.4540   -54.0450     4.0200    -9.3610    71.5800     9.7840    10.5760    10.9610     2.2770 
  257.3750   247.5680   -54.0970     4.0220    -9.3660    74.2020    11.3190    12.2050    11.1130     2.2910 
  257.5000   247.6820   -54.1480     4.0250    -9.4010    74.7880    13.0800    13.9620    20.7820     2.2990 
  257.6250   247.7960   -54.2000     4.0280    -9.4860    72.1620    14.6150    15.4390    46.6430     2.2950 
  257.7500   247.9090   -54.2520     4.0310    -9.5170    68.1160    15.6340    16.4400    58.2790     2.2890 
  257.8750   248.0230   -54.3040     4.0340    -9.4640    66.4970    16.4560    17.2570    38.8100     2.2980 
  258.0000   248.1370   -54.3560     4.0360    -9.4220    68.7860    17.6610    18.4880    18.7940     2.3240 
  258.1250   248.2510   -54.4080     4.0390    -9.5270    71.5410    19.4990    20.4790    14.2760     2.3540 
  258.2500   248.3640   -54.4590     4.0420    -9.7100    72.8650    21.8250    22.8970    20.5920     2.3710 
  258.3750   248.4780   -54.5110     4.0440   -10.0070    72.9740    23.8060    24.9650    32.3880     2.3620 
  258.5000   248.5920   -54.5630     4.0470   -10.4460    73.6760    24.8550    26.1250    37.3650     2.3290 
  258.6250   248.7050   -54.6150     4.0490   -10.9360    73.7520    25.0090    26.3420    35.6920     2.2820 
  258.7500   248.8190   -54.6670     4.0520   -11.3710    72.4490    24.6880    26.2650    31.7030     2.2460 
  258.8750   248.9330   -54.7190     4.0550   -11.7330    70.8480    24.6850    26.4690    23.0790     2.2450 
  259.0000   249.0460   -54.7710     4.0570   -12.0090    70.3230    24.7240    26.7070    20.3800     2.2810 
  259.1250   249.1600   -54.8230     4.0600   -12.2180    68.2650    24.4070    26.4050    27.4860     2.3310 
  259.2500   249.2740   -54.8750     4.0630   -12.4230    63.3970    23.4980    25.3440    31.3250     2.3540 
  259.3750   249.3870   -54.9270     4.0650   -12.6210    60.9620    22.2220    23.9460    27.5240     2.3410 
  259.5000   249.5010   -54.9790     4.0680   -12.7920    64.3520    21.6770    23.3610    21.1200     2.3320 
  259.6250   249.6150   -55.0310     4.0710   -13.0180    67.4400    22.8390    24.9530    15.4650     2.3630 
  259.7500   249.7280   -55.0830     4.0740   -13.3010    66.4750    26.5890    29.4690    17.8210     2.4130 
