~V
VERS. 2.00: Ver 2.00
~W
STRT.M 20.0000:
STOP.M 277.0000:
STEP.M 0.1250:
NULL. -999.2500:
UWI. FD11024:
~C
DEPT.M :
TVD. :
DX. :
DY. :
DEN.GM/CC :
GR.API :
RML.OHMM :
RI. :
RXO.OHMM :
CALI.CM :
SP.MV :
~A
# ...
   53.0000    52.9950     0.3250     0.1920     2.2380    71.0440     8.4640     5.4480     7.3940    24.3350   -37.4960 
   53.1250    53.1200     0.3290     0.1940     2.2580    69.3610     8.5960     5.5450     7.7690    24.4100   -36.9940 
   53.2500    53.2450     0.3320     0.1970     2.2540    68.7150     8.7050     5.6240     7.9040    24.4590   -36.4960 
   53.3750    53.3700     0.3360     0.2030     2.2290    66.8490     8.7820     5.6650     7.7520    24.5110   -36.0070 
   53.5000    53.4940     0.3400     0.2090     2.1980    60.6550     8.8370     5.6630     7.5190    24.5530   -35.5330 
   53.6250    53.6190     0.3450     0.2140     2.1750    54.6900     8.8850     5.6350     7.2900    24.5420   -35.1150 
   53.7500    53.7440     0.3490     0.2200     2.1620    55.3990     8.9170     5.6090     7.1280    24.5570   -34.6850 
   53.8750    53.8690     0.3530     0.2260     2.1580    61.8810     8.9090     5.5940     7.0410    24.5990   -34.2600 
   54.0000    53.9930     0.3570     0.2320     2.1590    68.2560     8.8430     5.5840     7.0230    24.6540   -33.8630 
   54.1250    54.1180     0.3620     0.2380     2.1630    68.8220     8.7060     5.5580     6.9140    24.7200   -33.4390 
   54.2500    54.2430     0.3660     0.2440     2.1650    66.4370     8.5190     5.5040     6.6500    24.8040   -33.0340 
   54.3750    54.3680     0.3700     0.2500     2.1650    64.2060     8.3090     5.4220     6.2860    24.9280   -32.6650 
   54.5000    54.4930     0.3740     0.2560     2.1620    64.4550     8.1100     5.3260     5.9640    25.0000   -32.3270 
   54.6250    54.6170     0.3790     0.2620     2.1590    67.2280     7.9760     5.2590     5.6830    24.9980   -31.9910 
   54.7500    54.7420     0.3830     0.2680     2.1610    68.8520     7.9330     5.2550     5.6780    24.9410   -31.7080 
   54.8750    54.8670     0.3870     0.2740     2.1680    65.9130     7.9990     5.3280     5.9280    24.7720   -31.4750 
   55.0000    54.9920     0.3910     0.2800     2.1770    59.9620     8.1590     5.4680     6.2900    24.5200   -31.2670 
   55.1250    55.1160     0.3950     0.2860     2.1810    58.5340     8.3500     5.6320     6.6240    24.2960   -31.1000 
   55.2500    55.2410     0.4000     0.2920     2.1770    61.7430     8.4920     5.7510     6.7940    24.1440   -30.8680 
   55.3750    55.3660     0.4040     0.2980     2.1680    63.3460     8.5450     5.7860     6.8680    24.0320   -30.5820 
   55.5000    55.4910     0.4080     0.3040     2.1590    61.4330     8.5030     5.7310     6.9500    23.9970   -30.2130 
   55.6250    55.6160     0.4120     0.3090     2.1560    60.5710     8.3680     5.5950     6.9400    23.9700   -29.7360 
   55.7500    55.7400     0.4170     0.3150     2.1620    62.5110     8.1640     5.4130     6.9530    23.9510   -29.2190 
   55.8750    55.8650     0.4210     0.3210     2.1730    64.1230     7.9020     5.2050     7.0890    23.9610   -28.6660 
   56.0000    55.9900     0.4250     0.3270     2.1840    65.9860     7.6050     4.9960     7.1400    24.0040   -28.1340 
   56.1250    56.1150     0.4290     0.3330     2.1930    71.4350     7.3330     4.8210     6.7540    24.0670   -27.7840 
   56.2500    56.2390     0.4340     0.3390     2.1990    78.7400     7.1700     4.7120     6.2090    24.0830   -27.6990 
   56.3750    56.3640     0.4380     0.3450     2.2000    82.1790     7.1770     4.6950     6.0890    24.0860   -27.8470 
   56.5000    56.4890     0.4420     0.3510     2.1950    76.3440     7.3630     4.7730     6.6510    24.0880   -28.1910 
   56.6250    56.6140     0.4460     0.3570     2.1780    64.4560     7.6650     4.9370     7.2210    24.1100   -28.6740 
   56.7500    56.7390     0.4510     0.3630     2.1510    56.2860     7.9450     5.1410     7.5250    24.2060   -29.1780 
   56.8750    56.8630     0.4550     0.3690     2.1230    54.8120     8.1270     5.3520     7.4530    24.3750   -29.6180 
   57.0000    56.9880     0.4590     0.3750     2.1030    56.3170     8.2100     5.5500     7.2440    24.5760   -29.9080 
   57.1250    57.1130     0.4630     0.3810     2.1010    55.6330     8.2840     5.7400     7.0810    24.8140   -29.8590 
   57.2500    57.2380     0.4670     0.3870     2.1180    52.4780     8.4300     5.9400     6.8890    25.0050   -29.3970 
   57.3750    57.3630     0.4720     0.3930     2.1430    49.2260     8.6210     6.1370     6.7480    25.2270   -28.5280 
   57.5000    57.4870     0.4760     0.3990     2.1680    48.7100     8.7240     6.2730     6.7590    25.3540   -27.2800 
   57.6250    57.6120     0.4800     0.4040     2.1840    52.7390     8.4930     6.2220     6.7860    25.2790   -25.6520 
   57.7500    57.7370     0.4840     0.4100     2.1940    57.9530     7.8970     5.9400     6.7870    25.1350   -23.7900 
   57.8750    57.8620     0.4890     0.4160     2.2040    65.1620     7.0540     5.4510     6.5160    25.0630   -21.7900 
   58.0000    57.9860     0.4930     0.4220     2.2180    77.3570     6.1940     4.8630     5.9470    25.3510   -19.8240 
   58.1250    58.1110     0.4970     0.4280     2.2370    89.2340     5.5720     4.3320     4.9130    25.6690   -18.0600 
   58.2500    58.2360     0.5010     0.4340     2.2560    94.0710     5.2470     3.9470     4.0680    25.8000   -16.5380 
   58.3750    58.3610     0.5060     0.4400     2.2730    93.2910     5.1910     3.7290     3.7720    25.9040   -15.3450 
   58.5000    58.4860     0.5100     0.4460     2.2860    92.4970     5.3180     3.6600     3.9100    26.0580   -14.5220 
   58.6250    58.6100     0.5140     0.4520     2.2950    94.5180     5.5280     3.7120     4.1110    26.1960   -14.1650 
   58.7500    58.7350     0.5180     0.4580     2.2990    93.6710     5.7230     3.8210     4.1960    26.3010   -14.2120 
   58.8750    58.8600     0.5230     0.4640     2.2970    87.9750     5.8710     3.9580     4.3220    26.1600   -14.6110 
   59.0000    58.9850     0.5270     0.4700     2.2850    80.4040     6.0160     4.1200     4.5290    25.7300   -15.2440 
   59.1250    59.1090     0.5310     0.4760     2.2670    77.6970     6.3580     4.3780     5.0000    24.9550   -16.0140 
   59.2500    59.2340     0.5350     0.4820     2.2520    78.8210     7.1030     4.8300     5.7750    24.4490   -16.8230 
   59.3750    59.3590     0.5390     0.4880     2.2550    78.8390     8.4030     5.5840     6.5560    24.1000   -17.5680 
   59.5000    59.4840     0.5440     0.4940     2.2810    76.5300    10.2790     6.7150     7.3400    24.0150   -18.2430 
   59.6250    59.6090     0.5480     0.4990     2.3230    73.9430    12.5100     8.2050     9.0500    24.3000   -18.8570 
   59.7500    59.7330     0.5520     0.5050     2.3540    69.6360    14.3650     9.6410    13.1080    24.6110   -19.4100 
   59.8750    59.8580     0.5560     0.5110     2.3530    63.5430    15.0590    10.4680    16.8730    24.6110   -19.9400 
   60.0000    59.9830     0.5610     0.5170     2.3160    59.6780    14.2060    10.2860    14.3410    24.3160   -20.3820 
   60.1250    60.1080     0.5650     0.5230     2.2590    61.3620    12.2260     9.1960     9.4660    23.9150   -20.6780 
   60.2500    60.2330     0.5690     0.5290     2.2070    63.8880    10.3000     7.9590     7.6690    23.6830   -20.8860 
   60.3750    60.3570     0.5730     0.5350     2.1670    64.4010     8.9930     6.9860     7.1490    23.6990   -21.0530 
   60.5000    60.4820     0.5780     0.5410     2.1380    66.1690     8.4530     6.4370     7.0290    23.8250   -21.1160 
   60.6250    60.6070     0.5820     0.5470     2.1200    68.5760     8.6820     6.3950     6.8330    23.8720   -20.9890 
   60.7500    60.7320     0.5860     0.5530     2.1140    67.2530     9.3820     6.7190     6.7290    23.8860   -20.6380 
   60.8750    60.8560     0.5900     0.5590     2.1280    63.3090    10.3320     7.2880     6.9110    23.7830   -19.9860 
   61.0000    60.9810     0.5950     0.5650     2.1680    62.1070    11.2180     7.8990     7.6030    23.6450   -19.1110 
   61.1250    61.1060     0.5990     0.5710     2.2260    63.2460    11.5250     8.2080     8.9840    23.6750   -18.0400 
