~V
VERS. 2.00: Ver 2.00
~W
STRT.M 20.0000:
STOP.M 286.0000:
STEP.M 0.1250:
NULL. -999.2500:
UWI. FD11156:
~C
DEPT.M :
TVD. :
DX. :
DY. :
DEN.GM/CC :
GR.API :
RML.OHMM :
RI. :
RXO.OHMM :
CALI.CM :
SP.MV :
~A
# ...
   53.0000    53.0000     0.0000     0.0000     2.1220    50.6610    11.9240     7.0520    11.2490    28.7530   -34.5850 
   53.1250    53.1250     0.0000     0.0000     2.1130    48.8290    11.3680     6.9450    11.0520    28.9230   -35.3960 
   53.2500    53.2500     0.0000     0.0000     2.1150    49.8410    10.7870     6.7790    11.5770    29.0050   -35.8940 
   53.3750    53.3750     0.0000     0.0000     2.1270    52.7220    10.2980     6.5460    11.7140    29.2780   -36.1160 
   53.5000    53.5000     0.0000     0.0000     2.1490    54.9270    10.0360     6.2660    10.8720    29.4080   -36.1400 
   53.6250    53.6250     0.0000     0.0000     2.1750    56.6000    10.1360     6.0080    10.0300    28.7090   -36.0680 
   53.7500    53.7500     0.0000     0.0000     2.1990    57.7010    10.5230     5.8460     9.9940    27.6210   -36.0910 
   53.8750    53.8750     0.0000     0.0000     2.2140    57.7310    11.1290     5.8310    10.4320    26.8690   -36.2510 
   54.0000    54.0000     0.0000     0.0000     2.2230    57.0840    11.8160     5.9760    10.9820    27.1760   -36.5120 
   54.1250    54.1250     0.0000     0.0000     2.2340    56.2120    12.3640     6.2510    11.2630    27.5590   -36.9500 
   54.2500    54.2500     0.0000     0.0000     2.2540    56.8300    12.6200     6.5510    11.9710    28.0650   -37.5520 
   54.3750    54.3750     0.0000     0.0000     2.2810    58.1780    12.5090     6.8020    12.7960    28.6520   -38.2320 
   54.5000    54.5000     0.0000     0.0000     2.3030    57.6210    12.1220     6.9760    13.1980    28.6510   -38.9580 
   54.6250    54.6250     0.0000     0.0000     2.3030    55.6030    11.7200     7.1000    13.0610    26.5680   -39.6540 
   54.7500    54.7500     0.0000     0.0000     2.2830    55.7000    11.6050     7.2340    13.2190    26.0130   -40.2060 
   54.8750    54.8750     0.0000     0.0000     2.2490    56.9680    12.0220     7.4100    13.3940    25.9930   -40.6160 
   55.0000    55.0000     0.0000     0.0000     2.2160    55.9210    13.0150     7.6220    13.3410    26.2060   -40.8680 
   55.1250    55.1250     0.0000     0.0000     2.1990    54.5140    14.2680     7.8110    13.2920    26.2350   -40.9010 
   55.2500    55.2500     0.0000     0.0000     2.1980    55.2790    15.1280     7.9100    13.3500    26.1840   -40.7790 
   55.3750    55.3750     0.0000     0.0000     2.2080    56.0040    15.2040     7.8840    13.5120    26.0140   -40.5700 
   55.5000    55.5000     0.0000     0.0000     2.2160    54.9420    14.5570     7.7510    13.7500    25.7700   -40.2870 
   55.6250    55.6250     0.0000     0.0000     2.2150    54.3210    13.6060     7.5630    13.8350    25.7280   -39.8900 
   55.7500    55.7500     0.0000     0.0000     2.2060    53.8590    12.8470     7.3890    13.6170    25.7050   -39.4350 
   55.8750    55.8750     0.0000     0.0000     2.1970    52.9810    12.4590     7.2620    13.4370    25.6630   -38.8840 
   56.0000    56.0000     0.0000     0.0000     2.1910    52.4280    12.4020     7.1960    13.5190    25.5200   -38.2110 
   56.1250    56.1250     0.0000     0.0000     2.1900    54.2730    12.5710     7.2270    13.8150    25.1530   -37.3960 
   56.2500    56.2500     0.0000     0.0000     2.1880    57.1260    12.8560     7.3520    13.9420    24.9700   -36.3860 
   56.3750    56.3750     0.0000     0.0000     2.1810    59.0980    13.1740     7.5380    13.8050    24.9380   -35.1740 
   56.5000    56.5000     0.0000     0.0000     2.1690    58.9540    13.3610     7.6930    13.4930    24.9360   -33.7970 
   56.6250    56.6250     0.0000     0.0000     2.1530    57.7890    13.1030     7.6220    13.1780    24.9680   -32.2000 
   56.7500    56.7500     0.0000     0.0000     2.1410    58.1860    12.2940     7.2470    12.0990    25.1490   -30.3490 
   56.8750    56.8750     0.0000     0.0000     2.1380    60.7560    10.9990     6.5980     9.7100    25.6870   -28.3100 
   57.0000    57.0000     0.0000     0.0000     2.1530    65.8850     9.5210     5.8180     7.0080    26.6150   -26.1790 
   57.1250    57.1250     0.0000     0.0000     2.1910    72.3290     8.3150     5.1010     5.5850    26.9200   -24.0020 
   57.2500    57.2500     0.0000     0.0000     2.2440    76.6030     7.5460     4.5480     5.1580    26.7930   -21.9860 
   57.3750    57.3750     0.0000     0.0000     2.2980    80.2270     7.1370     4.1800     5.2220    26.3410   -20.2220 
   57.5000    57.5000     0.0000     0.0000     2.3410    85.6400     6.9700     3.9830     5.3940    26.0260   -18.7080 
   57.6250    57.6250     0.0000     0.0000     2.3620    89.0550     7.0780     3.9790     5.4220    26.2810   -17.5920 
   57.7500    57.7500     0.0000     0.0000     2.3650    85.2750     7.4910     4.1600     5.5420    26.0350   -16.9160 
   57.8750    57.8750     0.0000     0.0000     2.3600    77.9740     8.2670     4.5520     5.8640    25.7300   -16.6290 
   58.0000    58.0000     0.0000     0.0000     2.3580    73.9180     9.3990     5.1540     6.5890    25.1500   -16.6620 
   58.1250    58.1250     0.0000     0.0000     2.3690    72.4620    10.7320     5.9040     7.6910    24.4010   -17.0010 
   58.2500    58.2500     0.0000     0.0000     2.3910    69.3500    11.8570     6.6010     9.2570    24.1220   -17.4400 
   58.3750    58.3750     0.0000     0.0000     2.4150    67.4000    12.3830     7.0340    10.0440    24.4740   -17.8660 
   58.5000    58.5000     0.0000     0.0000     2.4260    69.0890    12.1110     7.0640     9.6310    24.5970   -18.2910 
   58.6250    58.6250     0.0000     0.0000     2.4100    73.2620    11.2280     6.7060     8.5620    24.3630   -18.7700 
   58.7500    58.7500     0.0000     0.0000     2.3750    75.1610    10.3930     6.2500     8.4730    24.1010   -19.2920 
   58.8750    58.8750     0.0000     0.0000     2.3310    75.1940     9.9810     5.8940     8.3340    23.5160   -19.8960 
   59.0000    59.0000     0.0000     0.0000     2.2910    76.8510    10.0810     5.7470     8.2030    23.0330   -20.5550 
   59.1250    59.1250     0.0000     0.0000     2.2580    78.5950    10.6110     5.8760     8.5570    22.9500   -21.2590 
   59.2500    59.2500     0.0000     0.0000     2.2310    77.0450    11.3000     6.1970     9.6250    22.9760   -22.0160 
   59.3750    59.3750     0.0000     0.0000     2.2080    74.5460    12.0000     6.6340    10.4890    22.9830   -22.7910 
   59.5000    59.5000     0.0000     0.0000     2.1910    73.3570    12.6120     7.1000    10.9160    22.9840   -23.4470 
   59.6250    59.6250     0.0000     0.0000     2.1840    73.0040    13.0130     7.4870    10.9370    22.9840   -23.8080 
   59.7500    59.7500     0.0000     0.0000     2.1880    70.5160    13.0980     7.6980    11.2370    22.9860   -23.8640 
   59.8750    59.8750     0.0000     0.0000     2.2000    68.3200    12.7700     7.6600    11.5530    23.0010   -23.5130 
   60.0000    60.0000     0.0000     0.0000     2.2190    68.1090    12.0560     7.3540    11.5170    23.1010   -22.8110 
   60.1250    60.1250     0.0000     0.0000     2.2460    70.7490    11.1100     6.8540    10.1570    23.3760   -21.7870 
   60.2500    60.2500     0.0000     0.0000     2.2780    76.4650    10.2400     6.3660     8.2520    23.8600   -20.5010 
   60.3750    60.3750     0.0000     0.0000     2.3150    82.7260     9.6920     6.0190     6.8780    24.2400   -19.1000 
   60.5000    60.5000     0.0000     0.0000     2.3500    86.4880     9.5840     5.8640     6.4350    24.4750   -17.7690 
   60.6250    60.6250     0.0000     0.0000     2.3720    84.9450     9.8650     5.8870     6.5690    24.5600   -16.6330 
   60.7500    60.7500     0.0000     0.0000     2.3770    82.6030    10.1840     5.9740     7.1140    24.2600   -15.6500 
   60.8750    60.8750     0.0000     0.0000     2.3650    83.8790    10.2540     6.0330     7.3970    23.7850   -14.8960 
   61.0000    61.0000     0.0000     0.0000     2.3470    87.2770     9.9250     6.0010     7.2040    23.5830   -14.3440 
   61.1250    61.1250     0.0000     0.0000     2.3400    89.0280     9.2240     5.8470     6.5420    23.9320   -13.9470 
