~V
VERS. 2.00: Ver 2.00
~W
STRT.M 20.0000:
STOP.M 285.0000:
STEP.M 0.1250:
NULL. -999.2500:
UWI. FD11157:
~C
DEPT.M :
TVD. :
DX. :
DY. :
GR.API :
RML.OHMM :
RI. :
RXO.OHMM :
CALI.CM :
SP.MV :
DEN.GM/CC :
~A
# ...
  193.2500   190.9200    -9.8110   -20.5210    50.5570   262.5200   238.6550    21.0680    19.7830   -37.8240     2.1520 
  193.3750   191.0380    -9.8270   -20.5600    51.6560   254.1510   231.0460    20.8240    19.5940   -37.3480     2.1790 
  193.5000   191.1560    -9.8430   -20.5980    49.1610   253.2780   230.2530    20.9550    19.5770   -36.8720     2.1850 
  193.6250   191.2740    -9.8600   -20.6360    46.5690   256.5250   233.2050    21.7170    19.6110   -36.3900     2.1690 
  193.7500   191.3910    -9.8760   -20.6750    46.5560   255.4020   232.1830    23.1510    19.6500   -35.9300     2.1450 
  193.8750   191.5090    -9.8920   -20.7130    46.6590   244.6410   222.4010    24.7750    19.6570   -35.5280     2.1270 
  194.0000   191.6270    -9.9090   -20.7510    45.5270   225.1220   204.6560    26.0960    19.6570   -35.1090     2.1250 
  194.1250   191.7450    -9.9250   -20.7900    44.5130   203.5240   185.0220    26.1160    19.6530   -34.7000     2.1470 
  194.2500   191.8630    -9.9410   -20.8280    45.1760   186.2930   169.3570    24.3970    19.6320   -34.3770     2.1780 
  194.3750   191.9810    -9.9580   -20.8660    47.4480   174.3140   158.4670    22.6650    19.6450   -34.0170     2.2000 
  194.5000   192.0990    -9.9740   -20.9050    50.2670   164.9020   149.9110    22.4480    19.6710   -33.6510     2.2010 
  194.6250   192.2160    -9.9900   -20.9430    53.0390   153.9530   139.9570    23.1460    19.7070   -33.3640     2.1840 
  194.7500   192.3340   -10.0070   -20.9810    53.7620   140.4800   127.7090    23.9750    19.6850   -33.0590     2.1690 
  194.8750   192.4520   -10.0230   -21.0200    52.5110   126.3660   114.8780    24.6270    19.7160   -32.7680     2.1680 
  195.0000   192.5700   -10.0390   -21.0580    50.8230   114.5370   104.1240    24.6660    19.6910   -32.5350     2.1830 
  195.1250   192.6880   -10.0560   -21.0960    50.5500   108.0410    98.2190    24.6230    19.6130   -32.3290     2.2060 
  195.2500   192.8060   -10.0720   -21.1350    51.4310   106.0910    96.4460    24.8950    19.4510   -32.1450     2.2230 
  195.3750   192.9230   -10.0880   -21.1730    51.9020   106.4750    96.7960    25.1890    19.5170   -32.0010     2.2330 
  195.5000   193.0410   -10.1050   -21.2110    51.2150   105.9840    96.3490    24.6860    19.5610   -31.8760     2.2370 
  195.6250   193.1590   -10.1210   -21.2500    49.2730   101.7070    92.4610    24.5400    19.5730   -31.7700     2.2370 
  195.7500   193.2770   -10.1370   -21.2880    48.7760    95.0580    86.4170    25.0440    19.5830   -31.6660     2.2390 
  195.8750   193.3950   -10.1540   -21.3260    51.2240    89.0210    80.9280    25.8470    19.5250   -31.5670     2.2420 
  196.0000   193.5130   -10.1700   -21.3650    53.7790    86.4330    78.5750    25.7860    19.4860   -31.4930     2.2470 
  196.1250   193.6310   -10.1870   -21.4030    52.6020    88.5070    80.4610    25.3290    19.4540   -31.4040     2.2510 
  196.2500   193.7480   -10.2030   -21.4410    48.6730    91.5050    83.1870    26.1720    19.4050   -31.3160     2.2510 
  196.3750   193.8660   -10.2190   -21.4800    45.8580    90.7700    82.5180    27.8630    19.3970   -31.2600     2.2500 
  196.5000   193.9840   -10.2360   -21.5180    45.8970    83.2000    75.6360    28.8250    19.3960   -31.1880     2.2550 
  196.6250   194.1020   -10.2520   -21.5560    48.1250    70.0060    63.6420    26.3060    19.3960   -31.1410     2.2740 
  196.7500   194.2200   -10.2680   -21.5950    51.9510    57.2660    52.0600    21.0940    19.3960   -31.1610     2.3010 
  196.8750   194.3380   -10.2850   -21.6330    56.0530    48.1650    43.7860    17.0380    19.3960   -31.1950     2.3220 
  197.0000   194.4550   -10.3010   -21.6710    58.4200    43.3790    39.4350    17.2690    19.3960   -31.2810     2.3250 
  197.1250   194.5730   -10.3170   -21.7100    57.6930    42.4360    38.5780    21.1600    19.3950   -31.4490     2.3050 
  197.2500   194.6910   -10.3340   -21.7480    56.2050    43.2250    39.2960    23.2580    19.3910   -31.6230     2.2790 
  197.3750   194.8090   -10.3500   -21.7860    56.3560    44.2520    40.2290    22.7490    19.3930   -31.8330     2.2590 
  197.5000   194.9270   -10.3660   -21.8250    57.2550    44.2260    40.2060    21.5870    19.3950   -32.0990     2.2500 
  197.6250   195.0450   -10.3830   -21.8630    59.5340    42.5540    38.6850    20.4500    19.3960   -32.3390     2.2500 
  197.7500   195.1630   -10.3990   -21.9010    61.7290    40.2390    36.5810    19.8040    19.3960   -32.5690     2.2530 
  197.8750   195.2800   -10.4150   -21.9400    61.7040    38.1670    34.6970    19.2730    19.3960   -32.7730     2.2540 
  198.0000   195.3980   -10.4320   -21.9780    60.2670    36.8710    33.5190    19.1520    19.3960   -32.9060     2.2540 
  198.1250   195.5160   -10.4480   -22.0160    59.2810    36.6360    33.3060    20.0880    19.3960   -33.0160     2.2550 
  198.2500   195.6340   -10.4650   -22.0550    60.0240    37.1210    33.7470    21.0640    19.3960   -33.0950     2.2580 
  198.3750   195.7510   -10.4810   -22.0950    61.9470    37.9870    34.5340    21.6730    19.3960   -33.1330     2.2640 
  198.5000   195.8680   -10.4980   -22.1360    62.5890    38.8830    35.3480    22.1930    19.4010   -33.1500     2.2710 
  198.6250   195.9850   -10.5140   -22.1760    59.8790    39.6330    36.0300    22.6170    19.4340   -33.1290     2.2750 
  198.7500   196.1030   -10.5310   -22.2160    56.4880    40.5920    36.9010    22.2030    19.5200   -33.0840     2.2720 
  198.8750   196.2200   -10.5480   -22.2560    56.2000    42.4320    38.5740    22.1530    19.5510   -33.0290     2.2590 
  199.0000   196.3370   -10.5640   -22.2960    57.7170    45.8860    41.7140    23.2580    19.5620   -32.9680     2.2400 
  199.1250   196.4540   -10.5810   -22.3360    57.4570    52.0700    47.3370    25.2050    19.5760   -32.8750     2.2270 
  199.2500   196.5720   -10.5970   -22.3760    55.9530    61.1320    55.5750    27.5430    19.5700   -32.7700     2.2240 
  199.3750   196.6890   -10.6140   -22.4160    55.3670    73.0530    66.4120    29.9540    19.6150   -32.6050     2.2290 
  199.5000   196.8060   -10.6310   -22.4560    55.0640    84.0790    79.0410    31.4220    19.6500   -32.4130     2.2310 
  199.6250   196.9230   -10.6470   -22.4960    52.6510    95.5750    91.0990    31.5240    19.6640   -32.2260     2.2240 
  199.7500   197.0400   -10.6640   -22.5360    49.0310   102.5250    99.4550    30.9790    19.6980   -31.9870     2.2110 
  199.8750   197.1580   -10.6800   -22.5760    47.3310   103.1460   101.7800    30.5820    19.7210   -31.7430     2.1970 
  200.0000   197.2750   -10.6970   -22.6160    49.2150    97.7960    97.7370    30.1500    19.6700   -31.4740     2.1910 
  200.1250   197.3920   -10.7140   -22.6560    51.2180    88.9950    89.1940    28.9780    19.6630   -31.1250     2.1970 
  200.2500   197.5090   -10.7300   -22.6960    52.7220    80.4660    80.1060    27.0460    19.6810   -30.7730     2.2090 
  200.3750   197.6270   -10.7470   -22.7370    55.4180    73.7010    72.3160    24.5730    19.7820   -30.4390     2.2210 
  200.5000   197.7440   -10.7630   -22.7770    57.5120    69.0060    66.5220    22.2150    19.9650   -30.0830     2.2270 
  200.6250   197.8610   -10.7800   -22.8170    56.1020    65.9450    62.8990    20.7390    20.0340   -29.7170     2.2260 
  200.7500   197.9780   -10.7970   -22.8570    52.9050    63.5990    60.7200    19.8420    20.1140   -29.3150     2.2260 
  200.8750   198.0960   -10.8130   -22.8970    53.7870    62.0760    59.8730    20.0080    20.2120   -28.8890     2.2310 
  201.0000   198.2130   -10.8300   -22.9370    58.4890    62.2530    60.7360    20.5000    20.3120   -28.4540     2.2400 
  201.1250   198.3300   -10.8460   -22.9770    59.3510    66.2730    64.9060    21.4460    20.5790   -27.9970     2.2310 
  201.2500   198.4470   -10.8630   -23.0170    54.0150    75.1390    73.6010    23.7570    20.9860   -27.5000     2.1930 
  201.3750   198.5650   -10.8790   -23.0570    46.9070    90.0090    88.4990    27.5360    21.4550   -26.9610     2.1310 
