~V
VERS. 2.00: Ver 2.00
~W
STRT.M 10.0000:
STOP.M 249.0000:
STEP.M 0.1250:
NULL. -999.2500:
UWI. FD11114:
~C
DEPT.M :
TVD. :
DX. :
DY. :
GR.API :
RML.OHMM :
RI. :
RXO.OHMM :
CALI.CM :
SP.MV :
DEN.GM/CC :
~A
# ...
  224.5000   219.6020    30.9590    -4.7190    71.5050     9.0600     7.3650     5.9310    24.5740   -17.6630     2.4000 
  224.6250   219.7170    31.0060    -4.7260    72.3700     9.2340     7.5110     6.2050    24.5750   -17.6190     2.3880 
  224.7500   219.8330    31.0530    -4.7320    73.6000     9.4450     7.6760     6.4690    24.5760   -17.5760     2.3780 
  224.8750   219.9490    31.1000    -4.7390    75.6170     9.6590     7.8430     6.7680    24.5800   -17.5620     2.3640 
  225.0000   220.0640    31.1470    -4.7450    77.6550     9.8510     7.9970     6.7040    24.5900   -17.5750     2.3520 
  225.1250   220.1800    31.1940    -4.7520    80.0020    10.0040     8.1220     6.5390    24.5800   -17.6090     2.3510 
  225.2500   220.2960    31.2410    -4.7580    80.9440    10.1060     8.2020     6.3480    24.4690   -17.6690     2.3700 
  225.3750   220.4110    31.2870    -4.7650    78.5670    10.1720     8.2450     6.2990    24.2620   -17.7490     2.3970 
  225.5000   220.5270    31.3340    -4.7710    74.2590    10.2160     8.2570     6.3730    24.0200   -17.8470     2.4200 
  225.6250   220.6430    31.3810    -4.7780    72.1360    10.2460     8.2470     6.6080    23.8260   -17.9550     2.4320 
  225.7500   220.7580    31.4280    -4.7850    73.1150    10.2740     8.2260     6.9120    23.7310   -18.0610     2.4360 
  225.8750   220.8740    31.4750    -4.7910    74.2800    10.3250     8.2210     7.1990    23.7000   -18.1660     2.4420 
  226.0000   220.9900    31.5220    -4.7980    75.1220    10.4220     8.2590     7.2870    23.7000   -18.2820     2.4520 
  226.1250   221.1050    31.5690    -4.8040    75.1970    10.5820     8.3570     7.2040    23.6980   -18.3940     2.4640 
  226.2500   221.2210    31.6160    -4.8110    74.0270    10.8020     8.5220     7.1560    23.6980   -18.4670     2.4720 
  226.3750   221.3370    31.6630    -4.8170    73.6080    11.0280     8.7130     7.1300    23.7120   -18.4900     2.4750 
  226.5000   221.4520    31.7100    -4.8240    75.1450    11.2070     8.8880     7.2050    23.7430   -18.4860     2.4730 
  226.6250   221.5680    31.7570    -4.8300    77.8180    11.3040     9.0170     7.4080    23.7760   -18.4820     2.4690 
  226.7500   221.6840    31.8040    -4.8370    77.6630    11.3190     9.0880     7.6670    23.7930   -18.5040     2.4640 
  226.8750   221.7990    31.8510    -4.8440    75.3610    11.3160     9.1320     7.8240    23.7950   -18.5360     2.4610 
  227.0000   221.9150    31.8970    -4.8500    72.3420    11.3430     9.1770     8.1050    23.7950   -18.5540     2.4620 
  227.1250   222.0310    31.9440    -4.8570    69.7930    11.4230     9.2430     8.5200    23.7890   -18.5610     2.4640 
  227.2500   222.1460    31.9910    -4.8630    68.4980    11.5520     9.3500     8.5380    23.7720   -18.5630     2.4660 
  227.3750   222.2620    32.0380    -4.8700    69.0520    11.6950     9.4880     8.6280    23.7530   -18.5650     2.4670 
  227.5000   222.3780    32.0850    -4.8760    71.4790    11.8290     9.6450     8.9780    23.7430   -18.5580     2.4700 
  227.6250   222.4930    32.1320    -4.8830    72.6460    11.9340     9.7960     9.8880    23.7410   -18.5370     2.4760 
  227.7500   222.6090    32.1790    -4.8890    70.7760    11.9750     9.9010    10.7710    23.7400   -18.5090     2.4810 
  227.8750   222.7250    32.2260    -4.8960    68.0480    11.9420     9.9380    10.4770    23.7370   -18.4720     2.4770 
  228.0000   222.8400    32.2730    -4.9030    66.6580    11.8310     9.8980     9.4230    23.7360   -18.4150     2.4620 
  228.1250   222.9560    32.3200    -4.9090    67.2970    11.6650     9.7960     8.6750    23.7330   -18.3130     2.4400 
  228.2500   223.0720    32.3670    -4.9160    68.9080    11.4790     9.6650     8.1760    23.7420   -18.1610     2.4240 
  228.3750   223.1870    32.4140    -4.9220    71.4460    11.3120     9.5470     7.9370    23.7910   -17.9810     2.4200 
  228.5000   223.3030    32.4620    -4.9290    73.2020    11.1820     9.4630     7.8440    23.8910   -17.7920     2.4320 
  228.6250   223.4180    32.5090    -4.9350    73.3930    11.0990     9.4180     7.7870    24.0090   -17.5930     2.4570 
  228.7500   223.5340    32.5560    -4.9420    70.2980    11.0610     9.4040     7.8430    24.0990   -17.3940     2.4810 
  228.8750   223.6490    32.6030    -4.9480    67.0730    11.0490     9.4010     7.7420    24.1870   -17.2090     2.4910 
  229.0000   223.7650    32.6510    -4.9550    67.9100    11.0520     9.4030     7.8560    24.3090   -17.0370     2.4780 
  229.1250   223.8800    32.6980    -4.9610    71.9600    11.0630     9.4090     8.1890    24.4370   -16.8830     2.4490 
  229.2500   223.9960    32.7450    -4.9680    73.1820    11.0810     9.4240     8.6310    24.4920   -16.7460     2.4190 
  229.3750   224.1110    32.7920    -4.9740    72.3450    11.0990     9.4420     8.7770    24.4520   -16.6130     2.4070 
  229.5000   224.2270    32.8400    -4.9810    72.6400    11.1030     9.4520     8.3520    24.3540   -16.4890     2.4210 
  229.6250   224.3420    32.8870    -4.9870    73.1360    11.0710     9.4400     7.5970    24.2590   -16.3710     2.4570 
  229.7500   224.4580    32.9340    -4.9940    71.5760    10.9940     9.3960     7.4720    24.2200   -16.2760     2.4960 
  229.8750   224.5740    32.9820    -5.0000    70.9690    10.9030     9.3400     8.1630    24.2360   -16.1960     2.5160 
  230.0000   224.6890    33.0290    -5.0070    70.6770    10.8340     9.2930     9.2790    24.3140   -16.1390     2.5100 
  230.1250   224.8050    33.0760    -5.0130    68.1530    10.8230     9.2820     9.4920    24.4490   -16.1020     2.4850 
  230.2500   224.9200    33.1230    -5.0200    64.9540    10.9030     9.3400     8.6230    24.5820   -16.1020     2.4530 
  230.3750   225.0360    33.1710    -5.0260    65.5540    11.0520     9.4600     8.2840    24.6540   -16.1510     2.4340 
  230.5000   225.1510    33.2180    -5.0330    68.6210    11.2320     9.6200     8.5180    24.6750   -16.2490     2.4380 
  230.6250   225.2670    33.2650    -5.0390    70.0650    11.3870     9.7760     8.5320    24.6940   -16.3800     2.4660 
  230.7500   225.3820    33.3120    -5.0460    68.7580    11.4390     9.8600     8.6150    24.7770   -16.5160     2.5020 
  230.8750   225.4980    33.3600    -5.0520    66.7130    11.3600     9.8390     8.7380    24.9260   -16.6440     2.5170 
  231.0000   225.6130    33.4070    -5.0590    64.4020    11.1590     9.7090     8.4730    25.1320   -16.7790     2.5040 
  231.1250   225.7290    33.4540    -5.0650    62.2520    10.8840     9.5020     7.9010    25.3510   -16.9270     2.4650 
  231.2500   225.8440    33.5010    -5.0720    62.7800    10.6180     9.2710     7.3140    25.5140   -17.0550     2.4170 
  231.3750   225.9600    33.5490    -5.0790    65.2580    10.4160     9.0740     7.2720    25.5910   -17.1330     2.3770 
  231.5000   226.0760    33.5960    -5.0850    65.9860    10.2940     8.9370     7.4590    25.6080   -17.1650     2.3510 
  231.6250   226.1910    33.6430    -5.0920    64.3280    10.2440     8.8660     7.6410    25.6180   -17.1710     2.3400 
  231.7500   226.3070    33.6910    -5.0980    63.2070    10.2450     8.8510     7.6030    25.6400   -17.1510     2.3530 
  231.8750   226.4220    33.7380    -5.1050    63.6400    10.2710     8.8620     7.0830    25.6540   -17.0960     2.3810 
  232.0000   226.5380    33.7850    -5.1110    64.4190    10.3230     8.8890     6.4550    25.6550   -16.9970     2.4040 
  232.1250   226.6530    33.8320    -5.1180    65.7740    10.4160     8.9410     6.4450    25.6590   -16.8600     2.3970 
  232.2500   226.7690    33.8800    -5.1240    65.6040    10.5860     9.0510     7.7480    25.6800   -16.7120     2.3540 
  232.3750   226.8840    33.9270    -5.1310    64.2900    10.8430     9.2340     9.9640    25.6920   -16.5590     2.3040 
  232.5000   227.0000    33.9740    -5.1370    65.4340    11.1750     9.4870    11.8720    25.5910   -16.3920     2.2770 
  232.6250   227.1150    34.0210    -5.1440    69.5900    11.5350     9.7760    12.2240    25.3120   -16.1930     2.2920 
