~V
VERS. 2.00: Ver 2.00
~W
STRT.M 45.0000:
STOP.M 272.0000:
STEP.M 0.1250:
NULL. -999.2500:
UWI. FD11191:
~C
DEPT.M :
TVD. :
DX. :
DY. :
SP.MV :
GR.API :
RI. :
RML.OHMM :
RXO.OHMM :
DEN.GM/CC :
~A
# ...
  145.3750   144.4600    -9.5600     0.8430   -42.8950    75.0850     5.4460     6.5920     7.9980     2.0900 
  145.5000   144.5810    -9.5910     0.8390   -42.9690    69.7160     5.6670     6.8880     7.5010     2.1420 
  145.6250   144.7020    -9.6220     0.8360   -43.1380    68.0320     5.7720     7.0290     6.8710     2.1890 
  145.7500   144.8230    -9.6530     0.8320   -43.3630    73.2920     5.7640     7.0070     8.3500     2.2080 
  145.8750   144.9440    -9.6840     0.8290   -43.6050    82.8290     5.6420     6.8340    13.5350     2.1940 
  146.0000   145.0650    -9.7150     0.8260   -43.8240    87.5710     5.4730     6.6000    15.3300     2.1640 
  146.1250   145.1870    -9.7470     0.8220   -43.9940    83.3080     5.2540     6.3040    10.2330     2.1250 
  146.2500   145.3080    -9.7780     0.8190   -44.1130    78.0800     5.0060     5.9810     6.8280     2.0910 
  146.3750   145.4290    -9.8090     0.8160   -44.1800    78.4100     4.7790     5.6850     6.5750     2.0730 
  146.5000   145.5500    -9.8400     0.8120   -44.2060    78.1710     4.5800     5.4260     6.0060     2.0660 
  146.6250   145.6710    -9.8710     0.8090   -44.1880    73.2720     4.4810     5.2890     5.5740     2.0640 
  146.7500   145.7920    -9.9010     0.8050   -44.1280    67.9760     4.4650     5.2480     5.5570     2.0670 
  146.8750   145.9130    -9.9320     0.8010   -44.0230    68.0360     4.5130     5.2730     5.7180     2.0700 
  147.0000   146.0340    -9.9630     0.7980   -43.8790    69.9690     4.6010     5.3430     5.8910     2.0740 
  147.1250   146.1550    -9.9940     0.7940   -43.6920    69.6590     4.7010     5.4190     6.1920     2.0790 
  147.2500   146.2760   -10.0250     0.7900   -43.4670    69.0210     4.7840     5.4900     6.3880     2.0820 
  147.3750   146.3970   -10.0560     0.7870   -43.1950    69.7520     4.8500     5.5720     6.2590     2.0740 
  147.5000   146.5180   -10.0870     0.7830   -42.8790    71.6840     4.8920     5.6390     6.1600     2.0690 
  147.6250   146.6390   -10.1180     0.7790   -42.5150    73.4810     4.7340     5.4750     6.2980     2.1080 
  147.7500   146.7600   -10.1490     0.7760   -42.1190    76.4510     4.3430     5.0100     6.8300     2.1920 
  147.8750   146.8810   -10.1810     0.7720   -41.7190    80.6020     3.8070     4.3560     7.1420     2.2480 
  148.0000   147.0020   -10.2120     0.7680   -41.3610    83.5210     3.1960     3.6170     5.9360     2.2260 
  148.1250   147.1230   -10.2430     0.7640   -41.1000    85.9300     2.7270     3.0690     4.0310     2.1650 
  148.2500   147.2440   -10.2740     0.7610   -40.9630    89.5920     2.4100     2.7240     3.0360     2.1350 
  148.3750   147.3650   -10.3060     0.7570   -40.9620    92.9940     2.2280     2.5400     2.9210     2.1520 
  148.5000   147.4860   -10.3370     0.7530   -41.0640    95.7920     2.2040     2.5260     3.1220     2.1800 
  148.6250   147.6070   -10.3690     0.7500   -41.2380    97.6630     2.3270     2.6580     3.3600     2.1970 
  148.7500   147.7280   -10.4000     0.7460   -41.4460    98.8810     2.6550     2.9930     3.5820     2.1960 
  148.8750   147.8480   -10.4320     0.7420   -41.6660    97.7770     3.1820     3.5590     3.7700     2.2000 
  149.0000   147.9690   -10.4640     0.7390   -41.8790    94.8580     3.9080     4.3710     4.2120     2.2500 
  149.1250   148.0900   -10.4960     0.7350   -42.0600    89.6340     4.8570     5.4350     5.4480     2.3530 
  149.2500   148.2110   -10.5280     0.7320   -42.1860    83.6220     5.5770     6.1810     7.1710     2.4540 
  149.3750   148.3320   -10.5600     0.7280   -42.2300    78.6610     5.7740     6.2820     8.4980     2.4690 
  149.5000   148.4530   -10.5920     0.7250   -42.1980    77.0420     5.4780     5.8120     8.4480     2.3940 
  149.6250   148.5730   -10.6240     0.7210   -42.1090    80.7250     4.7130     4.8750     6.4430     2.2940 
  149.7500   148.6940   -10.6560     0.7180   -42.0010    86.9670     3.9600     4.0680     4.4550     2.2280 
  149.8750   148.8150   -10.6880     0.7150   -41.8980    89.5950     3.4780     3.6210     3.9490     2.2020 
  150.0000   148.9360   -10.7200     0.7120   -41.8050    86.7130     3.1950     3.4180     4.1390     2.1930 
  150.1250   149.0560   -10.7520     0.7080   -41.7070    84.8390     3.1310     3.4310     4.3740     2.1960 
  150.2500   149.1770   -10.7840     0.7050   -41.5900    88.3920     3.1330     3.4800     4.4180     2.2090 
  150.3750   149.2980   -10.8160     0.7020   -41.4470    93.3190     3.1140     3.4730     4.1570     2.2320 
  150.5000   149.4190   -10.8480     0.6990   -41.2860    93.8150     3.0600     3.3970     3.8790     2.2600 
  150.6250   149.5390   -10.8800     0.6960   -41.1270    90.1180     3.0100     3.3160     3.7850     2.2820 
  150.7500   149.6600   -10.9120     0.6930   -40.9880    87.0130     3.0430     3.3290     3.9400     2.2930 
  150.8750   149.7810   -10.9440     0.6900   -40.8860    86.8020     3.2430     3.5340     4.2730     2.3140 
  151.0000   149.9020   -10.9760     0.6870   -40.8180    86.0460     3.7040     4.0420     4.3440     2.3700 
  151.1250   150.0230   -11.0080     0.6840   -40.7780    81.7960     4.4300     4.8720     4.8470     2.4540 
  151.2500   150.1440   -11.0400     0.6810   -40.7440    73.8320     5.4540     6.0590     6.9250     2.5230 
  151.3750   150.2640   -11.0720     0.6770   -40.6920    65.2210     6.6870     7.4770     9.9050     2.5540 
  151.5000   150.3850   -11.1040     0.6740   -40.6070    59.1560     7.7570     8.6570    11.4880     2.5590 
  151.6250   150.5060   -11.1360     0.6700   -40.4780    56.3630     8.2270     9.1150    11.2440     2.5460 
  151.7500   150.6270   -11.1680     0.6670   -40.3130    55.6050     8.2440     9.0410    11.2940     2.5210 
  151.8750   150.7480   -11.2000     0.6630   -40.1240    55.0870     7.8970     8.5660    12.1000     2.4990 
  152.0000   150.8680   -11.2320     0.6600   -39.9370    52.6330     7.5850     8.1830    11.7770     2.4990 
  152.1250   150.9890   -11.2640     0.6570   -39.7800    49.7060     7.4640     8.0540    10.1110     2.5050 
  152.2500   151.1100   -11.2960     0.6530   -39.6680    48.9880     7.5410     8.1770     9.1260     2.5010 
  152.3750   151.2310   -11.3280     0.6500   -39.6100    51.4070     7.7960     8.5110     9.5180     2.5010 
  152.5000   151.3510   -11.3600     0.6470   -39.5930    51.3700     8.1470     8.9350    10.8050     2.5120 
  152.6250   151.4720   -11.3920     0.6440   -39.6030    48.1760     8.4010     9.1830    11.5090     2.5260 
  152.7500   151.5930   -11.4250     0.6400   -39.6230    46.3190     8.4600     9.1880    11.1030     2.5310 
  152.8750   151.7140   -11.4570     0.6370   -39.6470    48.6470     8.4250     9.0860    10.8060     2.5180 
  153.0000   151.8340   -11.4890     0.6340   -39.6800    50.5510     8.3410     8.9400    10.8400     2.4840 
  153.1250   151.9550   -11.5220     0.6310   -39.7350    49.0790     8.3230     8.8970    10.7020     2.4540 
  153.2500   152.0760   -11.5540     0.6270   -39.8220    46.2640     8.3600     8.9260    10.2260     2.4550 
  153.3750   152.1960   -11.5860     0.6240   -39.9430    45.2550     8.4550     9.0210    10.4420     2.4720 
  153.5000   152.3170   -11.6180     0.6210   -40.0790    45.9220     8.5960     9.1500    11.4270     2.4730 
  153.6250   152.4380   -11.6510     0.6180   -40.2060    47.2840     8.7620     9.3070    11.6250     2.4610 
  153.7500   152.5590   -11.6830     0.6140   -40.3010    47.0330     8.9450     9.4620    11.1670     2.4610 
  153.8750   152.6790   -11.7150     0.6110   -40.3450    45.9510     9.0660     9.5430    11.3100     2.4740 
  154.0000   152.8000   -11.7470     0.6070   -40.3380    46.2450     9.1780     9.6180    11.7090     2.4770 
  154.1250   152.9210   -11.7790     0.6040   -40.2810    48.9100     9.3060     9.7170    11.6570     2.4630 
  154.2500   153.0420   -11.8110     0.6010   -40.1900    50.2240     9.4030     9.7820    11.7370     2.4610 
  154.3750   153.1620   -11.8430     0.5980   -40.0720    50.0350     9.4600     9.8200    12.4820     2.4710 
