~V
VERS. 2.00: Ver 2.00
~W
STRT.M 15.0000:
STOP.M 224.0000:
STEP.M 0.1250:
NULL. -999.2500:
UWI. FD11007:
~C
DEPT.M :
TVD. :
DX. :
DY. :
DEN.GM/CC :
GR.API :
RML.OHMM :
RI. :
RXO.OHMM :
CALI.CM :
SP.MV :
~A
# ...
  122.2500   122.0000     2.4110    -2.9230     2.3330    78.0640     8.4260     6.4720     6.0440    24.7530   -29.7720 
  122.3750   122.1230     2.4260    -2.9380     2.4260    76.7190    10.8620     8.0180     7.7320    24.7500   -30.0470 
  122.5000   122.2460     2.4410    -2.9530     2.5480    71.4900    13.9880    10.1410    11.7060    24.7540   -30.3940 
  122.6250   122.3690     2.4560    -2.9680     2.6260    63.6410    16.9490    12.3910    16.0910    24.7580   -30.8590 
  122.7500   122.4920     2.4710    -2.9830     2.6160    61.7600    18.4590    13.8270    19.4270    24.7580   -31.4760 
  122.8750   122.6150     2.4860    -2.9980     2.5340    66.6320    17.8400    13.8290    20.1650    24.7550   -32.2470 
  123.0000   122.7390     2.5010    -3.0130     2.4260    72.4870    15.5970    12.5870    16.9450    24.7540   -33.1510 
  123.1250   122.8620     2.5160    -3.0280     2.3340    72.9600    13.0700    10.9210    12.2400    24.7400   -34.1060 
  123.2500   122.9850     2.5320    -3.0430     2.2780    69.9260    11.2180     9.5700     9.6640    24.7050   -34.9960 
  123.3750   123.1080     2.5470    -3.0580     2.2570    67.5030    10.1820     8.7160     8.8840    24.6680   -35.7650 
  123.5000   123.2310     2.5620    -3.0730     2.2590    67.6380     9.8010     8.3300     8.7420    24.6500   -36.3690 
  123.6250   123.3550     2.5770    -3.0880     2.2690    69.3230     9.8690     8.3320     8.6140    24.6460   -36.7570 
  123.7500   123.4780     2.5920    -3.1030     2.2710    70.1290    10.1010     8.5170     8.6380    24.6380   -36.8800 
  123.8750   123.6010     2.6070    -3.1180     2.2590    69.4840    10.3890     8.7850     8.8260    24.6270   -36.7830 
  124.0000   123.7240     2.6220    -3.1330     2.2350    67.3070    10.6790     9.0710     8.8290    24.6220   -36.5100 
  124.1250   123.8470     2.6370    -3.1480     2.2060    65.7830    10.8690     9.2860     8.3850    24.6230   -36.0930 
  124.2500   123.9700     2.6520    -3.1630     2.1840    68.0320    10.8100     9.3110     8.1230    24.6240   -35.5130 
  124.3750   124.0940     2.6670    -3.1780     2.1770    72.2620    10.3590     9.0260     8.2270    24.6250   -34.8040 
  124.5000   124.2170     2.6820    -3.1930     2.1900    74.7630     9.4870     8.3880     8.1970    24.6290   -33.9960 
  124.6250   124.3400     2.6970    -3.2080     2.2200    74.7360     8.3300     7.4750     7.6890    24.6120   -33.1350 
  124.7500   124.4630     2.7120    -3.2230     2.2530    75.5670     7.2230     6.5450     6.9010    24.5340   -32.2710 
  124.8750   124.5860     2.7270    -3.2380     2.2790    78.6740     6.4000     5.7850     5.9160    24.4160   -31.4330 
  125.0000   124.7100     2.7420    -3.2540     2.2920    83.9600     5.9980     5.3140     5.2540    24.3680   -30.6630 
  125.1250   124.8330     2.7570    -3.2690     2.2930    88.5400     6.1270     5.2430     5.0460    24.4910   -30.0190 
  125.2500   124.9560     2.7720    -3.2840     2.2920    89.3630     6.6760     5.5130     5.4160    24.6620   -29.5630 
  125.3750   125.0790     2.7870    -3.2990     2.2990    85.7540     7.5640     6.0880     6.2740    24.7610   -29.2560 
  125.5000   125.2020     2.8020    -3.3140     2.3200    80.4640     8.6500     6.8900     7.6190    24.7800   -29.0350 
  125.6250   125.3250     2.8170    -3.3290     2.3480    76.7290     9.7040     7.7660     8.8920    24.7910   -28.8430 
  125.7500   125.4490     2.8320    -3.3440     2.3750    74.2720    10.5580     8.5500     8.9470    24.8110   -28.6440 
  125.8750   125.5720     2.8470    -3.3590     2.4000    72.3420    11.1980     9.1860     9.0350    24.8210   -28.4360 
  126.0000   125.6950     2.8620    -3.3740     2.4290    71.1560    11.6840     9.6940     9.3120    24.8180   -28.2260 
  126.1250   125.8180     2.8770    -3.3890     2.4660    71.4600    12.0220    10.0740     8.9580    24.8120   -28.0160 
  126.2500   125.9410     2.8920    -3.4040     2.4970    72.0270    12.1340    10.2820     9.1350    24.8110   -27.8370 
  126.3750   126.0640     2.9070    -3.4190     2.5020    71.5370    11.8550    10.1930    10.6300    24.8390   -27.7270 
  126.5000   126.1880     2.9220    -3.4340     2.4750    72.7710    11.0720     9.6980    12.3560    24.9140   -27.7030 
  126.6250   126.3110     2.9370    -3.4490     2.4270    79.0780     9.8370     8.7880     9.8970    25.0190   -27.7730 
  126.7500   126.4340     2.9520    -3.4640     2.3810    87.0050     8.5310     7.7440     7.2780    25.0930   -27.8830 
  126.8750   126.5570     2.9670    -3.4790     2.3490    94.0440     7.4140     6.7800     5.8500    25.1180   -27.9770 
  127.0000   126.6800     2.9840    -3.4950     2.3340    98.3880     6.6230     6.0270     5.2250    25.1180   -28.0730 
  127.1250   126.8030     3.0020    -3.5110     2.3340    99.8770     6.2400     5.5890     4.9660    25.1190   -28.1800 
  127.2500   126.9250     3.0200    -3.5260     2.3430   100.4480     6.1720     5.4180     4.8050    25.1160   -28.3040 
  127.3750   127.0480     3.0370    -3.5420     2.3540   101.0820     6.3880     5.4960     4.7070    25.0690   -28.4570 
  127.5000   127.1710     3.0550    -3.5580     2.3590   100.9580     6.8660     5.8010     4.7860    24.9590   -28.6570 
  127.6250   127.2940     3.0730    -3.5740     2.3480    96.7410     7.5940     6.3310     5.2760    24.8370   -28.9140 
  127.7500   127.4160     3.0900    -3.5900     2.3270    91.4430     8.4230     6.9760     6.3370    24.7760   -29.2180 
  127.8750   127.5390     3.1080    -3.6050     2.3030    88.2160     9.2060     7.6330     7.8470    24.7670   -29.5330 
  128.0000   127.6620     3.1260    -3.6210     2.2830    86.5600     9.8390     8.2150     8.6020    24.7680   -29.8050 
  128.1250   127.7850     3.1430    -3.6370     2.2710    86.2250    10.3690     8.7210     8.1280    24.7630   -29.9880 
  128.2500   127.9070     3.1610    -3.6530     2.2610    85.4260    11.0730     9.3110     8.0490    24.7720   -30.0360 
  128.3750   128.0300     3.1790    -3.6690     2.2470    81.7310    12.2080    10.1660     8.4840    24.7970   -29.9850 
  128.5000   128.1530     3.1960    -3.6840     2.2280    73.0110    13.8680    11.4020    10.1450    24.8220   -29.8570 
  128.6250   128.2750     3.2140    -3.7000     2.2130    64.1780    15.8160    12.9580    12.1230    24.8270   -29.6530 
  128.7500   128.3980     3.2320    -3.7160     2.2070    63.1750    17.2950    14.3200    13.2050    24.8220   -29.3820 
  128.8750   128.5210     3.2490    -3.7320     2.2140    70.3110    17.5300    14.8440    13.8140    24.7950   -29.1080 
  129.0000   128.6440     3.2670    -3.7480     2.2330    80.3080    16.1550    14.1010    14.8570    24.7140   -28.8530 
  129.1250   128.7660     3.2850    -3.7630     2.2580    87.0140    13.5450    12.2210    13.9580    24.5830   -28.6050 
  129.2500   128.8890     3.3030    -3.7790     2.2820    91.3760    10.8750    10.1240    10.8780    24.4960   -28.3600 
  129.3750   129.0120     3.3200    -3.7950     2.3050    95.3970     8.7200     8.3050     7.4470    24.5500   -28.1210 
  129.5000   129.1350     3.3380    -3.8110     2.3280    99.0570     7.2410     6.9540     5.6700    24.7390   -27.8960 
  129.6250   129.2570     3.3560    -3.8270     2.3510    98.3900     6.4690     6.1570     5.2400    24.9330   -27.7090 
  129.7500   129.3800     3.3730    -3.8420     2.3690    95.8560     6.2170     5.8020     5.1340    25.0240   -27.5740 
  129.8750   129.5030     3.3910    -3.8580     2.3730    96.2730     6.4800     5.8880     5.0590    25.0300   -27.4950 
  130.0000   129.6250     3.4090    -3.8740     2.3550    97.6670     7.3000     6.4360     5.0840    25.0200   -27.4700 
  130.1250   129.7480     3.4260    -3.8900     2.3150    94.6830     8.8440     7.5680     5.9180    25.0210   -27.4900 
  130.2500   129.8710     3.4440    -3.9060     2.2760    89.3840    10.9270     9.1710     8.2950    25.0240   -27.5370 
  130.3750   129.9940     3.4620    -3.9210     2.2600    85.9260    13.1570    11.0130    12.2740    25.0240   -27.5820 
