~V
VERS. 2.00: Ver 2.00
~W
STRT.M 20.0000:
STOP.M 292.0000:
STEP.M 0.1250:
NULL. -999.2500:
UWI. FD11146:
~C
DEPT.M :
TVD. :
DX. :
DY. :
GR.API :
RML.OHMM :
RI. :
RXO.OHMM :
CALI.CM :
SP.MV :
DEN.GM/CC :
~A
# ...
  176.7500   172.6250    22.0130   -21.1000    53.6400   238.6270   219.0360    32.2930    23.4430   -31.1290     2.1850 
  176.8750   172.7420    22.0440   -21.1290    52.1700   244.5440   226.3730    34.2610    23.4420   -31.3300     2.1860 
  177.0000   172.8600    22.0760   -21.1580    52.9340   246.4700   230.8720    30.9670    23.4430   -31.4710     2.1840 
  177.1250   172.9770    22.1080   -21.1860    54.8010   241.6160   228.9550    25.3920    23.4430   -31.5550     2.1830 
  177.2500   173.0950    22.1390   -21.2150    55.5030   231.9090   221.2540    21.7620    23.4440   -31.6020     2.1880 
  177.3750   173.2120    22.1710   -21.2430    55.3970   220.0450   209.9930    20.6510    23.4420   -31.6490     2.1980 
  177.5000   173.3300    22.2030   -21.2720    54.8540   208.9850   198.5130    21.9160    23.4400   -31.7030     2.2050 
  177.6250   173.4470    22.2350   -21.3010    55.6940   201.5430   190.4650    26.2960    23.4410   -31.7610     2.2080 
  177.7500   173.5650    22.2660   -21.3290    57.3440   197.9250   186.5620    31.8770    23.4420   -31.8430     2.2100 
  177.8750   173.6820    22.2980   -21.3580    56.7860   197.7540   186.3520    34.6140    23.4410   -31.9390     2.2110 
  178.0000   173.8000    22.3300   -21.3870    52.5660   200.3300   188.9860    31.8130    23.4410   -32.0380     2.2100 
  178.1250   173.9170    22.3610   -21.4150    48.5340   204.6170   193.5680    25.9460    23.4390   -32.1480     2.2040 
  178.2500   174.0350    22.3930   -21.4440    49.7240   208.2540   198.0340    21.3010    23.4390   -32.2610     2.1990 
  178.3750   174.1520    22.4250   -21.4730    55.1670   208.9650   200.2840    19.4270    23.4400   -32.3380     2.1980 
  178.5000   174.2700    22.4570   -21.5010    59.9950   204.9420   198.3610    20.4490    23.4390   -32.3920     2.2010 
  178.6250   174.3870    22.4880   -21.5300    59.5910   195.0500   190.5780    25.4130    23.4380   -32.4170     2.2060 
  178.7500   174.5040    22.5200   -21.5590    56.9200   181.8150   178.9000    32.5940    23.4380   -32.3530     2.2130 
  178.8750   174.6220    22.5520   -21.5870    54.5780   167.4980   165.4440    38.2220    23.4380   -32.2020     2.2230 
  179.0000   174.7390    22.5830   -21.6160    53.4570   153.8190   152.0720    37.8050    23.4380   -31.9960     2.2310 
  179.1250   174.8570    22.6150   -21.6450    54.0360   141.8200   140.0040    31.1200    23.4380   -31.7560     2.2330 
  179.2500   174.9740    22.6470   -21.6730    55.3210   131.5380   129.4800    25.6750    23.4380   -31.5070     2.2360 
  179.3750   175.0920    22.6780   -21.7020    56.3800   123.3030   120.8840    23.1890    23.4380   -31.2630     2.2400 
  179.5000   175.2090    22.7100   -21.7310    56.3870   117.6330   114.7780    24.2930    23.4380   -31.0070     2.2430 
  179.6250   175.3270    22.7420   -21.7590    55.8870   115.8010   112.4740    29.2740    23.4380   -30.7800     2.2450 
  179.7500   175.4440    22.7740   -21.7880    55.4900   117.8390   114.0880    34.4920    23.4380   -30.6130     2.2450 
  179.8750   175.5620    22.8050   -21.8160    54.9760   123.7860   119.7400    37.8330    23.4380   -30.5290     2.2410 
  180.0000   175.6790    22.8370   -21.8450    54.7090   132.8900   128.7350    38.8870    23.4380   -30.5190     2.2320 
  180.1250   175.7970    22.8690   -21.8740    53.9130   143.2620   139.2960    36.4200    23.4380   -30.5340     2.2240 
  180.2500   175.9140    22.9000   -21.9020    52.5730   152.0550   148.6290    32.6540    23.4380   -30.5430     2.2220 
  180.3750   176.0320    22.9320   -21.9310    51.9950   157.8080   155.1920    30.4650    23.4380   -30.5340     2.2190 
  180.5000   176.1490    22.9640   -21.9600    52.8280   160.7980   158.9540    31.8070    23.4380   -30.4760     2.2120 
  180.6250   176.2660    22.9960   -21.9880    53.6660   162.1040   160.7210    37.3430    23.4380   -30.3220     2.2060 
  180.7500   176.3840    23.0280   -22.0170    54.4390   162.1110   161.1000    40.9440    23.4380   -30.1160     2.2080 
  180.8750   176.5010    23.0600   -22.0470    55.7570   159.4940   159.0430    39.8290    23.4380   -29.8640     2.2150 
  181.0000   176.6180    23.0930   -22.0760    56.6140   152.9220   153.2870    35.1520    23.4380   -29.5910     2.2270 
  181.1250   176.7350    23.1250   -22.1050    55.4520   141.7850   143.0340    30.2470    23.4380   -29.3350     2.2440 
  181.2500   176.8520    23.1580   -22.1350    54.4870   128.5600   130.3940    25.8470    23.4380   -29.1120     2.2610 
  181.3750   176.9690    23.1900   -22.1640    55.7240   115.8960   117.6870    22.8420    23.4380   -28.9710     2.2770 
  181.5000   177.0860    23.2230   -22.1930    59.2100   106.3420   107.3820    22.9740    23.4380   -28.9620     2.2930 
  181.6250   177.2030    23.2550   -22.2220    61.0740   102.6820   102.3830    27.1370    23.4380   -29.1060     2.3070 
  181.7500   177.3200    23.2880   -22.2520    58.7050   105.3630   103.4830    31.7070    23.4380   -29.3280     2.3090 
  181.8750   177.4380    23.3200   -22.2810    54.5860   115.6040   112.1200    32.5680    23.4380   -29.6110     2.2900 
  182.0000   177.5550    23.3530   -22.3100    52.2960   134.8480   129.8620    32.1180    23.4380   -29.9140     2.2570 
  182.1250   177.6720    23.3850   -22.3400    51.6370   165.9690   159.2140    32.5790    23.4380   -30.2060     2.2270 
  182.2500   177.7890    23.4180   -22.3690    49.2830   205.6400   196.1660    30.6470    23.4380   -30.4480     2.2110 
  182.3750   177.9060    23.4500   -22.3980    45.2370   246.0120   233.2220    26.9920    23.4380   -30.6040     2.2020 
  182.5000   178.0230    23.4830   -22.4280    42.5700   271.7650   257.8890    23.9130    23.4380   -30.6590     2.1960 
  182.6250   178.1400    23.5150   -22.4570    43.7830   263.9710   254.7190    23.9450    23.4380   -30.6290     2.1930 
  182.7500   178.2570    23.5480   -22.4860    46.4180   232.9620   229.9770    27.5680    23.4380   -30.5490     2.1960 
  182.8750   178.3740    23.5800   -22.5160    48.3780   194.5660   195.4660    32.3730    23.4380   -30.4190     2.2040 
  183.0000   178.4910    23.6120   -22.5450    49.8560   160.3140   162.0560    33.6500    23.4380   -30.2680     2.2170 
  183.1250   178.6080    23.6450   -22.5740    51.8680   136.5200   137.1870    29.6620    23.4380   -30.1800     2.2320 
  183.2500   178.7260    23.6770   -22.6040    53.1020   122.0000   121.1890    24.5600    23.4380   -30.1980     2.2410 
  183.3750   178.8430    23.7100   -22.6330    53.8030   115.6200   113.4130    21.2460    23.4380   -30.3040     2.2390 
  183.5000   178.9600    23.7420   -22.6620    54.1470   116.0030   112.6210    20.3960    23.4380   -30.4640     2.2320 
  183.6250   179.0770    23.7750   -22.6910    54.0610   122.4500   118.1290    22.1360    23.4480   -30.6390     2.2290 
  183.7500   179.1940    23.8070   -22.7210    53.4770   132.3770   127.2890    25.3740    23.4700   -30.8210     2.2290 
  183.8750   179.3110    23.8400   -22.7500    52.7530   143.8190   138.1490    28.6770    23.4930   -31.0120     2.2240 
  184.0000   179.4280    23.8720   -22.7790    52.1940   154.3900   148.3780    29.1610    23.5060   -31.1780     2.2160 
  184.1250   179.5450    23.9050   -22.8090    52.2070   161.2280   155.2190    25.9620    23.5070   -31.2430     2.2120 
  184.2500   179.6620    23.9370   -22.8380    53.0430   163.8110   158.0470    22.3700    23.5060   -31.2110     2.2190 
  184.3750   179.7790    23.9700   -22.8670    53.7900   162.3920   156.9360    20.3120    23.5040   -31.1380     2.2350 
  184.5000   179.8960    24.0020   -22.8970    53.3780   157.9830   152.6810    19.4270    23.5020   -31.0500     2.2520 
  184.6250   180.0140    24.0350   -22.9260    51.8670   151.9380   146.4310    19.7670    23.5020   -30.9230     2.2600 
  184.7500   180.1310    24.0670   -22.9550    50.3880   145.8930   139.8450    21.5290    23.5020   -30.8210     2.2570 
  184.8750   180.2480    24.1000   -22.9850    49.5960   140.7410   133.8670    23.2760    23.5040   -30.7460     2.2490 
