~V
VERS. 2.00: Ver 2.00
~W
STRT.M 40.0000:
STOP.M 259.0000:
STEP.M 0.1250:
NULL. -999.2500:
UWI. FD11192:
~C
DEPT.M :
TVD. :
DX. :
DY. :
SP.MV :
GR.API :
RI. :
RML.OHMM :
RXO.OHMM :
DEN.GM/CC :
~A
# ...
  113.0000   112.0160     6.7590     5.6490  -216.8120   107.5430     3.6960     4.2180     4.1040     2.2980 
  113.1250   112.1340     6.7870     5.6790  -216.8420   105.2370     3.8470     4.4050     4.1570     2.3150 
  113.2500   112.2520     6.8150     5.7100  -216.8130   103.4220     4.0780     4.6830     4.3860     2.3250 
  113.3750   112.3700     6.8430     5.7410  -216.7670   100.7240     4.3470     5.0050     5.2070     2.3200 
  113.5000   112.4880     6.8710     5.7720  -216.7300    94.5000     4.5970     5.2930     5.8200     2.2980 
  113.6250   112.6060     6.8990     5.8030  -216.6780    87.1440     4.7500     5.4600     5.4800     2.2680 
  113.7500   112.7240     6.9270     5.8340  -216.6660    82.1880     4.7920     5.5000     4.9850     2.2470 
  113.8750   112.8410     6.9550     5.8650  -216.5790    80.5640     4.7580     5.4520     4.9330     2.2460 
  114.0000   112.9590     6.9830     5.8970  -216.4370    80.1010     4.7050     5.3850     5.0270     2.2520 
  114.1250   113.0770     7.0120     5.9280  -216.2220    82.3120     4.7060     5.3960     5.0400     2.2590 
  114.2500   113.1940     7.0400     5.9600  -215.9970    85.5200     4.8160     5.5470     4.9940     2.2620 
  114.3750   113.3120     7.0690     5.9910  -215.7910    84.8520     5.0510     5.8630     4.9440     2.2480 
  114.5000   113.4290     7.0970     6.0230  -215.5170    79.7950     5.4560     6.4020     5.1260     2.2160 
  114.6250   113.5470     7.1260     6.0540  -215.1660    75.2840     5.9720     7.0610     6.6120     2.1760 
  114.7500   113.6640     7.1550     6.0860  -214.7860    73.3900     6.5460     7.7550     7.3960     2.1550 
  114.8750   113.7810     7.1830     6.1180  -214.4620    72.2840     7.0580     8.3270     7.7300     2.1660 
  115.0000   113.8990     7.2120     6.1500  -214.3090    71.0070     7.4180     8.6650     7.9470     2.1850 
  115.1250   114.0160     7.2410     6.1820  -214.2620    68.3750     7.5710     8.7230     7.9890     2.1890 
  115.2500   114.1330     7.2700     6.2140  -214.1500    63.5710     7.5550     8.5800     7.9310     2.1740 
  115.3750   114.2510     7.2990     6.2470  -213.9970    59.1100     7.4990     8.4140     7.8350     2.1520 
  115.5000   114.3680     7.3280     6.2790  -213.9010    56.7470     7.4460     8.2940     7.6180     2.1370 
  115.6250   114.4850     7.3570     6.3120  -213.8670    55.4840     7.4500     8.2920     7.5030     2.1280 
  115.7500   114.6020     7.3860     6.3440  -213.8950    54.9820     7.4940     8.3850     7.5350     2.1280 
  115.8750   114.7190     7.4150     6.3770  -214.0110    57.6980     7.4510     8.3930     7.1100     2.1360 
  116.0000   114.8360     7.4440     6.4100  -214.1870    62.9650     7.1640     8.1050     7.0110     2.1410 
  116.1250   114.9530     7.4740     6.4430  -214.4150    65.5090     6.5260     7.3760     7.0020     2.1370 
  116.2500   115.0700     7.5030     6.4750  -214.7040    65.5480     5.6840     6.3760     6.9310     2.1410 
  116.3750   115.1870     7.5320     6.5080  -215.0730    66.3200     4.7840     5.2980     6.4500     2.1760 
  116.5000   115.3040     7.5610     6.5420  -215.4100    71.5190     4.0210     4.3850     5.5180     2.2350 
  116.6250   115.4210     7.5900     6.5750  -215.7650    78.7700     3.5140     3.7930     4.6660     2.2900 
  116.7500   115.5380     7.6200     6.6080  -216.0660    84.7100     3.3670     3.6540     4.2800     2.3220 
  116.8750   115.6550     7.6490     6.6410  -216.2870    86.8980     3.7940     4.2150     4.3680     2.3350 
  117.0000   115.7720     7.6780     6.6740  -216.4330    86.0060     4.8480     5.5220     6.4880     2.3590 
  117.1250   115.8880     7.7080     6.7080  -216.5750    82.8530     6.3330     7.3090    13.9300     2.4090 
  117.2500   116.0050     7.7370     6.7410  -216.7120    79.5600     7.9020     9.0630    22.7540     2.4430 
  117.3750   116.1220     7.7670     6.7750  -216.7960    76.0540     8.8350     9.9500    24.2530     2.3940 
  117.5000   116.2390     7.7960     6.8080  -216.8530    72.4130     8.8630     9.7720    18.8100     2.2800 
  117.6250   116.3560     7.8250     6.8420  -216.8360    70.7160     8.2680     8.9470    12.2640     2.1850 
  117.7500   116.4720     7.8540     6.8760  -216.7490    69.4520     7.5300     8.1220     8.2990     2.1640 
  117.8750   116.5890     7.8840     6.9090  -216.6420    66.6350     7.2430     7.9130     7.2160     2.1950 
  118.0000   116.7060     7.9130     6.9430  -216.5870    63.8760     7.2790     8.0910     7.3180     2.2170 
  118.1250   116.8230     7.9420     6.9770  -216.6230    63.4320     7.5310     8.5420     7.6460     2.2070 
  118.2500   116.9390     7.9720     7.0110  -216.6900    64.6810     7.8240     9.0370     8.0190     2.1900 
  118.3750   117.0560     8.0010     7.0450  -216.7330    66.9300     8.1080     9.5150     9.3780     2.1990 
  118.5000   117.1720     8.0310     7.0790  -216.7420    71.7990     8.3110     9.8550    12.0330     2.2270 
  118.6250   117.2890     8.0600     7.1130  -216.6680    76.6330     8.3850     9.9900    12.9940     2.2390 
  118.7500   117.4060     8.0900     7.1470  -216.5020    76.9810     8.3180     9.9070    10.8190     2.2200 
  118.8750   117.5220     8.1190     7.1820  -216.2260    74.6930     8.1090     9.5850     8.6550     2.1880 
  119.0000   117.6390     8.1480     7.2160  -215.9100    72.9880     7.9370     9.3100     8.1910     2.1710 
  119.1250   117.7550     8.1780     7.2500  -215.5630    71.1650     8.1840     9.6050     8.3970     2.1660 
  119.2500   117.8720     8.2070     7.2850  -215.2360    69.7910     8.8430    10.4300     8.6760     2.1670 
  119.3750   117.9880     8.2370     7.3190  -214.9380    70.5610     9.6310    11.4160     9.4010     2.2030 
  119.5000   118.1050     8.2660     7.3540  -214.6570    71.4130    10.2390    12.1520    12.3070     2.3140 
  119.6250   118.2210     8.2960     7.3880  -214.2920    69.2050    10.3270    12.1590    16.3660     2.4550 
  119.7500   118.3370     8.3260     7.4230  -213.9090    65.8320     9.8780    11.4700    15.8440     2.4980 
  119.8750   118.4540     8.3550     7.4580  -213.5480    63.6560     9.0780    10.3980    10.9960     2.3840 
  120.0000   118.5700     8.3850     7.4920  -213.3400    62.5570     8.1500     9.2570     8.0600     2.2240 
  120.1250   118.6870     8.4140     7.5270  -213.2700    61.2290     7.4040     8.4520     7.8420     2.1400 
  120.2500   118.8030     8.4440     7.5620  -213.3310    61.6170     6.9120     7.9780     8.1420     2.1300 
  120.3750   118.9190     8.4730     7.5970  -213.5080    64.3790     6.5600     7.6060     8.2590     2.1430 
  120.5000   119.0360     8.5030     7.6320  -213.7900    67.2450     6.1920     7.1470     7.8080     2.1570 
  120.6250   119.1520     8.5320     7.6670  -214.1300    69.3790     5.8150     6.6670     6.9630     2.1790 
  120.7500   119.2680     8.5620     7.7020  -214.4390    71.9020     5.5890     6.3880     6.2340     2.2050 
  120.8750   119.3840     8.5910     7.7370  -214.7280    74.9280     5.5680     6.3730     6.0020     2.2110 
  121.0000   119.5010     8.6210     7.7720  -214.9490    75.2760     5.8060     6.6990     6.4940     2.1850 
  121.1250   119.6170     8.6500     7.8070  -215.0640    72.4970     6.2780     7.2820     7.2360     2.1520 
  121.2500   119.7330     8.6800     7.8430  -215.1060    69.3600     6.7230     7.7980     7.7590     2.1510 
  121.3750   119.8500     8.7090     7.8780  -215.1490    66.4930     7.0100     8.1130     9.7470     2.1980 
  121.5000   119.9660     8.7390     7.9130  -215.2770    65.2540     7.0310     8.0990    13.3710     2.2600 
  121.6250   120.0820     8.7680     7.9480  -215.4330    65.9780     6.8360     7.8480    13.8070     2.2820 
  121.7500   120.1980     8.7980     7.9840  -215.5690    68.1620     6.6220     7.6000    10.1830     2.2470 
  121.8750   120.3140     8.8270     8.0190  -215.6660    69.1680     6.4670     7.4480     7.5070     2.1960 
  122.0000   120.4310     8.8560     8.0550  -215.6480    69.4170     6.4390     7.4710     7.1570     2.1680 
