~V
VERS. 2.00: Ver 2.00
~W
STRT.M 56.0000:
STOP.M 276.0000:
STEP.M 0.1250:
NULL. -999.2500:
UWI. FD11178:
~C
DEPT.M :
TVD. :
DX. :
DY. :
SP.MV :
GR.API :
RI. :
RML.OHMM :
DEN.GM/CC :
RXO.OHMM :
~A
# ...
  101.6250   101.3740     0.2460    -4.3020    -2.9410    85.9350     3.7900     4.4440     2.1950     4.2400 
  101.7500   101.4980     0.2430    -4.3220    -3.2090    86.7610     3.8700     4.5500     2.1950     4.3000 
  101.8750   101.6210     0.2400    -4.3420    -3.6800    84.9380     3.9040     4.5780     2.2200     4.4660 
  102.0000   101.7450     0.2370    -4.3610    -4.0820    84.1790     3.8680     4.5040     2.2460     4.5020 
  102.1250   101.8680     0.2340    -4.3810    -4.4210    83.9540     3.7760     4.3600     2.2410     4.3130 
  102.2500   101.9910     0.2310    -4.4010    -4.7180    80.8980     3.6850     4.2420     2.2130     4.0340 
  102.3750   102.1150     0.2280    -4.4210    -4.6600    79.6880     3.6420     4.2210     2.1930     3.7430 
  102.5000   102.2380     0.2250    -4.4410    -4.4420    82.6240     3.6510     4.2790     2.1910     3.8540 
  102.6250   102.3610     0.2220    -4.4620    -4.4650    84.7780     3.6720     4.3180     2.1980     4.2240 
  102.7500   102.4850     0.2190    -4.4820    -4.7250    82.7050     3.6500     4.2740     2.2030     4.2800 
  102.8750   102.6080     0.2160    -4.5020    -5.3320    77.7630     3.5720     4.1480     2.2050     4.3780 
  103.0000   102.7310     0.2130    -4.5230    -5.9370    76.2600     3.5170     4.0550     2.2080     4.4660 
  103.1250   102.8550     0.2090    -4.5430    -6.6430    79.2980     3.5440     4.0830     2.2090     4.0230 
  103.2500   102.9780     0.2060    -4.5640    -7.5590    82.7030     3.6790     4.2670     2.1840     4.7670 
  103.3750   103.1010     0.2030    -4.5850    -8.3990    81.9400     3.9320     4.6220     2.1090     7.5700 
  103.5000   103.2240     0.2000    -4.6050    -9.1880    77.2980     4.2550     5.0460     2.0210     8.4920 
  103.6250   103.3470     0.1960    -4.6260   -10.3270    71.3400     4.5500     5.4040     1.9860     6.5440 
  103.7500   103.4710     0.1930    -4.6470   -11.6550    67.5760     4.7410     5.6070     2.0210     5.2590 
  103.8750   103.5940     0.1900    -4.6680   -12.6390    66.1760     4.7890     5.6240     2.0790     5.0730 
  104.0000   103.7170     0.1860    -4.6890   -13.2060    65.0960     4.7890     5.5940     2.1070     5.1530 
  104.1250   103.8400     0.1830    -4.7110   -13.3040    64.2000     4.8950     5.7260     2.1060     5.4860 
  104.2500   103.9630     0.1800    -4.7320   -13.1130    66.3090     5.1490     6.0490     2.0920     5.7020 
  104.3750   104.0860     0.1770    -4.7530   -12.9510    69.9960     5.5150     6.5150     2.0840     5.8480 
  104.5000   104.2100     0.1740    -4.7740   -12.9590    71.0760     5.9050     7.0130     2.0850     9.0570 
  104.6250   104.3330     0.1700    -4.7960   -13.2390    68.0570     6.2030     7.3610     2.0880    15.9590 
  104.7500   104.4560     0.1670    -4.8170   -13.4490    65.0350     6.3010     7.4340     2.0960    20.0140 
  104.8750   104.5790     0.1640    -4.8390   -13.3760    64.2220     6.1940     7.2460     2.1080    14.5820 
  105.0000   104.7020     0.1610    -4.8610   -13.1420    66.8140     5.9870     6.9520     2.1170     8.2400 
  105.1250   104.8250     0.1580    -4.8820   -12.9000    69.7400     5.7900     6.7060     2.1160     6.1470 
  105.2500   104.9480     0.1540    -4.9040   -13.0210    69.3780     5.7060     6.6290     2.1150     5.8140 
  105.3750   105.0710     0.1510    -4.9260   -13.2910    66.4890     5.7240     6.6860     2.1250     5.9260 
  105.5000   105.1940     0.1480    -4.9480   -13.4360    64.8770     5.7650     6.7530     2.1350     6.0800 
  105.6250   105.3170     0.1440    -4.9700   -13.6050    64.5850     5.7280     6.7070     2.1450     6.0570 
  105.7500   105.4400     0.1410    -4.9920   -13.7910    64.1430     5.6140     6.5490     2.1540     6.0430 
  105.8750   105.5630     0.1380    -5.0140   -13.8910    64.6220     5.4300     6.2960     2.1520     6.2440 
  106.0000   105.6860     0.1350    -5.0360   -14.0300    66.1510     5.2610     6.0700     2.1350     6.2410 
  106.1250   105.8090     0.1310    -5.0580   -14.2030    67.1800     5.1700     5.9570     2.1180     5.8320 
  106.2500   105.9320     0.1280    -5.0800   -14.3870    68.9200     5.1620     5.9540     2.1130     5.5240 
  106.3750   106.0550     0.1250    -5.1020   -14.5630    71.8360     5.2320     6.0500     2.1140     5.4710 
  106.5000   106.1780     0.1210    -5.1240   -14.6700    73.5070     5.3340     6.1790     2.1090     5.5760 
  106.6250   106.3010     0.1180    -5.1470   -14.7900    70.7830     5.4480     6.3160     2.0980     5.7350 
  106.7500   106.4240     0.1140    -5.1690   -14.9430    65.9640     5.5410     6.4210     2.0910     5.8000 
  106.8750   106.5470     0.1100    -5.1910   -15.1610    62.5740     5.6080     6.4910     2.0920     6.0220 
  107.0000   106.6700     0.1070    -5.2140   -15.5350    60.8630     5.6550     6.5300     2.0960     6.3980 
  107.1250   106.7930     0.1030    -5.2360   -15.9070    60.8120     5.6820     6.5450     2.0960     6.3730 
  107.2500   106.9150     0.0990    -5.2590   -16.1430    61.6830     5.7030     6.5470     2.0910     6.0350 
  107.3750   107.0380     0.0960    -5.2820   -16.3630    62.5750     5.7100     6.5240     2.0860     5.8640 
  107.5000   107.1610     0.0920    -5.3040   -16.3960    60.7940     5.7020     6.4830     2.0870     5.8730 
  107.6250   107.2840     0.0880    -5.3270   -16.1860    56.9970     5.6910     6.4480     2.0960     6.0030 
  107.7500   107.4070     0.0840    -5.3500   -15.8580    54.9910     5.6940     6.4260     2.0990     6.2970 
  107.8750   107.5300     0.0800    -5.3730   -15.4300    55.4830     5.7220     6.4290     2.0930     6.7170 
  108.0000   107.6520     0.0760    -5.3960   -15.0870    58.2610     5.7640     6.4490     2.0880     7.1840 
  108.1250   107.7750     0.0720    -5.4190   -14.6520    61.6810     5.7990     6.4610     2.0940     7.2960 
  108.2500   107.8980     0.0690    -5.4420   -14.1150    63.1430     5.7980     6.4440     2.1030     6.7420 
  108.3750   108.0210     0.0650    -5.4660   -13.5790    60.9350     5.6830     6.2820     2.1070     6.0830 
  108.5000   108.1430     0.0610    -5.4890   -12.9400    58.2710     5.4270     5.9480     2.1080     5.8210 
  108.6250   108.2660     0.0560    -5.5130   -12.1810    58.9540     5.0380     5.4630     2.1170     5.6880 
  108.7500   108.3890     0.0520    -5.5360   -11.2940    61.7230     4.5690     4.8990     2.1380     5.4590 
  108.8750   108.5120     0.0480    -5.5600   -10.3380    65.3380     4.1980     4.4830     2.1630     5.0380 
  109.0000   108.6340     0.0440    -5.5830    -9.2950    70.8960     3.9150     4.1790     2.1770     4.3370 
  109.1250   108.7570     0.0390    -5.6070    -8.1360    79.5250     3.7640     4.0360     2.1680     4.4610 
  109.2500   108.8790     0.0350    -5.6310    -7.0280    86.7660     3.7000     3.9970     2.1560     5.4590 
  109.3750   109.0020     0.0310    -5.6550    -6.3420    86.1870     3.6430     3.9430     2.1630     5.4220 
  109.5000   109.1250     0.0270    -5.6790    -6.3890    80.0700     3.5470     3.8340     2.1820     4.4430 
  109.6250   109.2470     0.0230    -5.7030    -6.8610    77.5970     3.4770     3.7550     2.1950     3.7230 
  109.7500   109.3700     0.0180    -5.7280    -7.0920    81.5330     3.4620     3.7530     2.2050     3.5450 
  109.8750   109.4920     0.0140    -5.7520    -6.9540    86.0210     3.5410     3.8860     2.2110     3.4630 
  110.0000   109.6150     0.0090    -5.7760    -6.6900    87.2840     3.6860     4.1030     2.2040     3.6140 
  110.1250   109.7370     0.0050    -5.8010    -6.5330    85.8780     3.8330     4.3160     2.1800     4.7630 
  110.2500   109.8600     0.0000    -5.8250    -6.5020    83.4800     3.9690     4.4790     2.1630     5.3780 
  110.3750   109.9820    -0.0050    -5.8500    -6.7760    82.5000     4.0800     4.5610     2.1640     4.5990 
  110.5000   110.1050    -0.0100    -5.8740    -7.4220    81.7070     4.3390     4.7970     2.1770     4.4020 
  110.6250   110.2270    -0.0150    -5.8990    -7.8350    79.6990     4.8610     5.3350     2.2080     5.0380 
