~V
VERS. 2.00: Ver 2.00
~W
STRT.M 56.0000:
STOP.M 276.0000:
STEP.M 0.1250:
NULL. -999.2500:
UWI. FD11178:
~C
DEPT.M :
TVD. :
DX. :
DY. :
SP.MV :
GR.API :
RI. :
RML.OHMM :
DEN.GM/CC :
RXO.OHMM :
~A
# ...
  238.5000   230.5950    -7.6950   -48.0330   -15.2080    65.1730     8.6040     9.1770     2.2640    12.5240 
  238.6250   230.7120    -7.7020   -48.0780   -14.3610    68.3790     8.3780     8.8360     2.3450    19.5280 
  238.7500   230.8280    -7.7100   -48.1240   -13.4290    71.2500     8.2580     8.6630     2.4050    29.3990 
  238.8750   230.9440    -7.7170   -48.1700   -12.4180    73.8960     8.5740     9.1730     2.4420    26.1650 
  239.0000   231.0600    -7.7250   -48.2150   -11.2370    76.4770     9.8160    11.0900     2.4920    19.2960 
  239.1250   231.1760    -7.7320   -48.2610    -9.8630    77.0670    12.0720    14.6030     2.5540    24.0130 
  239.2500   231.2920    -7.7400   -48.3070    -8.6210    73.1540    13.3410    16.5230     2.5960    37.3890 
  239.3750   231.4080    -7.7470   -48.3520    -7.4670    66.6940    11.7520    14.6810     2.6030    51.5470 
  239.5000   231.5240    -7.7540   -48.3980    -6.2990    61.6220     8.5960    10.6110     2.5750    54.9230 
  239.6250   231.6410    -7.7610   -48.4440    -5.0590    59.4890     4.3740     5.0530     2.4860    46.0110 
  239.7500   231.7570    -7.7690   -48.4890    -3.8940    58.3940     2.1050     2.3220     2.3600    29.1010 
  239.8750   231.8730    -7.7760   -48.5350    -2.8960    58.1640     1.2790     1.3940     2.2630    10.2790 
  240.0000   231.9890    -7.7830   -48.5810    -2.1490    62.2670     0.8800     1.0280     2.2200     1.6610 
  240.1250   232.1050    -7.7900   -48.6270    -1.6780    70.1220     0.8400     1.1570     2.2240     1.2080 
  240.2500   232.2210    -7.7980   -48.6720    -1.3100    78.8830     1.0050     1.4430     2.2590     1.2930 
  240.3750   232.3370    -7.8050   -48.7180    -1.0370    86.5690     1.3170     1.6760     2.3090     2.1290 
  240.5000   232.4530    -7.8120   -48.7640    -0.9280    91.1700     1.6140     1.9190     2.3350     3.7060 
  240.6250   232.5700    -7.8200   -48.8090    -0.8730    91.6640     1.7830     2.0730     2.3130     4.2830 
  240.7500   232.6860    -7.8270   -48.8550    -0.8140    91.9350     1.7730     2.0240     2.2760     3.2720 
  240.8750   232.8020    -7.8340   -48.9010    -0.5470    97.2010     1.6180     1.8090     2.2610     2.5090 
  241.0000   232.9180    -7.8410   -48.9470     0.0220   106.4120     1.4300     1.5890     2.2740     2.4400 
  241.1250   233.0340    -7.8480   -48.9930     0.5940   113.9340     1.2910     1.4360     2.2940     2.2620 
  241.2500   233.1500    -7.8560   -49.0380     0.9650   115.2880     1.2190     1.3610     2.3080     2.0480 
  241.3750   233.2660    -7.8630   -49.0840     1.0140   111.4860     1.1970     1.3550     2.3190     1.9710 
  241.5000   233.3820    -7.8700   -49.1300     0.9510   109.9700     1.2070     1.3850     2.3290     1.9360 
  241.6250   233.4980    -7.8770   -49.1760     0.9280   114.0010     1.2250     1.4200     2.3260     1.9190 
  241.7500   233.6140    -7.8850   -49.2220     0.9450   119.4880     1.2410     1.4480     2.3040     1.9060 
  241.8750   233.7300    -7.8930   -49.2670     0.8680   123.0980     1.2590     1.4690     2.2820     1.8310 
  242.0000   233.8460    -7.9000   -49.3130     0.7650   127.9000     1.2730     1.4800     2.2840     1.7340 
  242.1250   233.9620    -7.9080   -49.3590     0.7840   132.6330     1.3080     1.5290     2.3040     1.7370 
  242.2500   234.0790    -7.9150   -49.4050     0.7140   131.6810     1.3630     1.5640     2.3230     1.8410 
  242.3750   234.1950    -7.9230   -49.4500     0.4460   124.4690     1.4310     1.6080     2.3390     2.0630 
  242.5000   234.3110    -7.9300   -49.4960     0.1140   117.0370     1.4920     1.6750     2.3540     2.3490 
  242.6250   234.4270    -7.9380   -49.5420    -0.1070   114.2790     1.5150     1.7220     2.3550     2.5710 
  242.7500   234.5430    -7.9450   -49.5880    -0.2010   114.3780     1.5040     1.7220     2.3340     2.6100 
  242.8750   234.6590    -7.9530   -49.6340    -0.2170   114.6990     1.4730     1.7100     2.3030     2.3990 
  243.0000   234.7750    -7.9600   -49.6800    -0.1740   114.5980     1.4330     1.6990     2.2800     2.1520 
  243.1250   234.8910    -7.9680   -49.7250    -0.2470   113.1660     1.3990     1.6410     2.2770     2.0400 
  243.2500   235.0070    -7.9750   -49.7710    -0.4080   111.1570     1.3870     1.6080     2.2850     2.0970 
  243.3750   235.1230    -7.9830   -49.8170    -0.5030   108.3960     1.4040     1.6190     2.2960     2.2010 
  243.5000   235.2390    -7.9900   -49.8630    -0.5340   106.6590     1.4370     1.6510     2.3020     2.1460 
  243.6250   235.3550    -7.9980   -49.9090    -0.6070   107.1450     1.4710     1.6720     2.3010     2.0620 
  243.7500   235.4710    -8.0050   -49.9550    -0.7440   108.5540     1.4870     1.6930     2.2870     2.1740 
  243.8750   235.5870    -8.0120   -50.0010    -0.9140   107.5810     1.4800     1.7180     2.2620     2.2910 
  244.0000   235.7030    -8.0200   -50.0470    -1.1000   105.0720     1.4570     1.7230     2.2410     2.2200 
  244.1250   235.8190    -8.0270   -50.0930    -1.3040   104.3550     1.4180     1.6690     2.2380     2.1020 
  244.2500   235.9350    -8.0340   -50.1390    -1.4660   105.9230     1.3930     1.6130     2.2460     2.0590 
  244.3750   236.0510    -8.0410   -50.1850    -1.6970   107.7920     1.4260     1.6310     2.2540     2.1540 
  244.5000   236.1670    -8.0480   -50.2310    -1.9040   107.6500     1.6110     1.8330     2.2560     2.2740 
  244.6250   236.2830    -8.0550   -50.2780    -2.0600   106.2490     2.0920     2.4030     2.2590     2.2980 
  244.7500   236.3990    -8.0620   -50.3240    -2.1820   105.7520     2.9000     3.3800     2.2690     3.0890 
  244.8750   236.5150    -8.0690   -50.3700    -2.4210   103.7550     4.0590     4.7850     2.2670     5.1480 
  245.0000   236.6310    -8.0760   -50.4160    -2.8700    97.6570     5.3180     6.3270     2.2320     7.2020 
  245.1250   236.7470    -8.0830   -50.4620    -3.4870    89.8800     6.2390     7.4310     2.1810     8.3150 
  245.2500   236.8630    -8.0900   -50.5090    -4.0500    87.6070     6.6050     7.8790     2.1470     8.3070 
  245.3750   236.9780    -8.0970   -50.5550    -4.2990    90.0640     6.3470     7.3920     2.1440     7.4010 
  245.5000   237.0940    -8.1040   -50.6010    -4.1280    88.6210     5.8470     6.5900     2.1570     6.5280 
  245.6250   237.2100    -8.1120   -50.6470    -3.7040    79.9210     5.4730     6.0210     2.1700     6.2750 
  245.7500   237.3260    -8.1190   -50.6930    -3.2360    70.5790     5.4520     5.9960     2.1660     6.4510 
  245.8750   237.4420    -8.1260   -50.7390    -2.7870    65.7910     5.7500     6.4200     2.1460     7.1190 
  246.0000   237.5580    -8.1340   -50.7860    -2.3950    64.7180     6.2930     7.1870     2.1260     8.9100 
  246.1250   237.6740    -8.1410   -50.8320    -2.1800    64.6380     6.9900     8.1020     2.1180    11.1620 
  246.2500   237.7900    -8.1480   -50.8780    -2.0600    65.3090     7.6130     8.8820     2.1210    12.1750 
  246.3750   237.9060    -8.1550   -50.9240    -1.9730    66.9170     7.7640     8.9940     2.1330    12.1920 
  246.5000   238.0220    -8.1620   -50.9700    -1.8490    68.5750     7.4340     8.4850     2.1500    12.3240 
  246.6250   238.1380    -8.1690   -51.0160    -1.7340    69.4380     6.6720     7.4890     2.1660    11.8960 
  246.7500   238.2540    -8.1770   -51.0630    -1.7510    70.3670     5.9040     6.5310     2.1740    10.0730 
  246.8750   238.3700    -8.1830   -51.1090    -1.9490    73.5660     5.4370     5.9980     2.1690     7.9440 
  247.0000   238.4860    -8.1900   -51.1550    -2.1750    77.1620     5.3360     5.9220     2.1560     7.1330 
  247.1250   238.6020    -8.1970   -51.2010    -2.4340    76.0940     5.5600     6.2240     2.1390     7.2960 
  247.2500   238.7180    -8.2040   -51.2470    -2.7340    70.1300     5.9100     6.6500     2.1260     7.6100 
  247.3750   238.8340    -8.2110   -51.2930    -3.1890    65.6890     6.1950     6.9470     2.1180     8.6150 
  247.5000   238.9500    -8.2180   -51.3400    -3.6570    65.7240     6.3040     7.0110     2.1240     9.6120 
