~V
VERS. 2.00: Ver 2.00
~W
STRT.M 44.0000:
STOP.M 275.0000:
STEP.M 0.1250:
NULL. -999.2500:
UWI. FD11190:
~C
DEPT.M :
TVD. :
DX. :
DY. :
SP.MV :
GR.API :
RI. :
RML.OHMM :
RXO.OHMM :
DEN.GM/CC :
~A
# ...
  144.3750   140.9130   -19.1550   -10.3160    -9.9930    85.6560     2.9150     3.2030     3.3050     2.2520 
  144.5000   141.0270   -19.1970   -10.3420   -10.5550    88.3280     3.0150     3.3380     3.3940     2.2170 
  144.6250   141.1420   -19.2400   -10.3670   -11.0130    88.5290     3.1610     3.5620     3.7760     2.1960 
  144.7500   141.2560   -19.2830   -10.3930   -11.4350    85.0090     3.4200     3.9280     4.8430     2.1890 
  144.8750   141.3710   -19.3260   -10.4190   -11.8690    81.1140     3.8490     4.4570     7.2050     2.1870 
  145.0000   141.4850   -19.3690   -10.4450   -12.2390    78.1630     4.3900     5.0800    10.5210     2.1750 
  145.1250   141.6000   -19.4120   -10.4710   -12.5250    75.6160     4.9800     5.6840    13.9480     2.1530 
  145.2500   141.7140   -19.4550   -10.4970   -12.8240    72.2470     5.4460     6.1530    15.4200     2.1320 
  145.3750   141.8290   -19.4980   -10.5230   -13.1200    69.7070     5.6920     6.3830    12.8540     2.1210 
  145.5000   141.9430   -19.5410   -10.5490   -13.5070    67.2790     5.7120     6.3850     8.6890     2.1210 
  145.6250   142.0580   -19.5840   -10.5750   -13.8940    66.0160     5.5650     6.2090     6.3340     2.1300 
  145.7500   142.1720   -19.6270   -10.6010   -14.2470    67.4110     5.3580     5.9780     5.8500     2.1460 
  145.8750   142.2870   -19.6710   -10.6270   -14.5520    70.5360     5.1900     5.8110     5.8850     2.1570 
  146.0000   142.4010   -19.7140   -10.6520   -14.7300    71.8910     5.1190     5.7570     5.8680     2.1570 
  146.1250   142.5150   -19.7570   -10.6780   -14.7480    71.5070     5.1300     5.8420     5.9850     2.1460 
  146.2500   142.6300   -19.8000   -10.7040   -14.7010    72.6350     5.1980     6.0670     6.2150     2.1320 
  146.3750   142.7440   -19.8430   -10.7300   -14.6170    74.3930     5.4030     6.4070     6.3830     2.1340 
  146.5000   142.8590   -19.8860   -10.7560   -14.4480    75.0340     5.7020     6.7470     6.5910     2.1590 
  146.6250   142.9730   -19.9290   -10.7810   -14.2500    73.6160     5.9560     6.9300     7.4440     2.2000 
  146.7500   143.0880   -19.9730   -10.8070   -14.1000    71.9220     6.0690     6.8660     8.5030     2.2260 
  146.8750   143.2020   -20.0160   -10.8330   -14.0190    70.2190     5.9060     6.5500     8.1990     2.2200 
  147.0000   143.3160   -20.0590   -10.8590   -13.9890    68.9630     5.5390     6.1160     6.7510     2.1940 
  147.1250   143.4310   -20.1020   -10.8850   -14.0120    68.5290     5.1450     5.7110     5.6690     2.1770 
  147.2500   143.5450   -20.1450   -10.9110   -14.0480    69.2290     4.7960     5.4310     5.3510     2.1780 
  147.3750   143.6600   -20.1880   -10.9370   -14.0790    69.4920     4.6170     5.3220     5.2360     2.1820 
  147.5000   143.7740   -20.2320   -10.9630   -14.1280    67.7140     4.6000     5.3490     5.0820     2.1740 
  147.6250   143.8890   -20.2750   -10.9890   -14.2150    66.3150     4.6900     5.4440     5.2610     2.1550 
  147.7500   144.0030   -20.3180   -11.0150   -14.2920    66.5630     4.7940     5.5500     5.7960     2.1380 
  147.8750   144.1170   -20.3610   -11.0410   -14.3820    68.1300     4.8780     5.6300     6.0920     2.1310 
  148.0000   144.2320   -20.4040   -11.0670   -14.4960    69.9220     4.9200     5.6650     5.9490     2.1340 
  148.1250   144.3460   -20.4470   -11.0930   -14.6840    69.9570     4.9070     5.6370     5.7080     2.1430 
  148.2500   144.4610   -20.4900   -11.1190   -14.9080    66.0830     4.8520     5.5600     5.5180     2.1570 
  148.3750   144.5750   -20.5330   -11.1450   -15.1410    62.5770     4.7710     5.4680     5.4720     2.1720 
  148.5000   144.6890   -20.5760   -11.1710   -15.2210    65.3800     4.7030     5.3970     5.6840     2.1810 
  148.6250   144.8040   -20.6190   -11.1970   -15.1690    71.7400     4.6760     5.3600     5.8900     2.1770 
  148.7500   144.9180   -20.6620   -11.2230   -15.0700    72.2810     4.6630     5.3340     5.8690     2.1640 
  148.8750   145.0330   -20.7060   -11.2490   -14.9660    66.4820     4.6590     5.2920     5.7810     2.1530 
  149.0000   145.1470   -20.7490   -11.2750   -14.9120    61.3770     4.6500     5.2240     5.6610     2.1500 
  149.1250   145.2620   -20.7920   -11.3010   -14.8820    60.7010     4.6260     5.1410     5.4660     2.1520 
  149.2500   145.3760   -20.8350   -11.3270   -14.9000    62.1470     4.5950     5.0700     5.3270     2.1510 
  149.3750   145.4900   -20.8780   -11.3530   -14.9270    61.5340     4.5770     5.0500     5.3040     2.1440 
  149.5000   145.6050   -20.9210   -11.3790   -14.8940    58.5680     4.6030     5.1100     5.3290     2.1350 
  149.6250   145.7190   -20.9640   -11.4050   -14.7740    57.7640     4.7090     5.2650     5.3990     2.1300 
  149.7500   145.8340   -21.0070   -11.4310   -14.5530    60.7750     4.9100     5.4400     5.5080     2.1320 
  149.8750   145.9480   -21.0500   -11.4570   -14.2940    65.3420     5.0690     5.4690     5.5890     2.1510 
  150.0000   146.0630   -21.0930   -11.4830   -13.9910    67.5730     5.0180     5.2120     5.7760     2.1960 
  150.1250   146.1770   -21.1370   -11.5090   -13.5870    67.2260     4.6310     4.6170     6.0270     2.2610 
  150.2500   146.2910   -21.1800   -11.5350   -13.0430    68.4690     3.9430     3.8590     5.5190     2.3070 
  150.3750   146.4060   -21.2230   -11.5600   -12.3560    73.7180     3.2340     3.1850     4.0800     2.3160 
  150.5000   146.5200   -21.2660   -11.5860   -11.5760    82.0240     2.7190     2.7920     2.9400     2.3140 
  150.6250   146.6350   -21.3100   -11.6120   -10.8110    89.9820     2.5280     2.7450     2.8500     2.3210 
  150.7500   146.7490   -21.3530   -11.6370   -10.2010    92.8000     2.6180     2.9590     3.7360     2.3150 
  150.8750   146.8640   -21.3960   -11.6630    -9.7810    90.3060     2.8740     3.3060     4.8860     2.2780 
  151.0000   146.9780   -21.4390   -11.6890    -9.5270    85.1460     3.2360     3.6440     5.0760     2.2390 
  151.1250   147.0920   -21.4820   -11.7150    -9.4620    81.9080     3.5060     3.8540     4.5120     2.2250 
  151.2500   147.2070   -21.5260   -11.7400    -9.5390    81.9480     3.6620     3.9100     4.5140     2.2230 
  151.3750   147.3210   -21.5690   -11.7660    -9.6960    84.8660     3.6430     3.9100     5.0560     2.2210 
  151.5000   147.4360   -21.6120   -11.7920    -9.7670    86.8400     3.6400     4.0420     5.5040     2.2340 
  151.6250   147.5500   -21.6550   -11.8180    -9.7490    83.3150     3.9320     4.4680     6.0060     2.2890 
  151.7500   147.6650   -21.6980   -11.8440    -9.7180    77.5550     4.5070     5.1430     7.4580     2.3830 
  151.8750   147.7790   -21.7410   -11.8690    -9.7350    74.0570     5.2670     5.9110    10.4440     2.4730 
  152.0000   147.8930   -21.7850   -11.8950    -9.7560    73.3630     5.9970     6.5620    12.5100     2.5200 
  152.1250   148.0080   -21.8280   -11.9210    -9.7130    71.5210     6.4950     6.9390    11.4430     2.5290 
  152.2500   148.1220   -21.8710   -11.9460    -9.5980    69.6750     6.6970     7.0550     9.5130     2.5380 
  152.3750   148.2370   -21.9150   -11.9710    -9.4090    68.3700     6.6720     7.0100     9.4640     2.5590 
  152.5000   148.3510   -21.9580   -11.9960    -9.2740    64.9640     6.5530     6.9830    10.3280     2.5740 
  152.6250   148.4660   -22.0020   -12.0220    -9.2580    58.1280     6.5610     7.0550    10.2100     2.5700 
  152.7500   148.5800   -22.0450   -12.0470    -9.2550    50.2780     6.6710     7.1570     9.8270     2.5580 
  152.8750   148.6950   -22.0880   -12.0730    -9.2590    47.1010     6.7650     7.1470    11.7500     2.5470 
  153.0000   148.8090   -22.1310   -12.0990    -9.3040    48.0210     6.6980     7.0030    15.2100     2.5440 
  153.1250   148.9240   -22.1750   -12.1240    -9.4400    49.3300     6.5160     6.8100    14.6940     2.5480 
  153.2500   149.0380   -22.2180   -12.1500    -9.6070    48.8130     6.3720     6.7030    10.7050     2.5500 
  153.3750   149.1520   -22.2610   -12.1760    -9.7160    49.2970     6.3490     6.7270     9.4310     2.5450 
