~V
VERS. 2.00: Ver 2.00
~W
STRT.M 10.0000:
STOP.M 249.0000:
STEP.M 0.1250:
NULL. -999.2500:
UWI. FD11114:
~C
DEPT.M :
TVD. :
DX. :
DY. :
GR.API :
RML.OHMM :
RI. :
RXO.OHMM :
CALI.CM :
SP.MV :
DEN.GM/CC :
~A
# ...
  199.7500   196.6530    21.7830    -3.4000    81.0220     9.6280     7.7880     7.3680    24.1100   -21.1820     2.3840 
  199.8750   196.7700    21.8290    -3.4070    84.5970     9.6150     7.8030     7.2890    24.1790   -21.1190     2.3830 
  200.0000   196.8860    21.8740    -3.4150    86.3690     9.5320     7.7530     7.3050    24.2140   -21.0560     2.3810 
  200.1250   197.0020    21.9190    -3.4220    85.7970     9.5400     7.7370     7.7130    24.2260   -20.9850     2.3760 
  200.2500   197.1190    21.9640    -3.4290    85.0640     9.9630     7.9700     8.0370    24.2330   -20.9060     2.3690 
  200.3750   197.2350    22.0100    -3.4360    84.9680    11.0120     8.6180     8.6630    24.2370   -20.8270     2.3710 
  200.5000   197.3510    22.0560    -3.4430    83.4680    12.8760     9.8380     9.4210    24.2360   -20.7560     2.3830 
  200.6250   197.4670    22.1020    -3.4490    78.5270    15.6790    11.7620    11.1540    24.2380   -20.6960     2.3950 
  200.7500   197.5830    22.1480    -3.4560    72.4240    19.4320    14.5290    14.4290    24.2400   -20.6360     2.3870 
  200.8750   197.6990    22.1930    -3.4630    68.5620    23.3050    17.6470    18.9830    24.2420   -20.5610     2.3580 
  201.0000   197.8150    22.2390    -3.4700    67.3460    26.1570    20.3060    20.5990    24.2430   -20.4740     2.3160 
  201.1250   197.9310    22.2850    -3.4770    68.2930    26.9750    21.6120    18.6160    24.2440   -20.3670     2.2800 
  201.2500   198.0470    22.3310    -3.4830    71.6140    25.5140    21.0780    16.6780    24.2430   -20.2470     2.2650 
  201.3750   198.1630    22.3770    -3.4900    73.2630    23.3360    19.7130    15.5650    24.2420   -20.1300     2.2640 
  201.5000   198.2790    22.4230    -3.4970    71.6590    21.5940    18.3940    14.4520    24.2410   -20.0290     2.2670 
  201.6250   198.3960    22.4680    -3.5040    69.7260    20.9170    17.7000    13.2940    24.2410   -19.9620     2.2660 
  201.7500   198.5120    22.5140    -3.5110    69.9030    21.6080    17.9910    13.5450    24.2430   -19.9500     2.2610 
  201.8750   198.6280    22.5600    -3.5170    69.5090    23.3050    19.1040    15.2180    24.2520   -19.9780     2.2570 
  202.0000   198.7440    22.6060    -3.5240    66.3970    25.7750    20.9250    16.9190    24.2710   -20.0260     2.2600 
  202.1250   198.8600    22.6520    -3.5310    63.1720    28.6820    23.2380    19.4470    24.2970   -20.0720     2.2700 
  202.2500   198.9760    22.6980    -3.5380    61.2160    31.5190    25.6700    21.5840    24.3190   -20.0950     2.2800 
  202.3750   199.0920    22.7430    -3.5450    61.9970    33.8170    27.7820    23.0280    24.3310   -20.0810     2.2850 
  202.5000   199.2080    22.7890    -3.5520    64.7370    35.2960    29.2990    24.4450    24.3340   -20.0360     2.2820 
  202.6250   199.3240    22.8350    -3.5580    67.4520    35.8170    30.0610    24.7880    24.3330   -19.9640     2.2730 
  202.7500   199.4400    22.8810    -3.5650    66.4520    35.2040    29.8720    22.9810    24.2920   -19.8700     2.2610 
  202.8750   199.5560    22.9270    -3.5720    62.8870    33.7210    28.9120    20.8810    24.2090   -19.7740     2.2500 
  203.0000   199.6730    22.9730    -3.5790    60.8050    31.5890    27.3340    19.0250    24.1250   -19.6870     2.2440 
  203.1250   199.7890    23.0180    -3.5860    62.9630    29.1900    25.4320    18.1620    24.0840   -19.6170     2.2430 
  203.2500   199.9050    23.0640    -3.5920    66.0780    27.0640    23.6370    17.6390    24.0880   -19.5730     2.2410 
  203.3750   200.0210    23.1100    -3.5990    65.6400    25.4900    22.2280    16.8440    24.0920   -19.5540     2.2390 
  203.5000   200.1370    23.1560    -3.6060    64.3240    24.4820    21.2640    16.2640    24.0900   -19.5570     2.2440 
  203.6250   200.2530    23.2020    -3.6130    65.2130    23.8220    20.6250    16.7040    24.0870   -19.5870     2.2650 
  203.7500   200.3690    23.2480    -3.6200    67.0340    23.1390    20.0620    17.9520    24.0860   -19.6520     2.3070 
  203.8750   200.4850    23.2930    -3.6270    67.2610    22.1970    19.3590    17.4010    24.0900   -19.7390     2.3470 
  204.0000   200.6010    23.3390    -3.6330    66.7040    21.0580    18.5240    15.7530    24.0960   -19.8510     2.3650 
  204.1250   200.7170    23.3850    -3.6400    66.4530    19.9820    17.7090    13.9020    24.1020   -19.9780     2.3540 
  204.2500   200.8340    23.4310    -3.6470    64.4480    19.3450    17.1760    13.1570    24.1070   -20.1140     2.3250 
  204.3750   200.9500    23.4770    -3.6540    61.8540    19.2350    17.0190    13.4890    24.1110   -20.2480     2.2970 
  204.5000   201.0660    23.5230    -3.6610    60.5910    19.5820    17.2300    14.2020    24.1130   -20.3740     2.2790 
  204.6250   201.1820    23.5680    -3.6670    61.6600    20.1610    17.6780    14.7370    24.1170   -20.4840     2.2710 
  204.7500   201.2980    23.6140    -3.6740    64.3460    20.6500    18.1380    15.3870    24.1220   -20.5750     2.2700 
  204.8750   201.4140    23.6600    -3.6810    66.6780    20.8940    18.4460    15.5880    24.1290   -20.6520     2.2710 
  205.0000   201.5300    23.7060    -3.6880    67.1260    20.9490    18.5990    15.2880    24.1420   -20.7050     2.2750 
  205.1250   201.6460    23.7520    -3.6950    65.7450    20.9820    18.7010    14.5890    24.1690   -20.7340     2.2820 
  205.2500   201.7620    23.7980    -3.7020    64.0670    21.1750    18.8870    14.0880    24.2440   -20.7280     2.2950 
  205.3750   201.8780    23.8430    -3.7080    62.7640    21.5200    19.1840    14.5450    24.3530   -20.6830     2.3110 
  205.5000   201.9940    23.8890    -3.7150    61.0360    21.9130    19.5340    15.8090    24.4470   -20.6070     2.3190 
  205.6250   202.1110    23.9350    -3.7220    59.6450    22.2280    19.8490    16.0750    24.4870   -20.5130     2.3140 
  205.7500   202.2270    23.9810    -3.7290    62.0500    22.3530    20.0370    14.5430    24.4860   -20.4180     2.3010 
  205.8750   202.3430    24.0270    -3.7360    66.0920    22.3010    20.0840    13.4100    24.4730   -20.3370     2.2970 
  206.0000   202.4590    24.0730    -3.7420    66.9980    22.0970    19.9930    13.1700    24.4450   -20.2790     2.3100 
  206.1250   202.5750    24.1180    -3.7490    63.3130    21.7770    19.7880    13.2140    24.4080   -20.2530     2.3350 
  206.2500   202.6910    24.1640    -3.7560    59.8510    21.3540    19.4820    12.9810    24.3860   -20.2640     2.3490 
  206.3750   202.8070    24.2100    -3.7630    61.2220    20.8690    19.1180    12.2510    24.3800   -20.3060     2.3420 
  206.5000   202.9230    24.2560    -3.7700    65.5140    20.3890    18.7450    11.9300    24.3790   -20.3720     2.3190 
  206.6250   203.0390    24.3020    -3.7770    67.6290    20.0020    18.4340    11.9420    24.3840   -20.4560     2.2960 
  206.7500   203.1550    24.3480    -3.7830    66.0990    19.7800    18.2510    11.9100    24.4010   -20.5560     2.2840 
  206.8750   203.2710    24.3940    -3.7900    65.0090    19.6810    18.1740    12.6480    24.4220   -20.6700     2.2790 
  207.0000   203.3880    24.4390    -3.7970    64.4450    19.6560    18.1730    14.1070    24.4340   -20.8060     2.2710 
  207.1250   203.5040    24.4850    -3.8040    64.2020    19.6620    18.2180    14.8160    24.4350   -20.9530     2.2570 
  207.2500   203.6200    24.5320    -3.8100    64.5580    19.6860    18.2930    14.5600    24.4350   -21.1160     2.2420 
  207.3750   203.7350    24.5780    -3.8170    65.4190    19.7330    18.3970    13.8760    24.4370   -21.2820     2.2340 
  207.5000   203.8510    24.6240    -3.8240    64.5950    19.8000    18.5270    13.6880    24.4360   -21.4530     2.2380 
  207.6250   203.9670    24.6710    -3.8300    63.0470    19.8500    18.6560    13.4690    24.4420   -21.6310     2.2520 
  207.7500   204.0830    24.7170    -3.8370    64.8850    19.8400    18.7420    12.7080    24.4730   -21.8120     2.2670 
  207.8750   204.1990    24.7640    -3.8430    66.9650    19.8220    18.8050    12.5660    24.5070   -21.9870     2.2730 
