~V
VERS. 2.00: Ver 2.00
~W
STRT.M 50.0000:
STOP.M 268.0000:
STEP.M 0.1250:
NULL. -999.2500:
UWI. FD11187:
~C
DEPT.M :
TVD. :
DX. :
DY. :
SP.MV :
GR.API :
RI. :
RML.OHMM :
RXO.OHMM :
DEN.GM/CC :
~A
# ...
  214.2500   206.5600    38.6720   -10.9890    -8.6670    84.6130     2.3130     3.0500     4.5940     2.3500 
  214.3750   206.6710    38.7290   -10.9980    -8.7960    84.6090     2.5850     3.4100     4.9440     2.3390 
  214.5000   206.7820    38.7860   -11.0070    -8.9050    83.3050     2.7780     3.6490     5.3190     2.3340 
  214.6250   206.8930    38.8430   -11.0160    -9.0810    79.6690     3.0610     4.0190     5.7670     2.3520 
  214.7500   207.0030    38.9000   -11.0240    -9.1960    77.0090     3.2010     4.2170     6.1020     2.3850 
  214.8750   207.1140    38.9570   -11.0330    -9.3500    74.9540     3.2170     4.2300     6.7100     2.4090 
  215.0000   207.2250    39.0140   -11.0410    -9.4310    75.2600     2.9570     3.8560     7.0230     2.3960 
  215.1250   207.3360    39.0710   -11.0500    -9.5080    77.6680     2.3570     2.9940     6.8370     2.3480 
  215.2500   207.4470    39.1280   -11.0590    -9.5270    76.9800     1.9280     2.3880     6.0290     2.3240 
  215.3750   207.5580    39.1860   -11.0680    -9.5110    70.4080     1.4180     1.7110     4.2460     2.3040 
  215.5000   207.6690    39.2430   -11.0760    -9.4780    65.2100     1.2710     1.5400     3.2370     2.3060 
  215.6250   207.7790    39.3000   -11.0850    -9.4170    60.7070     1.1830     1.4500     2.6260     2.3260 
  215.7500   207.8900    39.3570   -11.0940    -9.3800    58.8280     1.1730     1.4580     2.7330     2.3360 
  215.8750   208.0010    39.4140   -11.1030    -9.3530    56.4860     1.2260     1.5380     3.0620     2.3340 
  216.0000   208.1120    39.4720   -11.1120    -9.3630    56.9950     1.2670     1.5840     3.0610     2.3310 
  216.1250   208.2220    39.5290   -11.1210    -9.4360    61.4850     1.3020     1.6070     2.5850     2.3440 
  216.2500   208.3330    39.5860   -11.1300    -9.5340    66.5620     1.3030     1.5920     2.3770     2.3590 
  216.3750   208.4440    39.6440   -11.1390    -9.7630    74.0700     1.2780     1.5400     2.5430     2.3690 
  216.5000   208.5540    39.7010   -11.1480    -9.9640    77.0630     1.2520     1.4960     2.7480     2.3640 
  216.6250   208.6650    39.7590   -11.1580   -10.3020    76.3730     1.2110     1.4400     2.8730     2.3540 
  216.7500   208.7750    39.8160   -11.1670   -10.5230    74.7380     1.1890     1.4130     2.6540     2.3500 
  216.8750   208.8860    39.8740   -11.1760   -10.8040    74.3550     1.1790     1.4040     2.3890     2.3380 
  217.0000   208.9970    39.9320   -11.1850   -10.9480    75.0870     1.1800     1.4120     2.5260     2.3260 
  217.1250   209.1070    39.9890   -11.1940   -11.1100    73.5540     1.1840     1.4140     2.6750     2.3190 
  217.2500   209.2180    40.0470   -11.2020   -11.2010    71.7190     1.1870     1.4090     2.6170     2.3170 
  217.3750   209.3280    40.1050   -11.2110   -11.3580    72.1730     1.2140     1.4240     2.4850     2.3030 
  217.5000   209.4390    40.1630   -11.2190   -11.5050    75.0160     1.2900     1.5030     2.3940     2.2860 
  217.6250   209.5490    40.2210   -11.2280   -11.8180    78.1650     1.5010     1.7620     2.5270     2.2700 
  217.7500   209.6600    40.2780   -11.2360   -12.0850    76.9080     1.7250     2.0360     3.1440     2.2740 
  217.8750   209.7700    40.3360   -11.2450   -12.5280    71.8590     2.1080     2.4900     5.1650     2.2800 
  218.0000   209.8810    40.3940   -11.2530   -12.8110    67.9970     2.3100     2.7070     6.5720     2.2750 
  218.1250   209.9910    40.4520   -11.2620   -13.1700    64.6860     2.3970     2.7460     6.6780     2.2690 
  218.2500   210.1010    40.5100   -11.2710   -13.3660    63.8100     2.3010     2.5880     5.4440     2.2730 
  218.3750   210.2120    40.5680   -11.2800   -13.6510    64.7810     2.0770     2.2900     4.0640     2.2850 
  218.5000   210.3230    40.6250   -11.2890   -13.8840    66.1680     1.9640     2.1510     4.0400     2.2870 
  218.6250   210.4330    40.6830   -11.2970   -14.3650    68.0170     1.9620     2.1640     4.1430     2.2800 
  218.7500   210.5440    40.7410   -11.3060   -14.7830    67.4270     2.0600     2.2990     4.1270     2.2700 
  218.8750   210.6540    40.7980   -11.3150   -15.5030    65.3490     2.2810     2.5830     4.9550     2.2480 
  219.0000   210.7650    40.8560   -11.3240   -15.9860    64.6700     2.4460     2.7810     5.9940     2.2400 
  219.1250   210.8750    40.9130   -11.3340   -16.6060    67.1110     2.6460     2.9920     6.8120     2.2410 
  219.2500   210.9860    40.9710   -11.3430   -16.9040    69.2240     2.7080     3.0220     6.5660     2.2420 
  219.3750   211.0970    41.0280   -11.3520   -17.1600    69.2480     2.7980     3.0480     5.8740     2.2440 
  219.5000   211.2070    41.0860   -11.3610   -17.2220    67.9530     2.9110     3.1280     5.4750     2.2570 
  219.6250   211.3180    41.1430   -11.3700   -17.2160    65.8590     3.3270     3.5420     5.5940     2.3000 
  219.7500   211.4290    41.2000   -11.3790   -17.1840    64.7520     3.7920     4.0450     7.2390     2.3380 
  219.8750   211.5400    41.2570   -11.3880   -17.1320    61.6230     4.9270     5.3030    13.1790     2.3700 
  220.0000   211.6500    41.3150   -11.3970   -17.1010    59.3800     5.9530     6.4060    17.1980     2.3590 
  220.1250   211.7610    41.3720   -11.4070   -17.0490    56.4530     7.5610     8.0820    20.3570     2.3040 
  220.2500   211.8720    41.4290   -11.4160   -17.0020    54.8700     8.5440     9.0430    21.9540     2.2720 
  220.3750   211.9830    41.4860   -11.4250   -16.9040    54.4180     9.4950     9.8960    20.4110     2.2400 
  220.5000   212.0940    41.5430   -11.4340   -16.8190    55.0320     9.8850    10.2240    16.5220     2.2100 
  220.6250   212.2050    41.6000   -11.4430   -16.6670    55.6810    10.5200    10.8260    12.9710     2.1550 
  220.7500   212.3160    41.6560   -11.4520   -16.5570    54.9080    11.0810    11.3980    11.6180     2.1400 
  220.8750   212.4270    41.7130   -11.4600   -16.3960    53.0500    12.0620    12.4120     9.9770     2.1710 
  221.0000   212.5380    41.7700   -11.4690   -16.3010    53.4230    12.6560    13.0090    10.2190     2.2030 
  221.1250   212.6490    41.8270   -11.4770   -16.1890    56.8330    13.2240    13.5230    12.0230     2.2170 
  221.2500   212.7600    41.8840   -11.4860   -16.1370    57.8770    13.3550    13.5920    13.1160     2.1970 
  221.3750   212.8710    41.9400   -11.4940   -16.0890    56.2960    13.2230    13.3360    12.5420     2.1600 
  221.5000   212.9820    41.9970   -11.5030   -16.0710    55.2310    13.0030    13.0680    11.2740     2.1440 
  221.6250   213.0930    42.0530   -11.5110   -16.0580    55.7880    12.7120    12.7380    10.3470     2.1340 
  221.7500   213.2040    42.1090   -11.5200   -16.0570    56.3970    12.6470    12.6680    10.6960     2.1290 
  221.8750   213.3160    42.1660   -11.5280   -16.0760    56.3100    12.7000    12.6640    11.6630     2.1270 
  222.0000   213.4270    42.2220   -11.5370   -16.1080    56.5120    12.6560    12.5560    11.9850     2.1240 
  222.1250   213.5390    42.2780   -11.5450   -16.1910    57.7520    12.4460    12.2270    11.9820     2.1140 
  222.2500   213.6500    42.3340   -11.5540   -16.2680    59.1490    12.2520    11.9530    11.5960     2.1120 
  222.3750   213.7610    42.3900   -11.5620   -16.3990    58.4450    11.9630    11.5840    10.8890     2.1230 
  222.5000   213.8730    42.4460   -11.5700   -16.4820    57.5630    11.7980    11.3810    10.9510     2.1300 
  222.6250   213.9840    42.5020   -11.5780   -16.5800    57.5000    11.5100    11.0410    11.5150     2.1260 
  222.7500   214.0960    42.5580   -11.5870   -16.6250    58.6130    11.2870    10.7870    11.7940     2.1200 
  222.8750   214.2080    42.6130   -11.5950   -16.6670    58.6380    10.9410    10.3910    11.4280     2.1270 
  223.0000   214.3190    42.6690   -11.6030   -16.6870    57.4950    10.7260    10.1570    10.5630     2.1400 
  223.1250   214.4310    42.7250   -11.6120   -16.7120    56.9360    10.3820     9.8010    11.4490     2.1520 
  223.2500   214.5420    42.7800   -11.6200   -16.7240    57.8320    10.1260     9.5600    14.1400     2.1520 
