~V
VERS. 2.00: Ver 2.00
~W
STRT.M 30.0000:
STOP.M 284.0000:
STEP.M 0.1250:
NULL. -999.2500:
UWI. FD11172:
~C
DEPT.M :
TVD. :
DX. :
DY. :
SP.MV :
GR.API :
RI. :
RML.OHMM :
RXO.OHMM :
DEN.GM/CC :
~A
# ...
  230.7500   216.4590    63.8910    20.7970    -2.4520    90.7980     5.1580     5.8480     5.2540     2.3550 
  230.8750   216.5680    63.9490    20.8180    -2.3980    90.1050     5.3980     6.0540     5.1500     2.3590 
  231.0000   216.6770    64.0060    20.8400    -2.3690    89.5190     5.8990     6.5520     5.1620     2.3600 
  231.1250   216.7860    64.0630    20.8610    -2.4660    87.5100     6.7170     7.4060     5.3070     2.3580 
  231.2500   216.8950    64.1200    20.8830    -2.7580    84.4430     7.9060     8.6170     6.0590     2.3570 
  231.3750   217.0040    64.1770    20.9040    -3.2530    82.6200     9.4170    10.2020     7.7340     2.3550 
  231.5000   217.1140    64.2340    20.9250    -3.8550    81.3780    11.2470    12.0590     9.4140     2.3440 
  231.6250   217.2230    64.2900    20.9470    -4.4860    78.9710    12.9490    13.7470    12.2070     2.3200 
  231.7500   217.3320    64.3470    20.9680    -5.1090    75.5380    13.9240    14.6430    18.2250     2.2940 
  231.8750   217.4410    64.4040    20.9890    -5.7180    72.3810    13.5990    14.3010    25.5140     2.2770 
  232.0000   217.5500    64.4610    21.0110    -6.3400    70.0100    12.4860    13.1670    29.2240     2.2740 
  232.1250   217.6600    64.5180    21.0320    -7.0320    69.5200    11.3750    12.1320    25.7450     2.2880 
  232.2500   217.7690    64.5750    21.0530    -7.8430    70.8420    11.2110    12.2050    17.4940     2.3100 
  232.3750   217.8780    64.6320    21.0740    -8.8550    73.0020    13.3590    14.6090    11.7960     2.3130 
  232.5000   217.9870    64.6890    21.0950   -10.0450    72.5100    18.1710    20.0250    14.5620     2.2870 
  232.6250   218.0970    64.7460    21.1160   -11.2730    70.2360    25.9480    28.7850    26.2390     2.2420 
  232.7500   218.2060    64.8030    21.1380   -12.3910    67.0520    35.7920    39.6220    39.6720     2.2080 
  232.8750   218.3150    64.8600    21.1590   -13.3670    63.3460    45.8600    50.2170    62.5880     2.1960 
  233.0000   218.4250    64.9160    21.1800   -14.2220    60.4350    53.6350    57.8900    78.8260     2.1880 
  233.1250   218.5340    64.9730    21.2010   -14.9240    60.7180    57.5670    61.4160    75.0740     2.1790 
  233.2500   218.6430    65.0300    21.2220   -15.4900    63.0180    58.3310    61.7280    70.0610     2.1730 
  233.3750   218.7520    65.0870    21.2430   -15.9420    63.9380    56.9390    60.2440    67.6140     2.1710 
  233.5000   218.8620    65.1440    21.2640   -16.3170    63.0740    55.4060    58.7090    66.7950     2.1710 
  233.6250   218.9710    65.2010    21.2850   -16.6200    62.7760    54.3030    57.7480    65.6500     2.1710 
  233.7500   219.0800    65.2580    21.3060   -16.8550    62.7830    53.8390    57.6960    63.4850     2.1710 
  233.8750   219.1890    65.3150    21.3270   -17.0450    63.2700    54.8370    59.2610    60.7970     2.1700 
  234.0000   219.2990    65.3720    21.3480   -17.2740    64.0370    57.1490    62.4020    59.5060     2.1700 
  234.1250   219.4080    65.4290    21.3690   -17.5710    64.2550    61.0120    66.9300    60.3530     2.1720 
  234.2500   219.5170    65.4870    21.3910   -17.8610    63.7730    65.7570    72.1040    62.3130     2.1750 
  234.3750   219.6260    65.5440    21.4120   -18.0740    63.6510    71.1550    77.1630    66.9840     2.1760 
  234.5000   219.7350    65.6010    21.4330   -18.2170    63.6670    75.6230    80.8520    76.0090     2.1680 
  234.6250   219.8440    65.6580    21.4540   -18.3110    61.5910    77.5450    82.0080    88.1910     2.1550 
  234.7500   219.9530    65.7150    21.4760   -18.4220    57.9490    77.0600    80.7990    98.3070     2.1490 
  234.8750   220.0620    65.7730    21.4970   -18.6670    55.5450    74.0330    77.4250    97.6360     2.1530 
  235.0000   220.1710    65.8300    21.5180   -19.0540    55.7550    69.9900    73.1260    86.5020     2.1530 
  235.1250   220.2800    65.8870    21.5400   -19.4710    57.1400    65.8760    68.7380    74.7930     2.1460 
  235.2500   220.3890    65.9440    21.5610   -19.8200    57.9720    61.9180    64.7300    68.1940     2.1420 
  235.3750   220.4980    66.0020    21.5830   -20.1200    57.8520    59.1090    61.9170    65.5900     2.1500 
  235.5000   220.6070    66.0590    21.6050   -20.4150    59.2810    57.7840    60.5990    63.7050     2.1630 
  235.6250   220.7160    66.1160    21.6270   -20.7080    65.0250    57.9290    60.7590    60.3010     2.1660 
  235.7500   220.8250    66.1730    21.6480   -21.0160    69.5470    59.0880    62.0070    57.0460     2.1600 
  235.8750   220.9340    66.2310    21.6700   -21.3690    67.6460    61.1110    64.2310    57.6690     2.1520 
  236.0000   221.0430    66.2880    21.6910   -21.7220    61.9950    63.8450    67.0880    62.9280     2.1500 
  236.1250   221.1520    66.3450    21.7130   -21.9630    58.9840    66.3970    69.7350    69.6070     2.1510 
  236.2500   221.2610    66.4030    21.7350   -22.0430    61.5720    67.9490    71.4010    73.2120     2.1490 
  236.3750   221.3700    66.4600    21.7560   -22.0110    64.5290    68.2250    71.7780    72.3100     2.1430 
  236.5000   221.4790    66.5170    21.7770   -21.9890    65.6600    67.5180    71.3080    69.0140     2.1360 
  236.6250   221.5880    66.5740    21.7990   -22.0410    63.6620    66.8280    70.8290    65.2390     2.1360 
  236.7500   221.6970    66.6320    21.8210   -22.1360    61.0320    66.6980    70.8480    62.6580     2.1450 
  236.8750   221.8060    66.6890    21.8420   -22.2520    61.1950    67.0230    71.3160    62.1940     2.1540 
  237.0000   221.9150    66.7460    21.8640   -22.3830    63.7340    67.4770    71.8900    62.8240     2.1490 
  237.1250   222.0240    66.8030    21.8860   -22.5000    64.6620    67.7270    72.1750    63.9490     2.1350 
  237.2500   222.1330    66.8600    21.9070   -22.5740    63.5860    67.4170    71.8780    64.8800     2.1270 
  237.3750   222.2430    66.9170    21.9290   -22.5960    62.7590    66.5720    71.0160    64.4610     2.1280 
  237.5000   222.3520    66.9740    21.9500   -22.5380    65.1840    65.5930    69.9290    63.3410     2.1300 
  237.6250   222.4610    67.0320    21.9720   -22.3500    69.2110    64.7700    68.9030    63.3960     2.1330 
  237.7500   222.5700    67.0890    21.9930   -22.0850    71.1550    64.2900    68.0620    64.8880     2.1360 
  237.8750   222.6790    67.1460    22.0140   -21.8510    67.4550    63.7860    67.1630    66.2500     2.1400 
  238.0000   222.7880    67.2030    22.0360   -21.6970    61.5760    62.9150    65.9360    68.4670     2.1460 
  238.1250   222.8970    67.2600    22.0570   -21.5720    58.9100    61.3990    64.0760    80.7910     2.1590 
  238.2500   223.0060    67.3170    22.0790   -21.4220    58.3620    59.0170    61.5170    97.4140     2.1780 
  238.3750   223.1150    67.3740    22.1010   -21.2850    57.3890    56.1480    58.4610    92.4790     2.1850 
  238.5000   223.2240    67.4310    22.1220   -21.2290    56.1820    53.0170    55.2010    71.0550     2.1720 
  238.6250   223.3330    67.4890    22.1440   -21.2560    55.5560    50.0590    52.1540    57.9010     2.1540 
  238.7500   223.4420    67.5460    22.1650   -21.3410    54.7720    47.5440    49.6820    53.8750     2.1500 
  238.8750   223.5510    67.6030    22.1870   -21.5050    55.9420    46.0100    48.2940    51.6890     2.1640 
  239.0000   223.6600    67.6600    22.2090   -21.7100    61.2140    45.8530    48.4430    50.4380     2.1810 
  239.1250   223.7690    67.7170    22.2310   -21.8880    66.1210    47.5930    50.4930    49.4990     2.1860 
  239.2500   223.8780    67.7740    22.2530   -22.0080    66.5270    50.4750    53.7920    50.4100     2.1780 
  239.3750   223.9870    67.8320    22.2750   -22.0490    63.6290    54.1420    57.6190    56.9550     2.1660 
  239.5000   224.0960    67.8890    22.2970   -22.0080    62.6950    57.2410    60.7430    64.9760     2.1530 
  239.6250   224.2050    67.9460    22.3180   -21.9130    65.2400    58.6870    62.1910    70.7340     2.1430 
  239.7500   224.3140    68.0030    22.3400   -21.7910    67.4490    58.8330    62.1460    75.2660     2.1390 
