~V
VERS. 2.00: Ver 2.00
~W
STRT.M 10.0000:
STOP.M 230.0000:
STEP.M 0.1250:
NULL. -999.2500:
UWI. FD11119:
~C
DEPT.M :
TVD. :
DX. :
DY. :
SP.MV :
DEN.GM/CC :
GR.API :
RML.OHMM :
RI. :
RXO.OHMM :
CALI.CM :
~A
# ...
  158.5000   155.4590   -21.3550    -8.3630   -30.3910     2.2840    81.9400     9.5640     9.1750     9.6390    21.8520 
  158.6250   155.5770   -21.3930    -8.3800   -30.4540     2.2770    82.5440     9.2230     8.9350    10.0620    22.0110 
  158.7500   155.6950   -21.4300    -8.3960   -30.4950     2.2710    79.0160     8.7130     8.4660    10.2090    22.1720 
  158.8750   155.8130   -21.4680    -8.4120   -30.5030     2.2660    74.3290     8.2610     7.9530     9.4430    22.1190 
  159.0000   155.9310   -21.5050    -8.4280   -30.4990     2.2640    72.7580     8.0350     7.5600     8.2460    21.6970 
  159.1250   156.0490   -21.5430    -8.4440   -30.5000     2.2640    76.6790     8.1720     7.4320     7.7570    21.4180 
  159.2500   156.1670   -21.5810    -8.4610   -30.5030     2.2660    80.7470     8.6130     7.5670     8.2210    21.3640 
  159.3750   156.2850   -21.6180    -8.4770   -30.4920     2.2700    82.7460     9.3110     7.9550     9.0220    21.3600 
  159.5000   156.4030   -21.6560    -8.4930   -30.4500     2.2740    82.5440    10.2110     8.5550     9.3920    21.3610 
  159.6250   156.5220   -21.6930    -8.5090   -30.3540     2.2750    80.8780    11.2390     9.3120     9.4490    21.3650 
  159.7500   156.6400   -21.7310    -8.5260   -30.2240     2.2720    79.8760    12.2440    10.0940    10.6450    21.3900 
  159.8750   156.7580   -21.7690    -8.5420   -30.0850     2.2640    79.2440    13.1020    10.7950    11.9540    21.4190 
  160.0000   156.8760   -21.8060    -8.5580   -29.9430     2.2550    76.9530    13.7390    11.3400    11.9240    21.4270 
  160.1250   156.9940   -21.8440    -8.5740   -29.8060     2.2470    73.3270    14.1620    11.7050    10.7600    21.4280 
  160.2500   157.1120   -21.8810    -8.5900   -29.6670     2.2420    71.1090    14.5560    11.9970    10.4360    21.4350 
  160.3750   157.2300   -21.9190    -8.6070   -29.5320     2.2360    69.9030    15.1220    12.3600    10.8980    21.4790 
  160.5000   157.3480   -21.9570    -8.6230   -29.3800     2.2290    68.9310    16.0180    12.9360    11.6710    21.5000 
  160.6250   157.4660   -21.9940    -8.6390   -29.1570     2.2210    70.9480    17.3100    13.8180    12.1070    21.5020 
  160.7500   157.5840   -22.0320    -8.6550   -28.8930     2.2160    74.8470    18.8020    14.8910    12.6620    21.4820 
  160.8750   157.7030   -22.0690    -8.6720   -28.6240     2.2170    76.0660    20.3640    16.0730    13.1890    21.3630 
  161.0000   157.8210   -22.1070    -8.6880   -28.3530     2.2250    72.0910    21.9530    17.3250    13.6320    21.2240 
  161.1250   157.9390   -22.1450    -8.7040   -28.0700     2.2400    67.8020    23.6610    18.7050    14.2700    21.2000 
  161.2500   158.0570   -22.1820    -8.7200   -27.8130     2.2550    66.9710    25.6400    20.3100    15.0280    21.1960 
  161.3750   158.1750   -22.2200    -8.7360   -27.5940     2.2650    67.5620    28.0130    22.2560    16.1840    21.1960 
  161.5000   158.2930   -22.2570    -8.7530   -27.3720     2.2670    68.0880    30.7520    24.5780    17.7630    21.1960 
  161.6250   158.4110   -22.2950    -8.7690   -27.1360     2.2610    68.2090    33.5360    27.1610    20.3490    21.1960 
  161.7500   158.5290   -22.3320    -8.7850   -26.9540     2.2500    67.2320    35.7470    29.5660    21.1010    21.1960 
  161.8750   158.6470   -22.3700    -8.8010   -26.8460     2.2400    64.2470    36.7480    31.2520    20.1580    21.1960 
  162.0000   158.7660   -22.4080    -8.8180   -26.7750     2.2300    62.6180    36.0790    31.6930    18.4610    21.1960 
  162.1250   158.8840   -22.4450    -8.8340   -26.7100     2.2230    67.0970    33.4950    30.4360    17.0050    21.1960 
  162.2500   159.0020   -22.4830    -8.8500   -26.6370     2.2190    72.1110    29.8470    28.0290    16.2360    21.1960 
  162.3750   159.1200   -22.5200    -8.8660   -26.5670     2.2180    73.8110    25.8550    25.0280    15.9950    21.1960 
  162.5000   159.2380   -22.5580    -8.8820   -26.5140     2.2210    74.4660    22.2240    22.0710    15.6900    21.1890 
  162.6250   159.3560   -22.5960    -8.8990   -26.4970     2.2300    77.0590    19.7020    19.8250    15.1500    21.1310 
  162.7500   159.4740   -22.6330    -8.9150   -26.4990     2.2430    79.2290    18.3780    18.4410    14.1780    20.9540 
  162.8750   159.5920   -22.6710    -8.9310   -26.5000     2.2570    79.3990    18.1630    17.9200    13.3290    20.8290 
  163.0000   159.7100   -22.7080    -8.9470   -26.5000     2.2700    79.8730    18.7370    18.1200    13.0800    20.8010 
  163.1250   159.8280   -22.7460    -8.9640   -26.5000     2.2780    80.4580    19.5400    18.7710    13.5090    20.8030 
  163.2500   159.9470   -22.7840    -8.9800   -26.5000     2.2780    78.2650    19.9100    19.3300    14.3740    20.8440 
  163.3750   160.0650   -22.8210    -8.9960   -26.5000     2.2690    73.7520    19.5150    19.3710    15.2220    21.0340 
  163.5000   160.1830   -22.8590    -9.0120   -26.4980     2.2540    70.1380    18.4090    18.6950    15.8280    21.6790 
  163.6250   160.3010   -22.8960    -9.0280   -26.5010     2.2420    70.8490    17.1180    17.5180    15.8980    21.7100 
  163.7500   160.4190   -22.9340    -9.0450   -26.5340     2.2430    73.8810    16.4100    16.5580    15.3500    21.4890 
  163.8750   160.5370   -22.9720    -9.0610   -26.5920     2.2560    76.6750    16.8620    16.3850    14.5600    21.3650 
  164.0000   160.6550   -23.0090    -9.0770   -26.6640     2.2760    78.8160    19.0050    17.5100    14.0510    21.3530 
  164.1250   160.7730   -23.0470    -9.0930   -26.7610     2.2860    78.6690    23.8350    20.8880    14.5300    21.3780 
  164.2500   160.8910   -23.0840    -9.1100   -26.8870     2.2790    75.1080    31.4680    26.8930    16.7450    21.4160 
  164.3750   161.0090   -23.1220    -9.1260   -27.0160     2.2580    70.1750    41.8980    35.8850    28.2710    21.4260 
  164.5000   161.1280   -23.1600    -9.1420   -27.1270     2.2360    68.7480    60.8130    47.4490    37.0090    21.4270 
  164.6250   161.2460   -23.1970    -9.1580   -27.2500     2.2260    70.6980    74.7440    60.0380    36.8350    21.4240 
  164.7500   161.3640   -23.2350    -9.1740   -27.3900     2.2280    68.9010    86.8840    71.6900    33.2190    21.3970 
  164.8750   161.4820   -23.2720    -9.1910   -27.5190     2.2340    62.9440    97.2930    82.0450    30.0450    21.2670 
  165.0000   161.6000   -23.3100    -9.2070   -27.6110     2.2350    58.8000   107.0500    91.7450    26.8580    21.0810 
  165.1250   161.7180   -23.3470    -9.2230   -27.7010     2.2250    60.6670   116.2930   100.9430    25.4670    21.0490 
  165.2500   161.8360   -23.3850    -9.2390   -27.8520     2.2130    62.8480   123.1010   108.2630    25.8960    21.0420 
  165.3750   161.9540   -23.4230    -9.2560   -28.0020     2.2060    62.6160   124.7400   111.5000    27.8730    21.0540 
  165.5000   162.0720   -23.4600    -9.2720   -28.0450     2.2060    62.7160   119.6470   109.0860    30.8740    21.1010 
  165.6250   162.1910   -23.4980    -9.2880   -28.1880     2.2120    65.0150   108.4300   100.7710    33.9340    21.3720 
  165.7500   162.3090   -23.5350    -9.3040   -28.4890     2.2180    67.1680    95.4760    89.9440    34.8860    21.4820 
  165.8750   162.4270   -23.5730    -9.3200   -28.9210     2.2250    69.9940    83.7180    79.2180    31.8140    21.5020 
  166.0000   162.5450   -23.6110    -9.3370   -29.5870     2.2330    75.2380    75.0810    70.6430    27.3060    21.5040 
  166.1250   162.6630   -23.6480    -9.3530   -29.9730     2.2460    80.7030    71.2230    66.1130    25.1840    21.5050 
  166.2500   162.7810   -23.6860    -9.3690   -30.3710     2.2610    81.7620    71.7550    65.6120    26.1410    21.5110 
  166.3750   162.8990   -23.7250    -9.3860   -30.7600     2.2730    77.9960    76.6870    69.2870    28.8200    21.5440 
  166.5000   163.0160   -23.7630    -9.4030   -31.1550     2.2730    72.4960    85.8420    77.0590    31.5860    21.6390 
  166.6250   163.1340   -23.8020    -9.4190   -31.5720     2.2570    67.0640    99.0770    88.8630    33.9690    21.6070 
