~V
VERS. 2.00: Ver 2.00
~W
STRT.M 15.0000:
STOP.M 224.0000:
STEP.M 0.1250:
NULL. -999.2500:
UWI. FD11007:
~C
DEPT.M :
TVD. :
DX. :
DY. :
DEN.GM/CC :
GR.API :
RML.OHMM :
RI. :
RXO.OHMM :
CALI.CM :
SP.MV :
~A
# ...
   31.5000    31.5000     0.0000     0.0000     2.1460    81.9580    17.2870     8.4690     8.8250    26.5240   -39.9980 
   31.6250    31.6250     0.0000     0.0000     2.1150    78.0580    17.9960     8.5920     8.8110    26.6220   -39.8610 
   31.7500    31.7500     0.0000     0.0000     2.0910    73.5220    18.7040     8.7820     8.7470    26.7360   -39.6800 
   31.8750    31.8750     0.0000     0.0000     2.0740    71.8480    19.1270     8.9340     8.8170    26.8110   -39.4210 
   32.0000    32.0000     0.0000     0.0000     2.0640    72.9710    19.0410     8.9490     9.0990    26.8320   -39.0340 
   32.1250    32.1250     0.0000     0.0000     2.0610    72.1370    18.3900     8.7750     9.3380    26.8290   -38.5170 
   32.2500    32.2500     0.0000     0.0000     2.0630    70.6940    17.6360     8.5400     9.3190    26.8360   -37.8610 
   32.3750    32.3750     0.0000     0.0000     2.0710    72.0780    17.1890     8.3760     8.6620    26.8290   -37.0600 
   32.5000    32.5000     0.0000     0.0000     2.0790    76.1340    17.2280     8.3600     7.7370    26.6980   -36.1270 
   32.6250    32.6250     0.0000     0.0000     2.0910    77.1190    17.5300     8.4550     7.5210    26.3360   -35.1160 
   32.7500    32.7500     0.0000     0.0000     2.1180    76.3710    17.4020     8.4410    10.3510    25.9250   -34.0810 
   32.8750    32.8750     0.0000     0.0000     2.1720    77.4100    16.2610     8.0990    13.3880    25.6640   -33.0800 
   33.0000    33.0000     0.0000     0.0000     2.2480    82.0480    14.0050     7.3430    11.8800    25.5980   -32.1350 
   33.1250    33.1250     0.0000     0.0000     2.3170    87.0900    11.2140     6.3060     6.7260    25.6120   -31.2890 
   33.2500    33.2500     0.0000     0.0000     2.3510    91.7430     8.8190     5.3230     4.4980    25.6170   -30.6260 
   33.3750    33.3750     0.0000     0.0000     2.3440    97.6770     7.2700     4.5970     3.7600    25.6160   -30.1250 
   33.5000    33.5000     0.0000     0.0000     2.3120   102.2810     6.6980     4.2350     3.6220    25.6130   -29.7820 
   33.6250    33.6250     0.0000     0.0000     2.2810   102.6340     7.1230     4.3210     3.8430    25.6120   -29.6140 
   33.7500    33.7500     0.0000     0.0000     2.2620    99.9710     8.1300     4.7280     4.4290    25.6150   -29.6580 
   33.8750    33.8750     0.0000     0.0000     2.2470    95.8030     9.4080     5.3520     5.0210    25.6180   -29.8410 
   34.0000    34.0000     0.0000     0.0000     2.2330    92.9490    10.5860     6.0350     6.1420    25.6220   -30.0870 
   34.1250    34.1250     0.0000     0.0000     2.2190    91.2340    11.1670     6.5340     7.7760    25.6330   -30.3260 
   34.2500    34.2500     0.0000     0.0000     2.2100    90.8220    11.0080     6.7030     8.4030    25.6600   -30.4800 
   34.3750    34.3750     0.0000     0.0000     2.2120    92.1680    10.2020     6.5270     7.6560    25.7020   -30.5480 
   34.5000    34.5000     0.0000     0.0000     2.2270    95.9700     9.0760     6.1190     6.0360    25.7440   -30.5280 
   34.6250    34.6250     0.0000     0.0000     2.2530   101.6430     8.0570     5.6680     4.6470    25.7650   -30.4240 
   34.7500    34.7500     0.0000     0.0000     2.2740   102.8000     7.3670     5.3250     4.3110    25.7530   -30.2470 
   34.8750    34.8750     0.0000     0.0000     2.2800    99.4920     7.0190     5.1310     4.8240    25.6980   -30.0600 
   35.0000    35.0000     0.0000     0.0000     2.2690    95.4370     6.9360     5.0780     5.7820    25.6050   -29.9000 
   35.1250    35.1250     0.0000     0.0000     2.2520    94.2190     7.0660     5.1580     5.5100    25.5210   -29.7550 
   35.2500    35.2500     0.0000     0.0000     2.2440    94.8450     7.3850     5.3470     4.3750    25.4800   -29.5890 
   35.3750    35.3750     0.0000     0.0000     2.2440    95.7890     7.9360     5.6510     3.9760    25.4620   -29.3880 
   35.5000    35.5000     0.0000     0.0000     2.2440    95.8600     8.6780     6.0470     4.8620    25.4420   -29.1000 
   35.6250    35.6250     0.0000     0.0000     2.2320    93.0370     9.3460     6.4120     6.5750    25.4280   -28.6960 
   35.7500    35.7500     0.0000     0.0000     2.2100    89.2770     9.5870     6.5670     6.6320    25.4280   -28.1910 
   35.8750    35.8750     0.0000     0.0000     2.1900    88.5180     9.2040     6.3920     5.8970    25.4340   -27.6390 
   36.0000    36.0000     0.0000     0.0000     2.1880    90.7540     8.2830     5.8990     4.9420    25.4350   -27.0440 
   36.1250    36.1250     0.0000     0.0000     2.2100    92.7770     7.1720     5.2360     4.1980    25.4330   -26.4320 
   36.2500    36.2500     0.0000     0.0000     2.2400    92.5780     6.3130     4.6490     3.8280    25.4330   -25.8470 
   36.3750    36.3750     0.0000     0.0000     2.2630    91.5120     5.9770     4.2880     3.8190    25.4360   -25.3130 
   36.5000    36.5000     0.0000     0.0000     2.2650    91.5020     6.4190     4.2770     4.3100    25.4390   -24.8360 
   36.6250    36.6250     0.0000     0.0000     2.2500    91.9000     8.2770     4.8590     5.4240    25.4400   -24.4240 
   36.7500    36.7500     0.0000     0.0000     2.2450    90.9240    11.9660     6.1710     7.6360    25.4380   -24.1060 
   36.8750    36.8750     0.0000     0.0000     2.2780    87.0690    18.0460     8.4650    12.0940    25.4370   -23.9000 
   37.0000    37.0000     0.0000     0.0000     2.3640    82.2760    26.7470    11.9490    18.6630    25.4380   -23.8560 
   37.1250    37.1250     0.0000     0.0000     2.5020    77.8040    37.1370    16.5270    27.1440    25.4260   -24.0420 
   37.2500    37.2500     0.0000     0.0000     2.6410    73.7010    45.4060    20.7100    32.9200    25.3950   -24.5860 
   37.3750    37.3750     0.0000     0.0000     2.7390    69.3490    47.6930    22.7230    31.7230    25.3590   -25.4600 
   37.5000    37.5000     0.0000     0.0000     2.7630    65.9010    43.3340    21.8810    26.3130    25.3390   -26.6460 
   37.6250    37.6250     0.0000     0.0000     2.6950    66.6390    35.9260    19.2360    21.4960    25.3400   -28.0820 
   37.7500    37.7500     0.0000     0.0000     2.5730    70.6420    29.8360    16.6620    17.1410    25.3450   -29.6830 
   37.8750    37.8750     0.0000     0.0000     2.4380    75.2140    26.1830    14.8090    14.3020    25.3470   -31.2960 
   38.0000    38.0000     0.0000     0.0000     2.3220    76.5280    24.7870    13.7950    13.0390    25.3470   -32.7920 
   38.1250    38.1250     0.0000     0.0000     2.2480    73.5840    25.1790    13.6030    12.8260    25.3470   -34.0690 
   38.2500    38.2500     0.0000     0.0000     2.2100    72.0880    26.2820    13.8690    13.1760    25.3490   -35.0450 
   38.3750    38.3750     0.0000     0.0000     2.1910    73.9270    27.4050    14.3240    13.5690    25.3520   -35.7880 
   38.5000    38.5000     0.0000     0.0000     2.1750    77.5440    27.9880    14.6910    13.6190    25.3520   -36.3290 
   38.6250    38.6250     0.0000     0.0000     2.1530    77.2250    27.6190    14.7180    13.4450    25.3490   -36.6930 
   38.7500    38.7500     0.0000     0.0000     2.1290    74.0340    26.5880    14.4350    13.1510    25.3440   -36.9230 
   38.8750    38.8750     0.0000     0.0000     2.1110    71.5220    25.2790    13.9740    12.6120    25.3450   -37.1000 
   39.0000    39.0000     0.0000     0.0000     2.1010    70.7790    24.1010    13.5050    11.8970    25.3510   -37.2740 
   39.1250    39.1250     0.0000     0.0000     2.1020    72.8630    23.4420    13.2040    11.5270    25.3540   -37.4440 
   39.2500    39.2500     0.0000     0.0000     2.1090    75.5490    23.3400    13.1230    11.8220    25.3500   -37.5940 
   39.3750    39.3750     0.0000     0.0000     2.1190    75.7660    23.7000    13.2480    12.3760    25.3510   -37.7600 
   39.5000    39.5000     0.0000     0.0000     2.1250    73.7780    24.2630    13.4910    12.9520    25.3870   -37.9510 
   39.6250    39.6250     0.0000     0.0000     2.1230    71.8990    24.5880    13.6730    12.8340    25.4670   -38.1330 
