~V
VERS. 2.00: Ver 2.00
~W
STRT.M 15.0000:
STOP.M 224.0000:
STEP.M 0.1250:
NULL. -999.2500:
UWI. FD11007:
~C
DEPT.M :
TVD. :
DX. :
DY. :
DEN.GM/CC :
GR.API :
RML.OHMM :
RI. :
RXO.OHMM :
CALI.CM :
SP.MV :
~A
# ...
  163.5000   162.3280     9.0450    -8.4240     2.3230    69.3060   146.2250   143.8260    26.0710    23.7870   -36.3890 
  163.6250   162.4500     9.0680    -8.4420     2.2900    71.2020   137.4770   134.2230    29.6700    23.6470   -36.6150 
  163.7500   162.5710     9.0900    -8.4600     2.2670    71.2880   131.8940   127.3920    31.9310    23.5950   -36.7070 
  163.8750   162.6930     9.1120    -8.4780     2.2560    69.4260   129.4980   123.8420    34.1370    23.5960   -36.7020 
  164.0000   162.8150     9.1350    -8.4960     2.2520    67.9870   129.0490   122.4090    36.1940    23.5990   -36.6040 
  164.1250   162.9360     9.1570    -8.5140     2.2530    67.5380   129.5440   121.7860    34.4190    23.5980   -36.4230 
  164.2500   163.0580     9.1800    -8.5320     2.2580    65.8610   130.9000   121.6470    32.4830    23.5960   -36.2280 
  164.3750   163.1800     9.2020    -8.5500     2.2610    64.5460   134.3820   123.1400    31.5390    23.5940   -36.0470 
  164.5000   163.3010     9.2240    -8.5690     2.2580    66.2450   142.1550   128.3250    30.8800    23.5950   -35.8900 
  164.6250   163.4230     9.2470    -8.5880     2.2460    66.9300   158.2060   140.9660    28.1780    23.5990   -35.7650 
  164.7500   163.5440     9.2690    -8.6070     2.2300    64.4780   183.4800   162.0560    26.3440    23.6000   -35.6800 
  164.8750   163.6660     9.2910    -8.6260     2.2180    62.9870   217.9980   191.8000    28.2700    23.5980   -35.6020 
  165.0000   163.7870     9.3140    -8.6450     2.2120    64.9500   257.4740   226.8390    30.7250    23.5970   -35.5090 
  165.1250   163.9090     9.3360    -8.6640     2.2120    66.6750   283.9110   252.9090    27.6520    23.5990   -35.3910 
  165.2500   164.0300     9.3590    -8.6830     2.2150    65.5880   277.1710   252.4870    23.3300    23.6020   -35.2360 
  165.3750   164.1520     9.3810    -8.7020     2.2230    64.1780   229.3620   220.6040    21.8010    23.6020   -35.0590 
  165.5000   164.2730     9.4030    -8.7210     2.2400    64.6300   173.9680   171.4930    21.7930    23.6000   -34.8900 
  165.6250   164.3950     9.4260    -8.7400     2.2650    66.5790   130.7300   127.0690    21.4430    23.5960   -34.7250 
  165.7500   164.5160     9.4480    -8.7590     2.2880    68.4870   101.7700    96.0140    19.4470    23.6070   -34.5860 
  165.8750   164.6380     9.4700    -8.7770     2.3030    68.6900    84.9400    77.5900    17.1310    23.6390   -34.4970 
  166.0000   164.7590     9.4930    -8.7960     2.3060    66.5170    76.9490    68.4480    16.1130    23.6840   -34.4420 
  166.1250   164.8810     9.5150    -8.8150     2.3020    66.6060    75.8800    66.1740    16.7970    23.7240   -34.3780 
  166.2500   165.0020     9.5370    -8.8340     2.2990    70.2520    78.8980    67.8340    17.5120    23.7530   -34.3200 
  166.3750   165.1240     9.5600    -8.8530     2.2950    73.5490    84.8970    72.4630    17.8410    23.7700   -34.2960 
  166.5000   165.2450     9.5820    -8.8720     2.2880    74.1160    92.9900    79.3090    18.0820    23.7710   -34.2910 
  166.6250   165.3670     9.6050    -8.8910     2.2750    72.7460   102.6290    87.9500    18.1450    23.7640   -34.2940 
  166.7500   165.4880     9.6270    -8.9100     2.2620    70.8410   112.9880    97.5870    17.9300    23.7650   -34.3300 
  166.8750   165.6100     9.6490    -8.9290     2.2530    68.7210   123.5310   107.7660    18.5630    23.7700   -34.3970 
  167.0000   165.7310     9.6720    -8.9480     2.2480    67.3540   133.7710   118.0980    20.6480    23.7720   -34.4780 
  167.1250   165.8530     9.6940    -8.9670     2.2440    68.1850   143.3550   128.5300    21.3290    23.7690   -34.5630 
  167.2500   165.9740     9.7160    -8.9860     2.2360    68.7330   151.1490   138.4140    20.8480    23.7670   -34.6360 
  167.3750   166.0960     9.7390    -9.0050     2.2240    68.1740   152.1580   143.5600    20.9600    23.7710   -34.7190 
  167.5000   166.2170     9.7610    -9.0230     2.2140    65.8910   138.4960   135.9040    22.9380    23.7760   -34.8150 
  167.6250   166.3390     9.7830    -9.0420     2.2230    62.0570   106.5700   108.7940    25.9560    23.7740   -34.9070 
  167.7500   166.4610     9.8060    -9.0610     2.2580    62.1450    71.2620    75.1280    29.9370    23.7650   -34.9820 
  167.8750   166.5820     9.8280    -9.0800     2.3170    69.2480    43.3110    46.8330    26.9830    23.7570   -35.0390 
  168.0000   166.7040     9.8510    -9.0990     2.3840    80.8820    25.6580    28.4560    17.3500    23.7560   -35.1110 
  168.1250   166.8250     9.8730    -9.1180     2.4300    90.8140    17.0840    19.4350    10.1160    23.7590   -35.1920 
  168.2500   166.9470     9.8950    -9.1370     2.4500    96.6940    12.9060    15.0200     7.3940    23.7580   -35.2480 
  168.3750   167.0680     9.9180    -9.1560     2.4510    99.7850    11.1270    13.1060     6.6410    23.7540   -35.2630 
  168.5000   167.1900     9.9400    -9.1750     2.4480   101.0510    10.6680    12.6070     6.6010    23.7520   -35.2630 
  168.6250   167.3110     9.9620    -9.1940     2.4500   100.1180    11.0030    13.0630     6.6680    23.7540   -35.2530 
  168.7500   167.4330     9.9850    -9.2130     2.4540    97.2370    11.5930    13.8880     6.7800    23.7600   -35.1960 
  168.8750   167.5540    10.0070    -9.2320     2.4540    94.2300    12.1880    14.7520     7.0080    23.7610   -35.0900 
  169.0000   167.6760    10.0290    -9.2510     2.4490    94.0260    12.6550    15.4380     7.1820    23.7570   -34.9440 
  169.1250   167.7970    10.0520    -9.2700     2.4420    94.4220    12.9500    15.8140     7.1420    23.7540   -34.7540 
  169.2500   167.9190    10.0740    -9.2880     2.4390    92.0630    13.1710    15.9710     7.2090    23.7570   -34.5320 
  169.3750   168.0400    10.0970    -9.3070     2.4400    88.2930    13.4710    16.0510     7.2010    23.7620   -34.3050 
  169.5000   168.1620    10.1190    -9.3260     2.4390    87.4670    14.0730    16.2630     7.1210    23.7630   -34.0930 
  169.6250   168.2830    10.1410    -9.3450     2.4320    88.9880    15.4320    16.9630     7.1750    23.7580   -33.9190 
  169.7500   168.4050    10.1640    -9.3640     2.4170    87.4040    17.8670    18.4010     7.7170    23.7560   -33.8270 
  169.8750   168.5260    10.1860    -9.3830     2.3990    82.5050    21.7980    20.8990     8.9940    23.7950   -33.8290 
  170.0000   168.6480    10.2080    -9.4020     2.3780    75.7190    27.6550    24.8340    10.3470    23.9160   -33.9110 
  170.1250   168.7690    10.2310    -9.4210     2.3540    67.4650    36.1280    30.8840    10.9680    24.0910   -34.0290 
  170.2500   168.8910    10.2530    -9.4400     2.3260    63.7150    46.6730    38.7520    11.1820    24.2190   -34.1980 
  170.3750   169.0120    10.2750    -9.4590     2.2980    66.0540    58.5080    47.8400    11.0210    24.2660   -34.3880 
  170.5000   169.1340    10.2980    -9.4780     2.2740    70.2550    70.3490    57.0520    10.6930    24.2710   -34.5320 
  170.6250   169.2550    10.3200    -9.4970     2.2600    68.9410    80.6630    65.0210    10.8850    24.2800   -34.6160 
  170.7500   169.3770    10.3430    -9.5160     2.2530    66.5050    89.5970    71.7390    11.7870    24.2970   -34.6750 
  170.8750   169.4980    10.3650    -9.5340     2.2520    66.8200    98.5970    78.3280    12.0230    24.3120   -34.7080 
  171.0000   169.6200    10.3870    -9.5530     2.2520    67.0760   109.9130    86.7220    10.6370    24.3210   -34.7150 
  171.1250   169.7420    10.4100    -9.5720     2.2440    67.5130   126.5320    99.6910     8.9740    24.3240   -34.7190 
  171.2500   169.8630    10.4320    -9.5910     2.2310    69.0090   148.5280   117.5090     8.5880    24.3240   -34.7360 
  171.3750   169.9850    10.4540    -9.6100     2.2170    70.4410   174.5440   139.2030     9.7490    24.3250   -34.7210 
  171.5000   170.1060    10.4770    -9.6290     2.2080    68.8620   200.6270   161.8180    11.5220    24.3100   -34.6970 
  171.6250   170.2280    10.4990    -9.6480     2.2090    65.4860   219.3160   179.8830    11.9920    24.2240   -34.6720 
