~V
VERS. 2.00: Ver 2.00
~W
STRT.M 15.0000:
STOP.M 219.0000:
STEP.M 0.1250:
NULL. -999.2500:
UWI. FD11101:
~C
DEPT.M :
TVD. :
DX. :
DY. :
GR.API :
RML.OHMM :
RI. :
RXO.OHMM :
CALI.CM :
SP.MV :
DEN.GM/CC :
~A
# ...
   31.5000    31.5000    -0.0580     0.0340    76.6920     9.8730     5.8860     6.2710    29.7620   -21.6000     2.0440 
   31.6250    31.6250    -0.0590     0.0350    74.8890    10.2040     5.9690     6.4000    29.9050   -21.2950     2.0980 
   31.7500    31.7500    -0.0600     0.0350    74.9530    10.8350     6.2190     6.5460    30.7460   -21.0420     2.1380 
   31.8750    31.8750    -0.0610     0.0360    74.7390    11.6280     6.5880     6.6590    31.5270   -20.8340     2.1350 
   32.0000    32.0000    -0.0620     0.0360    73.5420    12.4140     7.0080     6.6870    31.8770   -20.6730     2.0840 
   32.1250    32.1250    -0.0630     0.0370    72.2120    12.9210     7.3570     6.6880    31.9230   -20.5630     2.0010 
   32.2500    32.2490    -0.0640     0.0370    73.4730    12.9600     7.5170     7.0450    31.8690   -20.4530     1.9230 
   32.3750    32.3740    -0.0650     0.0380    77.2660    12.4290     7.3990     7.4440    31.7870   -20.3300     1.8740 
   32.5000    32.4990    -0.0660     0.0390    81.8860    11.4010     6.9950     7.6170    31.7570   -20.1670     1.8640 
   32.6250    32.6240    -0.0670     0.0390    84.7990    10.1580     6.3880     7.3500    31.4180   -20.0280     1.8970 
   32.7500    32.7490    -0.0680     0.0400    87.5530     9.1560     5.7970     6.2800    30.5670   -19.9010     1.9550 
   32.8750    32.8740    -0.0690     0.0400    91.7060     8.7040     5.3850     4.8170    29.3760   -19.8210     2.0230 
   33.0000    32.9990    -0.0700     0.0410    94.9820     8.9480     5.2570     4.5460    28.3770   -19.8800     2.0860 
   33.1250    33.1240    -0.0710     0.0410    92.5650     9.8840     5.4790     5.4680    27.9330   -20.1050     2.1250 
   33.2500    33.2490    -0.0720     0.0420    85.1310    11.0560     5.8960     6.5310    28.1130   -20.4330     2.1410 
   33.3750    33.3740    -0.0730     0.0430    78.8550    12.0290     6.3360     7.6730    28.5910   -20.7930     2.1360 
   33.5000    33.4990    -0.0740     0.0430    77.7700    12.4510     6.6150     8.4800    29.1830   -21.1690     2.1180 
   33.6250    33.6240    -0.0750     0.0440    78.7700    12.1790     6.6000     8.6160    29.8180   -21.4650     2.0950 
   33.7500    33.7490    -0.0760     0.0440    78.8990    11.6710     6.4170     7.9870    30.1900   -21.6910     2.0780 
   33.8750    33.8740    -0.0770     0.0450    77.5120    11.3890     6.2440     7.4080    29.9020   -21.8390     2.0720 
   34.0000    33.9990    -0.0780     0.0460    76.4010    11.6700     6.2500     6.7880    29.4120   -21.8470     2.0760 
   34.1250    34.1240    -0.0760     0.0480    76.3290    12.6480     6.5580     7.6610    29.4330   -21.7220     2.0930 
   34.2500    34.2490    -0.0730     0.0500    76.2980    13.9210     7.0720     8.1180    29.6350   -21.5790     2.1290 
   34.3750    34.3740    -0.0710     0.0520    75.8620    15.0440     7.6360     9.5520    29.3570   -21.5270     2.1900 
   34.5000    34.4990    -0.0690     0.0550    74.9420    15.5950     8.0550    12.7750    29.1290   -21.6220     2.2630 
   34.6250    34.6240    -0.0660     0.0570    74.9260    15.2670     8.1220    12.1940    29.6900   -21.8000     2.3150 
   34.7500    34.7490    -0.0640     0.0590    77.8910    14.3960     7.8920    10.2940    30.4470   -22.0060     2.3200 
   34.8750    34.8740    -0.0620     0.0610    81.6660    13.3790     7.4970     9.2190    30.9200   -22.2170     2.2750 
   35.0000    34.9990    -0.0590     0.0640    82.8840    12.5810     7.1020     9.0790    31.1100   -22.4280     2.2040 
   35.1250    35.1240    -0.0570     0.0660    82.3230    12.2900     6.8660     8.8970    31.1700   -22.6100     2.1420 
   35.2500    35.2490    -0.0550     0.0680    83.6060    12.4180     6.8140     8.8340    31.1650   -22.6910     2.1060 
   35.3750    35.3740    -0.0520     0.0710    85.2670    12.7950     6.9100     8.6880    31.1480   -22.5890     2.0910 
   35.5000    35.4990    -0.0500     0.0730    83.6590    13.1640     7.0640     8.6960    31.0240   -22.2450     2.0860 
   35.6250    35.6240    -0.0480     0.0750    82.1090    13.1550     7.1150     9.0090    30.4580   -21.7050     2.0820 
   35.7500    35.7480    -0.0450     0.0770    86.8000    12.5940     6.9500     9.1700    29.3870   -21.0770     2.0830 
   35.8750    35.8730    -0.0430     0.0800    94.5350    11.4640     6.5250     8.5240    28.2080   -20.4210     2.0950 
   36.0000    35.9980    -0.0400     0.0820   101.1710     9.9470     5.8880     7.0050    27.4270   -19.7740     2.1220 
   36.1250    36.1230    -0.0380     0.0840   107.7840     8.4250     5.1780     5.5760    27.2770   -19.1940     2.1590 
   36.2500    36.2480    -0.0360     0.0870   115.6780     7.2950     4.5800     4.6420    27.5400   -18.7460     2.1910 
   36.3750    36.3730    -0.0330     0.0890   120.6850     6.7950     4.2190     3.8740    28.0890   -18.5030     2.2080 
   36.5000    36.4980    -0.0310     0.0910   118.4810     7.0280     4.1710     3.4250    28.7440   -18.5050     2.2060 
   36.6250    36.6230    -0.0290     0.0930   108.3440     8.0640     4.5270     3.7960    28.9150   -18.7600     2.1900 
   36.7500    36.7480    -0.0260     0.0960    95.3190     9.5770     5.1940     5.4400    28.2590   -19.1580     2.1730 
   36.8750    36.8730    -0.0240     0.0980    86.4230    11.2490     6.0680     8.0030    27.3090   -19.6210     2.1620 
   37.0000    36.9980    -0.0220     0.1000    85.2840    12.7020     6.9760    10.0830    26.9730   -20.1110     2.1590 
   37.1250    37.1230    -0.0190     0.1030    87.6190    13.5090     7.6610    10.7500    27.1880   -20.5660     2.1590 
   37.2500    37.2480    -0.0170     0.1050    86.5940    13.6850     8.0150    10.1490    27.2230   -20.9690     2.1550 
   37.3750    37.3730    -0.0150     0.1070    83.5220    13.3940     8.0490     9.5240    27.0480   -21.2940     2.1420 
   37.5000    37.4980    -0.0120     0.1090    81.4810    12.8920     7.8660     9.2730    26.9390   -21.5210     2.1230 
   37.6250    37.6220    -0.0100     0.1120    82.2410    12.4240     7.5920     9.1880    27.0060   -21.6050     2.1050 
   37.7500    37.7470    -0.0080     0.1140    83.7850    12.1010     7.3400     9.0060    27.0950   -21.5800     2.0950 
   37.8750    37.8720    -0.0050     0.1160    84.5550    11.9310     7.1480     8.8880    26.9860   -21.4580     2.0970 
   38.0000    37.9970    -0.0030     0.1190    83.9550    11.8640     7.0200     8.7860    26.6560   -21.2290     2.1060 
   38.1250    38.1220    -0.0010     0.1210    82.8530    11.7860     6.9320     8.6620    26.3520   -20.8690     2.1180 
   38.2500    38.2470     0.0020     0.1230    80.3600    11.5730     6.8310     8.5450    26.3980   -20.3780     2.1240 
   38.3750    38.3720     0.0040     0.1250    77.0580    11.1490     6.6790     8.6440    26.8100   -19.7580     2.1200 
   38.5000    38.4970     0.0060     0.1280    77.0710    10.5250     6.4610     8.9410    27.2670   -19.0450     2.1080 
   38.6250    38.6220     0.0090     0.1300    84.1810     9.8180     6.1970     8.2670    27.3360   -18.2980     2.0960 
   38.7500    38.7470     0.0110     0.1320    91.6430     9.2330     5.9600     7.3990    27.1140   -17.6010     2.0940 
   38.8750    38.8720     0.0130     0.1340    95.6630     8.8900     5.8140     6.7540    26.7790   -17.0090     2.1050 
   39.0000    38.9970     0.0160     0.1370    97.2760     8.7940     5.7870     6.2370    26.4780   -16.5370     2.1260 
   39.1250    39.1220     0.0180     0.1390    96.9740     8.8070     5.8500     6.3300    26.6030   -16.2240     2.1470 
   39.2500    39.2470     0.0200     0.1410    93.4640     8.7010     5.8960     6.2820    26.8390   -16.0030     2.1620 
   39.3750    39.3720     0.0230     0.1440    89.9530     8.3690     5.8510     6.8660    26.9830   -15.8370     2.1730 
   39.5000    39.4970     0.0250     0.1460    91.9310     7.8520     5.6940     6.6870    27.0950   -15.7250     2.1850 
   39.6250    39.6210     0.0280     0.1480    98.0610     7.3440     5.4840     5.1600    27.1660   -15.7040     2.2020 
