~V
VERS. 2.00: Ver 2.00
~W
STRT.M 25.0000:
STOP.M 287.0000:
STEP.M 0.1250:
NULL. -999.2500:
UWI. FD11174:
~C
DEPT.M :
TVD. :
DX. :
DY. :
SP.MV :
GR.API :
RI. :
RML.OHMM :
RXO.OHMM :
DEN.GM/CC :
~A
# ...
  180.1250   173.2090   -14.5310   -35.4870   -16.4060    87.5860    44.1620    47.0590    46.0810     2.2170 
  180.2500   173.3210   -14.5500   -35.5390   -16.3830    86.9580    45.4690    48.8750    43.5850     2.2070 
  180.3750   173.4330   -14.5690   -35.5910   -16.3940    84.4800    48.9400    52.8340    45.0990     2.1970 
  180.5000   173.5460   -14.5880   -35.6430   -16.3230    82.5300    53.7750    58.3010    52.9850     2.1900 
  180.6250   173.6580   -14.6060   -35.6960   -16.2310    82.7570    59.0920    63.9360    62.5440     2.1920 
  180.7500   173.7700   -14.6260   -35.7480   -16.2130    84.7410    63.0300    67.7290    72.0430     2.2010 
  180.8750   173.8820   -14.6450   -35.8000   -16.2550    85.9120    63.4250    67.8840    75.5800     2.2140 
  181.0000   173.9930   -14.6640   -35.8520   -16.3500    86.1110    61.1090    65.0170    75.5110     2.2270 
  181.1250   174.1050   -14.6830   -35.9040   -16.4390    85.8340    56.9560    60.6750    71.6290     2.2360 
  181.2500   174.2170   -14.7020   -35.9560   -16.5280    85.0330    53.2770    56.8290    63.9040     2.2400 
  181.3750   174.3290   -14.7210   -36.0080   -16.6900    83.3840    51.0790    54.4270    56.5290     2.2350 
  181.5000   174.4410   -14.7400   -36.0610   -16.9090    80.3710    49.9260    53.0110    49.3160     2.2210 
  181.6250   174.5530   -14.7590   -36.1130   -17.1900    77.7730    48.8510    51.6430    45.5490     2.2070 
  181.7500   174.6650   -14.7780   -36.1650   -17.4810    77.1890    47.0440    49.5470    42.4420     2.2100 
  181.8750   174.7770   -14.7960   -36.2170   -17.7760    78.3990    44.2680    46.4880    39.5820     2.2330 
  182.0000   174.8890   -14.8150   -36.2700   -18.0650    80.8330    40.9710    42.9850    37.1470     2.2550 
  182.1250   175.0010   -14.8340   -36.3220   -18.3040    84.2620    37.9220    39.8650    35.9240     2.2600 
  182.2500   175.1130   -14.8520   -36.3740   -18.4940    86.8160    35.8490    37.7350    36.0280     2.2540 
  182.3750   175.2250   -14.8700   -36.4270   -18.5410    85.5080    35.1150    37.1170    37.7050     2.2470 
  182.5000   175.3370   -14.8890   -36.4790   -18.5160    82.8710    35.9660    37.9580    40.3730     2.2420 
  182.6250   175.4490   -14.9070   -36.5320   -18.4920    80.8660    37.8650    39.9580    43.1670     2.2380 
  182.7500   175.5610   -14.9250   -36.5840   -18.5040    79.2830    40.4940    42.6750    45.2180     2.2350 
  182.8750   175.6730   -14.9430   -36.6370   -18.5390    78.1000    43.4790    45.7900    46.4900     2.2310 
  183.0000   175.7850   -14.9610   -36.6890   -18.5730    79.1400    46.4640    48.8710    47.7170     2.2250 
  183.1250   175.8970   -14.9800   -36.7420   -18.5860    81.6810    48.7930    51.1850    49.2790     2.2170 
  183.2500   176.0090   -14.9980   -36.7940   -18.6160    81.3530    49.8240    52.1250    50.2890     2.2100 
  183.3750   176.1210   -15.0160   -36.8460   -18.6590    78.5850    49.1730    51.4230    49.7310     2.2110 
  183.5000   176.2330   -15.0340   -36.8990   -18.6990    77.6220    47.3070    49.5720    47.7720     2.2190 
  183.6250   176.3450   -15.0530   -36.9510   -18.6180    77.8270    45.0120    47.3950    44.9140     2.2220 
  183.7500   176.4570   -15.0710   -37.0030   -18.4930    77.5180    43.0690    44.9960    42.4910     2.2190 
  183.8750   176.5690   -15.0890   -37.0560   -18.3920    78.4630    42.0080    43.2760    41.1620     2.2170 
  184.0000   176.6820   -15.1080   -37.1080   -18.2610    81.7760    41.5820    42.8010    40.5690     2.2240 
  184.1250   176.7940   -15.1270   -37.1600   -18.1070    82.4870    41.3080    42.6990    40.8210     2.2340 
  184.2500   176.9060   -15.1460   -37.2120   -17.9100    79.3350    41.2480    42.6770    41.6720     2.2390 
  184.3750   177.0180   -15.1650   -37.2640   -17.7560    77.0300    41.2140    42.8050    42.6160     2.2420 
  184.5000   177.1300   -15.1840   -37.3160   -17.6640    78.3480    41.6180    43.3430    43.2020     2.2450 
  184.6250   177.2420   -15.2030   -37.3680   -17.5710    80.9290    42.5750    44.4650    43.1920     2.2440 
  184.7500   177.3540   -15.2230   -37.4200   -17.4590    82.4180    43.9360    46.0110    40.8560     2.2400 
  184.8750   177.4660   -15.2420   -37.4720   -17.2710    80.9450    45.5960    47.8680    37.1710     2.2350 
  185.0000   177.5770   -15.2610   -37.5250   -17.0740    77.8550    47.4740    49.9410    37.1710     2.2320 
  185.1250   177.6890   -15.2800   -37.5770   -16.9220    76.5610    49.5420    52.1340    39.4830     2.2300 
  185.2500   177.8010   -15.2990   -37.6290   -16.7220    78.0750    51.5070    54.2690    41.5990     2.2290 
  185.3750   177.9130   -15.3180   -37.6810   -16.4500    79.3240    53.3790    56.2660    45.0270     2.2260 
  185.5000   178.0250   -15.3380   -37.7340   -16.1240    79.7660    54.8240    57.6310    47.3360     2.2260 
  185.6250   178.1370   -15.3570   -37.7860   -15.8520    79.3180    54.8060    57.6870    45.2290     2.2290 
  185.7500   178.2490   -15.3760   -37.8390   -15.5630    77.1730    53.8250    56.6730    45.0960     2.2330 
  185.8750   178.3610   -15.3950   -37.8910   -15.3040    74.4540    52.1720    55.0870    48.8730     2.2350 
  186.0000   178.4730   -15.4140   -37.9430   -15.1030    72.9480    50.7940    53.8910    49.3530     2.2370 
  186.1250   178.5840   -15.4330   -37.9960   -14.9360    72.6420    50.5340    53.6170    45.7510     2.2380 
  186.2500   178.6960   -15.4530   -38.0480   -14.7820    73.1690    50.5940    53.7330    42.3370     2.2330 
  186.3750   178.8080   -15.4720   -38.1010   -14.6680    76.2160    50.6930    53.8770    40.3630     2.2200 
  186.5000   178.9200   -15.4910   -38.1530   -14.6380    79.7850    50.7870    53.9480    40.4890     2.2110 
  186.6250   179.0320   -15.5100   -38.2060   -14.6540    80.6760    50.8070    54.0170    43.4200     2.2120 
  186.7500   179.1430   -15.5300   -38.2580   -14.7170    78.7660    51.0790    54.3380    47.5300     2.2160 
  186.8750   179.2550   -15.5490   -38.3110   -14.7710    76.7190    51.7680    55.1660    52.0460     2.2170 
  187.0000   179.3670   -15.5690   -38.3630   -14.8170    75.4110    53.0300    56.7360    55.5390     2.2160 
  187.1250   179.4790   -15.5890   -38.4160   -14.8690    74.8000    55.2480    59.3020    55.2060     2.2100 
  187.2500   179.5900   -15.6080   -38.4680   -14.8390    74.8420    58.1270    62.5630    52.0820     2.2020 
  187.3750   179.7020   -15.6280   -38.5210   -14.7300    73.9660    61.6250    66.5440    48.8080     2.1970 
  187.5000   179.8140   -15.6470   -38.5730   -14.5490    71.7270    65.7850    71.2410    45.2970     2.1980 
  187.6250   179.9250   -15.6670   -38.6260   -14.3410    69.8990    70.3310    76.5070    46.7290     2.1990 
  187.7500   180.0370   -15.6870   -38.6780   -14.1100    68.9160    74.9550    81.4090    54.6710     2.1940 
  187.8750   180.1490   -15.7070   -38.7310   -13.8180    67.7430    77.3520    84.1840    71.0190     2.1880 
  188.0000   180.2610   -15.7260   -38.7830   -13.5280    67.0290    77.5580    84.3340    89.3350     2.1900 
  188.1250   180.3720   -15.7460   -38.8360   -13.3430    69.7790    75.1680    81.8820    93.2380     2.2010 
  188.2500   180.4840   -15.7660   -38.8880   -13.1910    72.8060    71.5310    78.1720    88.6670     2.2100 
  188.3750   180.5960   -15.7850   -38.9410   -13.0730    72.7680    68.3180    74.9310    82.4390     2.2110 
  188.5000   180.7070   -15.8050   -38.9940   -12.8730    71.7890    66.3780    73.3810    78.2090     2.2090 
  188.6250   180.8190   -15.8250   -39.0460   -12.5390    72.1710    67.2560    74.5240    70.4920     2.2110 
  188.7500   180.9310   -15.8440   -39.0990   -12.1700    72.3820    70.0760    77.7480    62.8930     2.2120 
  188.8750   181.0430   -15.8640   -39.1510   -11.8130    70.3030    73.8850    82.0050    59.9580     2.2070 
  189.0000   181.1540   -15.8830   -39.2040   -11.5790    66.3090    77.5050    85.9400    61.7400     2.2010 
  189.1250   181.2660   -15.9020   -39.2570   -11.5110    62.9560    79.6580    88.0720    64.4550     2.2010 
