~V
VERS. 2.00: Ver 2.00
~W
STRT.M 30.0000:
STOP.M 284.0000:
STEP.M 0.1250:
NULL. -999.2500:
UWI. FD11172:
~C
DEPT.M :
TVD. :
DX. :
DY. :
SP.MV :
GR.API :
RI. :
RML.OHMM :
RXO.OHMM :
DEN.GM/CC :
~A
# ...
  212.5000   200.4830    55.6180    17.7310    -5.4930    54.0760   371.4670   401.3090   513.4600     2.0940 
  212.6250   200.5930    55.6740    17.7520    -5.1760    56.1090   265.7420   286.5150   537.9220     2.1170 
  212.7500   200.7030    55.7310    17.7730    -4.8490    58.9130   194.6660   207.1590   346.2250     2.1390 
  212.8750   200.8120    55.7870    17.7940    -4.5670    59.1540   150.8090   159.9550   167.9160     2.1560 
  213.0000   200.9220    55.8440    17.8140    -4.2260    56.7400   117.9140   123.3160   114.2900     2.1650 
  213.1250   201.0310    55.9000    17.8350    -4.0250    58.8330   102.4880   106.7990   111.2130     2.1670 
  213.2500   201.1410    55.9570    17.8560    -3.8940    63.4970    93.7360    97.4310   103.7500     2.1710 
  213.3750   201.2500    56.0130    17.8770    -3.8680    66.2310    92.5870    95.4800    86.1050     2.1800 
  213.5000   201.3600    56.0690    17.8970    -3.9280    65.5890    95.8230    98.6950    73.8120     2.1820 
  213.6250   201.4690    56.1260    17.9180    -3.9650    65.3210   104.2140   107.0740    84.7550     2.1700 
  213.7500   201.5790    56.1820    17.9400    -3.8600    67.1280   114.5020   116.9520   108.2520     2.1540 
  213.8750   201.6890    56.2390    17.9600    -3.5970    68.4010   122.0330   124.0370   133.9430     2.1430 
  214.0000   201.7980    56.2950    17.9810    -3.2680    66.8140   124.1370   125.8360   151.4530     2.1410 
  214.1250   201.9080    56.3520    18.0020    -2.9510    62.9040   121.0170   123.4100   151.8660     2.1510 
  214.2500   202.0170    56.4080    18.0230    -2.6950    60.8510   118.6230   122.2950   143.1460     2.1720 
  214.3750   202.1270    56.4650    18.0440    -2.5440    61.4220   122.6290   128.8150   127.9800     2.1930 
  214.5000   202.2360    56.5210    18.0650    -2.5240    62.2380   139.4200   149.6050   120.2760     2.1980 
  214.6250   202.3460    56.5780    18.0860    -2.6350    61.7770   172.2390   188.1130   162.5130     2.1830 
  214.7500   202.4550    56.6340    18.1070    -2.7430    60.6430   216.9160   241.7370   261.8680     2.1700 
  214.8750   202.5650    56.6910    18.1280    -2.6660    58.8240   290.2230   327.4150   365.8890     2.2050 
  215.0000   202.6740    56.7470    18.1490    -2.3800    54.9710   375.1780   386.5820   408.5660     2.3040 
  215.1250   202.7840    56.8030    18.1700    -1.9820    49.8070   348.0690   347.6580   424.8520     2.4320 
  215.2500   202.8940    56.8600    18.1910    -1.5680    47.1580   270.1760   256.3620   562.6610     2.5450 
  215.3750   203.0030    56.9160    18.2120    -1.1620    48.0870   134.3470   118.7140   804.1340     2.6430 
  215.5000   203.1130    56.9720    18.2330    -0.7890    47.7540    32.7210    34.2780   837.6690     2.7190 
  215.6250   203.2220    57.0290    18.2540    -0.5020    46.7100     9.5800    11.8960   521.0660     2.7090 
  215.7500   203.3320    57.0850    18.2750    -0.3170    48.7150     4.9210     5.8420   172.8730     2.6030 
  215.8750   203.4420    57.1410    18.2950    -0.2280    51.1320     3.5570     4.2470    28.8670     2.4810 
  216.0000   203.5510    57.1970    18.3160    -0.1820    49.8020     3.1180     3.8060     4.1220     2.4220 
  216.1250   203.6610    57.2540    18.3370    -0.1510    47.7600     3.1300     3.6450     3.4910     2.4180 
  216.2500   203.7710    57.3100    18.3570    -0.1440    49.9780     3.3760     3.8330     3.7320     2.4140 
  216.3750   203.8800    57.3660    18.3780    -0.1960    53.2210     3.6150     4.0440     4.1260     2.3980 
  216.5000   203.9900    57.4230    18.3990    -0.3090    52.9700     3.7680     4.1160     4.6450     2.3760 
  216.6250   204.1000    57.4790    18.4190    -0.4280    50.2900     3.8470     4.1370     4.8100     2.3490 
  216.7500   204.2090    57.5350    18.4400    -0.4970    48.5810     3.8490     4.1140     4.3630     2.3260 
  216.8750   204.3190    57.5920    18.4610    -0.5930    47.8510     3.8220     4.0720     3.8050     2.3120 
  217.0000   204.4290    57.6480    18.4810    -0.8730    45.9780     3.7910     4.0350     3.5770     2.3050 
  217.1250   204.5380    57.7050    18.5020    -1.3690    44.9630     3.7750     4.0340     3.5720     2.2980 
  217.2500   204.6480    57.7610    18.5230    -1.8860    48.7080     3.7830     4.0930     3.7040     2.2960 
  217.3750   204.7570    57.8180    18.5430    -2.2710    54.8360     3.8270     4.2230     3.9530     2.3060 
  217.5000   204.8670    57.8740    18.5640    -2.5940    61.6890     3.9230     4.3940     4.0920     2.3210 
  217.6250   204.9760    57.9310    18.5850    -2.9980    69.7180     4.1000     4.5820     4.1040     2.3420 
  217.7500   205.0860    57.9870    18.6060    -3.5210    78.7950     4.3600     4.7530     4.2720     2.3700 
  217.8750   205.1950    58.0440    18.6270    -4.1340    84.4900     4.6580     5.0920     4.6730     2.3940 
  218.0000   205.3050    58.1000    18.6480    -4.8250    87.9090     4.9450     5.4960     5.2020     2.4050 
  218.1250   205.4140    58.1570    18.6690    -5.6560    92.4700     5.1480     5.6710     5.8620     2.4010 
  218.2500   205.5240    58.2140    18.6900    -6.6270    98.9060     5.2340     5.7010     6.3590     2.3930 
  218.3750   205.6330    58.2700    18.7110    -7.6480   104.0200     5.2560     5.6950     6.4150     2.3850 
  218.5000   205.7420    58.3270    18.7320    -8.5520   106.9190     5.2870     5.6700     6.4820     2.3750 
  218.6250   205.8520    58.3840    18.7530    -9.2040   106.2850     5.3620     5.7240     6.7560     2.3670 
  218.7500   205.9610    58.4410    18.7750    -9.6630   102.8560     5.5070     5.8810     6.7220     2.3680 
  218.8750   206.0700    58.4970    18.7960   -10.0220    97.4180     5.7190     6.1210     6.8700     2.3690 
  219.0000   206.1800    58.5540    18.8160   -10.2790    93.9450     5.9920     6.4310     7.9290     2.3570 
  219.1250   206.2890    58.6110    18.8370   -10.3140    93.3750     6.3070     6.7960     8.6900     2.3350 
  219.2500   206.3990    58.6680    18.8580   -10.1300    92.9540     6.6170     7.1550     8.3990     2.3270 
  219.3750   206.5080    58.7250    18.8790    -9.8260    90.8050     6.8230     7.4040     8.4240     2.3400 
  219.5000   206.6170    58.7820    18.9000    -9.5340    88.0100     6.8820     7.5130     9.1560     2.3600 
  219.6250   206.7270    58.8380    18.9210    -9.3450    87.9190     6.7960     7.4940     9.7020     2.3760 
  219.7500   206.8360    58.8950    18.9420    -9.2500    91.6000     6.6520     7.4140    10.4260     2.3870 
  219.8750   206.9450    58.9520    18.9630    -9.1740    96.5550     6.5170     7.3470    11.6630     2.3830 
  220.0000   207.0550    59.0090    18.9840    -9.1180    97.2440     6.4650     7.3500    12.0540     2.3670 
  220.1250   207.1640    59.0660    19.0050    -9.1800    93.2360     6.5200     7.4380    11.2640     2.3560 
  220.2500   207.2730    59.1220    19.0250    -9.3610    90.4390     6.6160     7.5740    10.5160     2.3520 
  220.3750   207.3830    59.1790    19.0460    -9.5660    91.6390     6.7320     7.7170    10.0870     2.3480 
  220.5000   207.4920    59.2360    19.0670    -9.7630    94.0450     6.7880     7.8010     9.8470     2.3450 
  220.6250   207.6020    59.2920    19.0880   -10.0410    95.9640     6.7710     7.8010     9.5490     2.3470 
  220.7500   207.7110    59.3490    19.1090   -10.4240    96.6810     6.7020     7.7510     9.0350     2.3500 
  220.8750   207.8210    59.4060    19.1300   -10.7690    96.6640     6.6100     7.6910     8.7500     2.3450 
  221.0000   207.9300    59.4620    19.1500   -10.9330    97.1260     6.5230     7.6550     8.7220     2.3350 
  221.1250   208.0400    59.5190    19.1710   -10.8780    99.2710     6.4180     7.6240     8.5610     2.3280 
  221.2500   208.1490    59.5750    19.1920   -10.6660   100.8840     6.2650     7.5290     8.2560     2.3250 
  221.3750   208.2590    59.6320    19.2130   -10.2990   100.7160     5.9790     7.2420     8.0200     2.3180 
  221.5000   208.3680    59.6890    19.2330    -9.7900    99.6250     5.5280     6.7190     7.8020     2.3050 
