~V
VERS. 2.00: Ver 2.00
~W
STRT.M 20.0000:
STOP.M 277.0000:
STEP.M 0.1250:
NULL. -999.2500:
UWI. FD11024:
~C
DEPT.M :
TVD. :
DX. :
DY. :
DEN.GM/CC :
GR.API :
RML.OHMM :
RI. :
RXO.OHMM :
CALI.CM :
SP.MV :
~A
# ...
  135.5000   134.3030     7.6340    11.1280     2.4880    43.2080    17.5760    15.8960     9.5090    21.3910     4.1580 
  135.6250   134.4240     7.6500    11.1500     2.4930    42.1330    17.0440    15.4840     9.4650    21.3910     4.2600 
  135.7500   134.5460     7.6660    11.1740     2.4940    42.5060    16.6370    15.1500     9.0810    21.3910     4.3430 
  135.8750   134.6680     7.6820    11.1980     2.4930    43.4520    16.3850    14.9310     8.7580    21.3910     4.4220 
  136.0000   134.7890     7.6980    11.2220     2.4890    44.0400    16.2160    14.7920     8.9110    21.3910     4.4910 
  136.1250   134.9110     7.7140    11.2460     2.4830    46.1670    15.9440    14.6010     9.3470    21.3910     4.5320 
  136.2500   135.0330     7.7300    11.2700     2.4750    49.6250    15.4430    14.2440     9.4560    21.3910     4.5450 
  136.3750   135.1540     7.7460    11.2940     2.4660    51.5310    14.6930    13.6830     9.4260    21.3910     4.5080 
  136.5000   135.2760     7.7620    11.3170     2.4590    51.4310    13.7890    12.9630     8.8190    21.3910     4.4590 
  136.6250   135.3980     7.7780    11.3410     2.4600    52.7510    12.9510    12.2300     8.0640    21.3910     4.3700 
  136.7500   135.5190     7.7940    11.3650     2.4640    56.0870    12.3670    11.6500     7.6810    21.3910     4.2650 
  136.8750   135.6410     7.8100    11.3890     2.4680    57.1700    12.1300    11.3120     7.5650    21.3910     4.1430 
  137.0000   135.7630     7.8260    11.4130     2.4670    55.6530    12.2540    11.2420     7.5340    21.3910     4.0050 
  137.1250   135.8840     7.8420    11.4370     2.4560    54.2720    12.7030    11.4390     7.7760    21.3930     3.8440 
  137.2500   136.0060     7.8580    11.4610     2.4410    51.8480    13.2710    11.7870     8.4700    21.4010     3.6990 
  137.3750   136.1270     7.8740    11.4840     2.4280    47.6990    13.8130    12.2070     9.1520    21.4590     3.5760 
  137.5000   136.2490     7.8900    11.5080     2.4240    44.5250    14.2510    12.6430     9.1350    21.5240     3.4530 
  137.6250   136.3710     7.9060    11.5320     2.4360    44.6010    14.5580    13.0590     9.1040    21.6270     3.3440 
  137.7500   136.4920     7.9220    11.5560     2.4580    45.8010    14.7940    13.4280     9.1620    21.6360     3.2320 
  137.8750   136.6140     7.9390    11.5800     2.4820    47.8370    14.9990    13.7190     9.5080    21.5710     3.1160 
  138.0000   136.7360     7.9550    11.6040     2.4960    50.7860    15.1940    13.9080    10.0050    21.4940     2.9930 
  138.1250   136.8570     7.9710    11.6280     2.4910    53.6820    15.3550    13.9740    10.2160    21.4820     2.8690 
  138.2500   136.9790     7.9870    11.6520     2.4740    57.2050    15.4600    13.9530     9.8900    21.4810     2.7050 
  138.3750   137.1010     8.0030    11.6750     2.4520    63.2950    15.5130    13.8760     9.6620    21.4890     2.5280 
  138.5000   137.2220     8.0190    11.6990     2.4350    70.8710    15.5450    13.7910     9.8090    21.5430     2.3380 
  138.6250   137.3440     8.0350    11.7230     2.4280    76.7900    15.6140    13.7660     9.9980    21.5530     2.1210 
  138.7500   137.4660     8.0510    11.7470     2.4270    80.0450    15.7530    13.8270    10.0940    21.5640     1.8940 
  138.8750   137.5870     8.0670    11.7710     2.4270    80.8020    15.9840    13.9810    10.1860    21.6120     1.6680 
  139.0000   137.7090     8.0830    11.7950     2.4240    79.2010    16.3380    14.2280    10.5950    21.6940     1.4450 
  139.1250   137.8300     8.0990    11.8190     2.4160    78.1450    16.8860    14.6040    11.4450    21.7550     1.2350 
  139.2500   137.9520     8.1150    11.8420     2.4070    78.0700    17.6210    15.1050    12.4420    21.7100     1.0440 
  139.3750   138.0740     8.1310    11.8660     2.4040    76.9670    18.5030    15.7310    12.1620    21.3750     0.8530 
  139.5000   138.1950     8.1470    11.8900     2.4090    73.3030    19.4200    16.4320    11.3440    20.7550     0.6550 
  139.6250   138.3170     8.1630    11.9140     2.4220    71.2950    20.1600    17.0740    10.7550    20.2470     0.4720 
  139.7500   138.4390     8.1790    11.9380     2.4330    73.4040    20.5870    17.5140    10.6240    20.0510     0.3340 
  139.8750   138.5600     8.1950    11.9620     2.4350    75.6590    20.6500    17.6630    11.0800    19.9900     0.2320 
  140.0000   138.6820     8.2110    11.9860     2.4250    75.4920    20.3890    17.5060    11.1160    19.9790     0.1650 
  140.1250   138.8040     8.2270    12.0100     2.4050    74.9460    19.9030    17.0840    10.8380    20.0470     0.1290 
  140.2500   138.9250     8.2430    12.0330     2.3840    75.2930    19.3880    16.5650    10.7650    20.3800     0.1240 
  140.3750   139.0470     8.2590    12.0570     2.3670    74.2340    18.9580    16.0810    11.2400    20.8100     0.1460 
  140.5000   139.1690     8.2750    12.0810     2.3560    71.5400    18.6780    15.7400    11.9490    21.3260     0.1870 
  140.6250   139.2900     8.2910    12.1050     2.3530    72.9390    18.6170    15.6480    12.5000    21.4240     0.2610 
  140.7500   139.4120     8.3070    12.1290     2.3570    74.5430    18.7450    15.7690    12.8850    21.4160     0.3410 
  140.8750   139.5340     8.3230    12.1530     2.3660    71.2670    19.0230    16.0460    13.0940    21.5060     0.4310 
  141.0000   139.6550     8.3390    12.1770     2.3800    64.5340    19.3820    16.3840    13.4280    21.5740     0.5020 
  141.1250   139.7770     8.3550    12.2000     2.3950    64.0170    19.6880    16.6520    14.4170    21.7150     0.5610 
  141.2500   139.8980     8.3720    12.2240     2.4070    70.7200    19.7970    16.7500    14.8910    21.8430     0.6200 
  141.3750   140.0200     8.3880    12.2480     2.4140    76.6130    19.6020    16.6150    14.1720    21.9000     0.6880 
  141.5000   140.1420     8.4040    12.2720     2.4170    77.8020    19.0760    16.2280    12.9380    21.9790     0.7750 
  141.6250   140.2630     8.4200    12.2960     2.4180    76.4930    18.2600    15.5940    12.0940    22.1370     0.8520 
  141.7500   140.3850     8.4360    12.3200     2.4210    75.3960    17.3320    14.8410    11.9210    22.2370     0.9350 
  141.8750   140.5070     8.4520    12.3440     2.4270    73.5440    16.4330    14.0790    11.5760    22.1860     0.9870 
  142.0000   140.6280     8.4680    12.3680     2.4350    71.9960    15.6980    13.4150    10.7460    22.0780     1.0470 
  142.1250   140.7500     8.4840    12.3910     2.4430    72.5510    15.2760    12.9780     9.9850    21.9300     1.0850 
  142.2500   140.8720     8.5000    12.4150     2.4490    71.8770    15.1620    12.7810     9.7000    21.8710     1.1040 
  142.3750   140.9930     8.5160    12.4390     2.4500    67.3230    15.3250    12.8060     9.9990    22.0030     1.0960 
  142.5000   141.1150     8.5320    12.4630     2.4450    61.3410    15.6680    12.9800    10.8560    22.1630     1.0510 
  142.6250   141.2370     8.5480    12.4870     2.4370    59.8050    16.0570    13.2020    12.0970    22.2630     1.0140 
  142.7500   141.3580     8.5640    12.5110     2.4310    63.1580    16.3700    13.4010    12.5520    22.3600     0.9250 
  142.8750   141.4800     8.5800    12.5350     2.4310    69.8500    16.4870    13.5410    11.8140    22.2740     0.8360 
  143.0000   141.6010     8.5960    12.5580     2.4380    75.7340    16.2240    13.5200    11.2070    22.1060     0.7190 
  143.1250   141.7230     8.6120    12.5820     2.4440    75.8470    15.3000    13.0830    10.8660    22.0490     0.6070 
  143.2500   141.8450     8.6280    12.6060     2.4370    73.4040    13.8480    12.1860    11.3640    22.0670     0.4740 
  143.3750   141.9660     8.6440    12.6300     2.4120    71.9630    12.1720    10.9620    11.9780    22.0860     0.3310 
  143.5000   142.0880     8.6600    12.6540     2.3700    73.0430    10.6830     9.7010    10.9240    22.0930     0.1860 
  143.6250   142.2100     8.6760    12.6780     2.3250    75.7140     9.7850     8.7590     7.9230    22.1000     0.0400 
