~V
VERS. 2.00: Ver 2.00
~W
STRT.M 10.0000:
STOP.M 249.0000:
STEP.M 0.1250:
NULL. -999.2500:
UWI. FD11114:
~C
DEPT.M :
TVD. :
DX. :
DY. :
GR.API :
RML.OHMM :
RI. :
RXO.OHMM :
CALI.CM :
SP.MV :
DEN.GM/CC :
~A
# ...
   18.2500    18.2500     0.0000     0.0000    36.6920    90.8680     5.9230     1.9410    25.9190    62.7820     1.9430 
   18.3750    18.3750     0.0000     0.0000    37.3790    97.6600     5.8530     1.8030    25.9260    62.3650     1.9440 
   18.5000    18.5000     0.0000     0.0000    37.1560   108.6430     5.8010     1.8210    25.9310    61.8960     1.9510 
   18.6250    18.6250     0.0000     0.0000    37.2090   122.1350     5.7570     1.9870    25.9330    61.3790     1.9650 
   18.7500    18.7500     0.0000     0.0000    35.0490   135.2040     5.7080     2.2710    25.9320    60.7920     1.9810 
   18.8750    18.8750     0.0000     0.0000    31.9710   143.3170     5.6460     2.3610    25.9310    60.1220     1.9920 
   19.0000    19.0000     0.0000     0.0000    32.0510   145.0320     5.5820     2.2740    25.9260    59.3480     1.9930 
   19.1250    19.1250     0.0000     0.0000    35.0630   144.0150     5.5400     2.0850    25.9160    58.4770     1.9870 
   19.2500    19.2500     0.0000     0.0000    35.4370   141.7710     5.5680     1.8480    25.9110    57.5100     1.9860 
   19.3750    19.3750     0.0000     0.0000    33.5020   137.4930     5.6870     1.7820    25.8780    56.4600     2.0010 
   19.5000    19.5000     0.0000     0.0000    33.4340   132.3240     5.8890     1.8470    25.8090    55.3170     2.0340 
   19.6250    19.6250     0.0000     0.0000    35.3500   129.4150     6.1320     1.9470    25.7700    54.0600     2.0760 
   19.7500    19.7500     0.0000     0.0000    35.8420   133.4300     6.3320     2.0850    25.8280    52.6480     2.1080 
   19.8750    19.8750     0.0000     0.0000    35.2940   146.5640     6.3980     2.1170    25.9010    51.0590     2.1190 
   20.0000    20.0000     0.0000     0.0000    35.5300   173.4600     6.2170     2.0040    25.9190    49.2310     2.1120 
   20.1250    20.1250     0.0000     0.0000    35.8920   214.8350     5.6560     1.7020    25.9070    47.0810     2.0980 
   20.2500    20.2500     0.0000     0.0000    34.4030   232.6190     4.5960     1.5720    25.9100    44.4570     2.0970 
   20.3750    20.3750     0.0000     0.0000    32.4620   174.4270     3.3000     1.5530    25.9030    41.3560     2.1230 
   20.5000    20.5000     0.0000     0.0000    32.4280    90.3330     2.0950     1.6660    25.8880    37.7270     2.2020 
   20.6250    20.6250     0.0000     0.0000    33.5100    41.2970     1.2090     1.9100    25.8750    33.5260     2.3850 
   20.7500    20.7500     0.0000     0.0000    32.9450    25.0430     0.7390     2.1580    25.8460    28.6210     2.6240 
   20.8750    20.8750     0.0000     0.0000    31.7370    21.5280     0.6040     2.0350    25.7920    23.1270     2.6940 
   21.0000    21.0000     0.0000     0.0000    32.8520    26.1340     1.0320     2.3060    25.7400    17.1520     2.5510 
   21.1250    21.1250     0.0000     0.0000    36.0610    39.2930     2.5780     2.7400    25.7580    10.9300     2.3070 
   21.2500    21.2500     0.0000     0.0000    38.8920    68.9640     6.1370     3.6820    26.1310     4.8190     2.0590 
   21.3750    21.3750     0.0000     0.0000    39.3770   121.8650    11.6010     3.4790    27.0990    -0.8890     1.8540 
   21.5000    21.5000     0.0000     0.0000    38.7800   193.8810    17.5940     3.2800    28.5650    -5.9750     1.7130 
   21.6250    21.6250     0.0000     0.0000    39.2720   240.1150    20.2680     3.5610    30.2080   -10.2920     1.6380 
   21.7500    21.7500     0.0000     0.0000    42.4670   218.9800    16.9690     4.3530    31.7690   -13.6350     1.6160 
   21.8750    21.8750     0.0000     0.0000    45.6730   183.1250    12.7840     4.9910    33.0540   -16.2100     1.6070 
   22.0000    22.0000     0.0000     0.0000    46.5630   159.2430    10.3200     4.8730    33.8350   -18.1800     1.5950 
   22.1250    22.1250     0.0000     0.0000    46.3130   144.9690     9.4790     4.0380    34.0610   -19.7530     1.5810 
   22.2500    22.2500     0.0000     0.0000    47.5980   132.5120     9.3180     3.3650    34.0310   -21.0790     1.5730 
   22.3750    22.3750     0.0000     0.0000    48.6220   121.2090     9.2370     3.0780    34.0180   -22.2910     1.5770 
   22.5000    22.5000     0.0000     0.0000    48.3420   114.5350     9.2280     3.2450    33.9840   -23.4350     1.5900 
   22.6250    22.6250     0.0000     0.0000    46.7080   114.5440     9.3540     3.9830    33.9130   -24.5550     1.6060 
   22.7500    22.7500     0.0000     0.0000    45.0430   121.1550     9.6650     5.3300    33.8450   -25.6700     1.6200 
   22.8750    22.8750     0.0000     0.0000    44.3260   131.2180    10.0870     6.4810    33.8140   -26.7800     1.6260 
   23.0000    23.0000     0.0000     0.0000    45.0450   142.9300    10.5500     7.0310    33.8140   -27.8660     1.6260 
   23.1250    23.1250     0.0000     0.0000    46.8080   154.0010    10.9830     7.2790    33.8210   -28.9130     1.6210 
   23.2500    23.2500     0.0000     0.0000    47.7620   161.5860    11.3220     7.5240    33.8190   -29.8950     1.6210 
   23.3750    23.3750     0.0000     0.0000    47.9360   165.7320    11.5730     7.8100    33.8210   -30.8010     1.6310 
   23.5000    23.5000     0.0000     0.0000    49.6230   168.1880    11.7590     8.0670    33.7920   -31.6310     1.6570 
   23.6250    23.6250     0.0000     0.0000    53.3780   171.1690    11.9050     8.3360    33.4990   -32.3920     1.7020 
   23.7500    23.7500     0.0000     0.0000    56.0500   175.7000    12.0190     8.4620    32.6790   -33.0870     1.7680 
   23.8750    23.8750     0.0000     0.0000    56.4160   179.9350    12.0920     8.5190    31.6640   -33.7260     1.8450 
   24.0000    24.0000     0.0000     0.0000    57.6260   181.1930    12.1030     8.4410    30.9180   -34.3040     1.9190 
   24.1250    24.1250     0.0000     0.0000    60.9570   177.3230    12.0450     8.2060    30.7380   -34.8340     1.9660 
   24.2500    24.2500     0.0000     0.0000    62.2760   167.4760    11.9440     8.0220    31.2200   -35.3220     1.9650 
   24.3750    24.3750     0.0000     0.0000    60.0400   154.9950    11.8720     7.6850    31.9920   -35.7770     1.9310 
   24.5000    24.5000     0.0000     0.0000    56.8560   142.9280    11.8930     7.1990    32.5150   -36.2000     1.8890 
   24.6250    24.6250     0.0000     0.0010    55.8590   133.5640    12.0490     7.2730    32.3260   -36.5930     1.8630 
   24.7500    24.7500     0.0000     0.0010    57.4700   128.5270    12.3550     7.8420    31.5190   -36.9640     1.8720 
   24.8750    24.8750     0.0000     0.0010    60.4240   126.6360    12.7400     8.4780    30.8010   -37.3270     1.9040 
   25.0000    25.0000     0.0000     0.0010    61.5170   126.0780    13.1370     8.7560    30.4670   -37.6660     1.9380 
   25.1250    25.1250     0.0000     0.0020    60.2720   124.3750    13.4670     8.8350    30.4030   -37.9540     1.9560 
   25.2500    25.2500     0.0000     0.0020    58.9530   118.2350    13.6240     8.9180    30.3770   -38.1400     1.9560 
   25.3750    25.3750     0.0010     0.0020    58.4660   107.1030    13.5810     9.0250    30.3170   -38.2360     1.9510 
   25.5000    25.5000     0.0010     0.0020    57.5370    92.5370    13.3440     8.9940    30.2600   -38.2480     1.9500 
   25.6250    25.6250     0.0010     0.0030    56.7060    77.5850    12.9690     8.9900    30.1110   -38.1780     1.9580 
   25.7500    25.7500     0.0010     0.0030    59.1680    65.5130    12.5780     8.8740    29.6150   -38.0070     1.9730 
   25.8750    25.8750     0.0010     0.0030    62.6880    56.9650    12.3360     8.6410    28.8230   -37.7450     1.9890 
   26.0000    26.0000     0.0010     0.0030    63.9000    51.4740    12.3700     8.5140    27.8980   -37.3950     2.0070 
   26.1250    26.1250     0.0010     0.0040    62.1960    47.9550    12.7480     8.5160    26.9270   -36.9720     2.0310 
   26.2500    26.2500     0.0010     0.0040    59.5980    44.9900    13.4180     8.8540    26.0140   -36.4490     2.0710 
   26.3750    26.3750     0.0010     0.0040    58.9790    41.1300    13.9600    10.1110    25.4290   -35.8210     2.1220 
