~V
VERS. 2.00: Ver 2.00
~W
STRT.M 10.0000:
STOP.M 249.0000:
STEP.M 0.1250:
NULL. -999.2500:
UWI. FD11114:
~C
DEPT.M :
TVD. :
DX. :
DY. :
GR.API :
RML.OHMM :
RI. :
RXO.OHMM :
CALI.CM :
SP.MV :
DEN.GM/CC :
~A
# ...
   51.2500    51.2500     0.0220     0.0710    58.3800     8.2630     5.4570     9.2540    26.6780   -35.4070     2.1100 
   51.3750    51.3750     0.0230     0.0720    62.7710     8.6690     5.6980     9.3350    26.4410   -33.7750     2.1060 
   51.5000    51.5000     0.0230     0.0720    63.4140     9.6270     6.3250     9.1070    26.2680   -32.0480     2.1480 
   51.6250    51.6250     0.0230     0.0730    61.9910    11.3450     7.5150     9.3120    26.2210   -30.2870     2.2480 
   51.7500    51.7500     0.0230     0.0730    62.1790    14.0730     9.5450    14.6840    26.2510   -28.5730     2.4080 
   51.8750    51.8750     0.0230     0.0740    63.3730    17.2540    12.1260    30.7900    26.2670   -26.9710     2.5750 
   52.0000    52.0000     0.0240     0.0740    65.5590    19.7530    14.4320    55.4380    26.2740   -25.5700     2.6830 
   52.1250    52.1250     0.0240     0.0750    70.6530    19.9800    15.1290    62.7230    26.2930   -24.4180     2.6910 
   52.2500    52.2500     0.0240     0.0750    77.2220    16.8170    13.3180    39.3530    26.3250   -23.5660     2.6050 
   52.3750    52.3750     0.0240     0.0750    82.4290    12.3890    10.5310    18.3450    26.3520   -22.9380     2.4900 
   52.5000    52.5000     0.0240     0.0760    87.7750     8.5790     7.9770     8.4140    26.3650   -22.4960     2.3820 
   52.6250    52.6250     0.0250     0.0760    95.7400     6.1880     6.1830     4.9870    26.3650   -22.1950     2.3040 
   52.7500    52.7500     0.0250     0.0770   100.9790     5.2120     5.2690     4.6080    26.3680   -21.9950     2.2670 
   52.8750    52.8750     0.0250     0.0770    99.7610     4.9550     4.8910     4.8320    26.3990   -21.8470     2.2510 
   53.0000    53.0000     0.0250     0.0780    95.9770     5.0810     4.8380     4.6920    26.4550   -21.7340     2.2450 
   53.1250    53.1250     0.0250     0.0780    95.3590     5.3360     4.9110     4.5170    26.5030   -21.6510     2.2470 
   53.2500    53.2500     0.0260     0.0790    98.7450     5.5080     4.9430     4.5580    26.5220   -21.6140     2.2600 
   53.3750    53.3750     0.0260     0.0790   103.3190     5.5250     4.8880     4.3500    26.5110   -21.6300     2.2770 
   53.5000    53.5000     0.0260     0.0800   106.1720     5.4390     4.7890     4.0930    26.4450   -21.7160     2.2850 
   53.6250    53.6250     0.0260     0.0800   105.6550     5.3550     4.7120     3.9060    26.2970   -21.8850     2.2770 
   53.7500    53.7500     0.0260     0.0810   104.2170     5.3840     4.7290     3.9860    26.1080   -22.1450     2.2560 
   53.8750    53.8750     0.0270     0.0810   102.4720     5.5430     4.8520     4.4520    25.9720   -22.4690     2.2360 
   54.0000    54.0000     0.0270     0.0820    98.5130     5.7960     5.0580     5.2010    25.9210   -22.8080     2.2310 
   54.1250    54.1250     0.0270     0.0820    94.2890     6.0610     5.2820     5.7080    25.9230   -23.1150     2.2470 
   54.2500    54.2500     0.0270     0.0830    95.1170     6.1980     5.4120     6.4270    25.9830   -23.3290     2.2750 
   54.3750    54.3750     0.0280     0.0830    96.8390     6.1440     5.3800     6.7780    26.1360   -23.4530     2.2950 
   54.5000    54.5000     0.0280     0.0840    94.2410     5.9200     5.1760     6.6810    26.3530   -23.4970     2.2950 
   54.6250    54.6250     0.0280     0.0840    90.4830     5.6380     4.8580     5.1210    26.5220   -23.4920     2.2780 
   54.7500    54.7500     0.0280     0.0850    90.8440     5.4930     4.5500     4.1300    26.5430   -23.5210     2.2570 
   54.8750    54.8750     0.0280     0.0850    93.4120     5.5970     4.3540     3.7780    26.4780   -23.6520     2.2440 
   55.0000    55.0000     0.0290     0.0860    95.4740     5.9710     4.3100     3.9110    26.3970   -23.9190     2.2360 
   55.1250    55.1250     0.0290     0.0860    95.8720     6.5510     4.4150     4.3040    26.3440   -24.3230     2.2270 
   55.2500    55.2500     0.0290     0.0870    93.5780     7.1750     4.6220     4.8050    26.3380   -24.8250     2.2180 
   55.3750    55.3750     0.0290     0.0870    91.0050     7.6220     4.8140     5.1690    26.3470   -25.3610     2.2230 
   55.5000    55.5000     0.0290     0.0880    91.2140     7.7820     4.9090     5.2000    26.3500   -25.8940     2.2480 
   55.6250    55.6250     0.0300     0.0880    93.7590     7.6900     4.8900     5.1340    26.3490   -26.3870     2.2850 
   55.7500    55.7500     0.0300     0.0880    94.7870     7.5130     4.8050     5.2270    26.3480   -26.7920     2.3010 
   55.8750    55.8750     0.0300     0.0890    93.7080     7.4340     4.7450     5.2360    26.3460   -27.1400     2.2810 
   56.0000    56.0000     0.0300     0.0890    90.1470     7.5170     4.7590     5.4440    26.3480   -27.4650     2.2330 
   56.1250    56.1250     0.0300     0.0900    84.5620     7.7180     4.8460     6.5270    26.3870   -27.7820     2.1790 
   56.2500    56.2500     0.0310     0.0900    78.7550     7.8980     4.9560     7.7120    26.4820   -28.0810     2.1520 
   56.3750    56.3750     0.0310     0.0910    76.1280     7.9460     5.0250     7.2640    26.5780   -28.3470     2.1590 
   56.5000    56.5000     0.0310     0.0910    77.4810     7.8470     5.0300     6.4710    26.6280   -28.5820     2.1880 
   56.6250    56.6250     0.0310     0.0920    79.8690     7.6490     4.9780     5.7770    26.6310   -28.8080     2.2180 
   56.7500    56.7500     0.0310     0.0920    79.8990     7.4540     4.9040     5.4660    26.6340   -29.0040     2.2290 
   56.8750    56.8750     0.0320     0.0930    79.3490     7.3590     4.8640     5.5590    26.6780   -29.1420     2.2270 
   57.0000    57.0000     0.0320     0.0930    79.8660     7.4070     4.8900     5.7940    26.7670   -29.2170     2.2190 
   57.1250    57.1250     0.0320     0.0940    80.4400     7.5910     4.9860     5.7580    26.8540   -29.2410     2.2110 
   57.2500    57.2500     0.0320     0.0940    77.9800     7.8650     5.1270     5.7170    26.8320   -29.1970     2.1990 
   57.3750    57.3750     0.0320     0.0950    74.1450     8.1190     5.2500     6.0090    26.7390   -29.0750     2.1890 
   57.5000    57.5000     0.0330     0.0950    72.2740     8.2470     5.2930     6.5950    26.6830   -28.8630     2.1860 
   57.6250    57.6250     0.0330     0.0960    73.8990     8.1650     5.2150     6.6990    26.7100   -28.5870     2.1980 
   57.7500    57.7500     0.0330     0.0960    80.6300     7.8160     4.9920     6.0530    26.7620   -28.3290     2.2290 
   57.8750    57.8750     0.0330     0.0970    91.8290     7.3060     4.6950     5.2350    26.7780   -28.1510     2.2660 
   58.0000    58.0000     0.0330     0.0970   104.0340     6.7590     4.3940     4.7420    26.7790   -28.0780     2.2950 
   58.1250    58.1250     0.0340     0.0980   108.2880     6.3410     4.1780     4.5860    26.7760   -28.1530     2.3070 
   58.2500    58.2500     0.0340     0.0980   101.3820     6.3430     4.2060     4.8060    26.7180   -28.4370     2.2970 
   58.3750    58.3750     0.0340     0.0990    92.4950     6.9880     4.5960     5.5290    26.5970   -28.9040     2.2780 
   58.5000    58.5000     0.0340     0.0990    84.6490     8.5510     5.5190     6.9660    26.4610   -29.5290     2.2670 
   58.6250    58.6250     0.0350     0.1000    75.9820    11.2140     7.1370    10.4480    26.3740   -30.2700     2.2900 
   58.7500    58.7500     0.0350     0.1000    67.0120    14.8830     9.5450    19.9030    26.3570   -31.0710     2.3780 
   58.8750    58.8750     0.0350     0.1000    62.4640    18.2760    12.0640    33.1010    26.3570   -31.8650     2.4910 
   59.0000    59.0000     0.0350     0.1010    62.1950    19.6940    13.5980    38.4190    26.3480   -32.6150     2.5500 
   59.1250    59.1250     0.0350     0.1010    62.4310    18.1830    13.2530    29.4480    26.3720   -33.2750     2.5060 
   59.2500    59.2500     0.0360     0.1020    61.4690    14.7330    11.2350    16.4500    26.5490   -33.8070     2.3860 
   59.3750    59.3750     0.0360     0.1020    59.5750    11.5840     9.0300     9.5660    26.8600   -34.2140     2.2660 
