~V
VERS. 2.00: Ver 2.00
~W
STRT.M 20.0000:
STOP.M 285.0000:
STEP.M 0.1250:
NULL. -999.2500:
UWI. FD11157:
~C
DEPT.M :
TVD. :
DX. :
DY. :
GR.API :
RML.OHMM :
RI. :
RXO.OHMM :
CALI.CM :
SP.MV :
DEN.GM/CC :
~A
# ...
  275.7500   268.5790   -19.9770   -46.4270    46.7870    13.6980    11.9740     8.6410    19.6110   -13.5360     2.4420 
  275.8750   268.6970   -19.9920   -46.4660    46.7870    14.8320    12.9650     9.4850    19.4920   -13.5320     2.4650 
  276.0000   268.8150   -20.0070   -46.5050    46.7870    15.5120    13.5590    10.5410    19.5000   -13.5220     2.4840 
  276.1250   268.9330   -20.0230   -46.5440    46.7870    15.5080    13.5560    10.6960    19.5010   -13.5020     2.4960 
  276.2500   269.0500   -20.0380   -46.5830    46.7870    15.0350    13.1420    10.0790    19.4710   -13.4580     2.4990 
  276.3750   269.1680   -20.0530   -46.6220    46.7870    14.3090    12.5070     8.8820    19.4550   -13.3860     2.4910 
  276.5000   269.2860   -20.0680   -46.6610    46.7870    13.5360    11.8320     8.1200    19.4800   -13.2840     2.4720 
  276.6250   269.4040   -20.0840   -46.7000    46.7870    12.8790    11.2580     7.8770    19.4540   -13.1460     2.4520 
  276.7500   269.5210   -20.0990   -46.7390    46.7870    12.3820    10.8230     7.6870    19.4320   -12.9980     2.4380 
  276.8750   269.6390   -20.1140   -46.7780    46.7870    12.0550    10.5380     7.5460    19.4270   -12.8270     2.4310 
  277.0000   269.7570   -20.1290   -46.8170    46.7870    11.8790    10.3830     7.5370    19.4540   -12.6560     2.4290 
  277.1250   269.8750   -20.1450   -46.8560    46.7870    11.8500    10.3590     7.3730    19.5010   -12.5020     2.4300 
  277.2500   269.9920   -20.1600   -46.8950    46.7870    11.9420    10.4390     6.9540    19.5010   -12.3580     2.4330 
  277.3750   270.1100   -20.1750   -46.9350    46.7870    12.1120    10.5880     6.5150    19.5590   -12.2450     2.4410 
  277.5000   270.2280   -20.1910   -46.9740    46.7870    12.2840    10.7380     6.3320    19.4040   -12.1630     2.4480 
  277.6250   270.3460   -20.2060   -47.0130    46.7870    12.3620    10.8060     6.3660    19.1960   -12.0710     2.4460 
  277.7500   270.4630   -20.2210   -47.0520    46.7870    12.3390    10.7860     6.5110    19.1860   -12.0070     2.4320 
  277.8750   270.5810   -20.2360   -47.0910    46.7870    12.2700    10.7250     6.8220    19.2000   -11.9800     2.4120 
  278.0000   270.6990   -20.2520   -47.1300    46.7870    12.2400    10.7000     7.5070    19.1840   -11.9500     2.3970 
  278.1250   270.8170   -20.2670   -47.1690    46.7870    12.3050    10.7560     8.9050    19.2630   -11.9150     2.3960 
  278.2500   270.9340   -20.2820   -47.2080    46.7870    12.3870    10.8280    10.2560    19.2170   -11.8650     2.4050 
  278.3750   271.0520   -20.2970   -47.2470    46.7870    12.4020    10.8410    10.6630    19.1380   -11.8280     2.4160 
  278.5000   271.1700   -20.3130   -47.2860    46.7870    12.2830    10.7370    11.1970    19.1100   -11.8220     2.4250 
  278.6250   271.2880   -20.3280   -47.3250    46.7870    12.0350    10.5200    11.7790    19.1090   -11.8320     2.4330 
  278.7500   271.4060   -20.3430   -47.3640    46.7870    11.8310    10.3410    12.1030    19.0130   -11.8070     2.4420 
  278.8750   271.5230   -20.3580   -47.4030    46.7870    11.7890    10.3050    11.7580    18.9400   -11.7650     2.4520 
  279.0000   271.6410   -20.3740   -47.4420    46.7870    11.9180    10.4180    11.1830    18.9260   -11.7440     2.4620 
  279.1250   271.7590   -20.3890   -47.4810    46.7870    12.1140    10.5890    11.0710    18.9160   -11.7440     2.4670 
  279.2500   271.8770   -20.4040   -47.5200    46.7870    12.2270    10.6880    11.1730    18.8730   -11.7440     2.4630 
  279.3750   271.9940   -20.4200   -47.5600    46.7870    12.1920    10.6580    11.4160    18.8380   -11.7210     2.4470 
  279.5000   272.1120   -20.4350   -47.5990    46.7870    12.0390    10.5240    11.8380    18.8400   -11.6770     2.4210 
  279.6250   272.2300   -20.4500   -47.6380    46.7870    11.8950    10.3980    12.4000    18.9320   -11.6070     2.3960 
  279.7500   272.3470   -20.4660   -47.6770    46.7870    11.8420    10.3520    12.6060    18.9530   -11.5470     2.3810 
  279.8750   272.4650   -20.4810   -47.7160    46.7870    11.8550    10.3630    12.5670    18.9260   -11.4990     2.3770 
  280.0000   272.5830   -20.4970   -47.7550    46.7870    11.8920    10.3950    12.2380    18.8980   -11.4280     2.3790 
  280.1250   272.7000   -20.5120   -47.7950    46.7870    11.9200    10.4200    11.9770    18.9210   -11.3270     2.3820 
  280.2500   272.8180   -20.5270   -47.8340    46.7870    11.9200    10.4200    11.4510    18.9230   -11.2390     2.3800 
  280.3750   272.9360   -20.5430   -47.8730    46.7870    11.9200    10.4200    10.6040    18.9040   -11.1780     2.3730 
  280.5000   273.0530   -20.5580   -47.9120    46.7870    11.9200    10.4200     9.1450    19.0690   -11.1170     2.3600 
  280.6250   273.1710   -20.5740   -47.9520    46.7870    11.9200    10.4200     7.8750    19.1820   -11.0700     2.3420 
  280.7500   273.2890   -20.5890   -47.9910    46.7870    11.9200    10.4200     7.1450    19.3270   -11.0660     2.3200 
  280.8750   273.4060   -20.6050   -48.0300    46.7870    11.9200    10.4200     7.1260    19.4060   -11.0800     2.2950 
  281.0000   273.5240   -20.6200   -48.0690    46.7870    11.9200    10.4200     7.9920    19.2600   -11.0940     2.2710 
  281.1250   273.6420   -20.6360   -48.1090    46.7870    11.9200    10.4200     9.1740    19.5960  -999.2500     2.2540 
  281.2500   273.7590   -20.6510   -48.1480    46.7870    11.9200    10.4200     8.9330    19.5600  -999.2500     2.2430 
  281.3750   273.8770   -20.6670   -48.1870    46.7870    11.9200    10.4200     7.6320    18.8960  -999.2500     2.2380 
  281.5000   273.9950   -20.6820   -48.2260    46.7870    11.9200    10.4200     6.6560    18.5830  -999.2500     2.2330 
  281.6250   274.1130   -20.6970   -48.2650    46.7870    11.9200    10.4200     6.3320    18.6530  -999.2500     2.2170 
  281.7500   274.2300   -20.7130   -48.3050    46.7870    11.9200    10.4200     6.2790    18.6250  -999.2500     2.1910 
  281.8750   274.3480   -20.7280   -48.3440    46.7870    11.9200    10.4200     6.2840    18.5200  -999.2500     2.1630 
  282.0000   274.4660   -20.7440   -48.3830    46.7870    11.9200    10.4200     6.2850    18.4930  -999.2500     2.1400 
  282.1250   274.5830   -20.7590   -48.4220    46.7870    11.9200    10.4200     6.2850    18.4900  -999.2500     2.1240 
  282.2500   274.7010   -20.7750   -48.4620    46.7870    11.9200    10.4200     6.2860    18.4900  -999.2500     2.1130 
  282.3750   274.8190   -20.7900   -48.5010    46.7870    11.9200    10.4200     6.2870    18.4900  -999.2500     2.1060 
  282.5000   274.9360   -20.8060   -48.5400    46.7870    11.9200    10.4200     6.2870    18.4900  -999.2500     2.1050 
  282.6250   275.0540   -20.8210   -48.5790    46.7870    11.9200    10.4200     6.2850    18.4900  -999.2500     2.1080 
  282.7500   275.1720   -20.8370   -48.6190    46.7870    11.9200    10.4200     6.2860    18.4900  -999.2500     2.1130 
  282.8750   275.2890   -20.8520   -48.6580    46.7870    11.9200    10.4200     6.2880    18.4900  -999.2500     2.1180 
  283.0000   275.4070   -20.8670   -48.6970    46.7870    11.9200    10.4200     6.2930    18.4900  -999.2500     2.1220 
  283.1250   275.5320   -20.8670   -48.6970    46.7870    11.9200    10.4200     6.2900    18.4900  -999.2500     2.1220 
  283.2500   275.6570   -20.8670   -48.6970    46.7870    11.9200    10.4200     6.2880    18.4900  -999.2500     2.1230 
  283.3750   275.7820   -20.8670   -48.6970    46.7870    11.9200    10.4200     6.2880    18.4900  -999.2500     2.1250 
  283.5000   275.9070   -20.8670   -48.6970    46.7870    11.9200    10.4200     6.2920    18.4900  -999.2500     2.1260 
  283.6250   276.0320   -20.8670   -48.6970    46.7870    11.9200    10.4200     6.2950    18.4890  -999.2500     2.1270 
  283.7500   276.1570   -20.8670   -48.6970    46.7870    11.9200    10.4200     6.2950    18.4850  -999.2500     2.1280 
  283.8750   276.2820   -20.8670   -48.6970    46.7870    11.9200    10.4200     6.2920    18.4800  -999.2500     2.1290 
