~V
VERS. 2.00: Ver 2.00
~W
STRT.M 40.0000:
STOP.M 259.0000:
STEP.M 0.1250:
NULL. -999.2500:
UWI. FD11192:
~C
DEPT.M :
TVD. :
DX. :
DY. :
SP.MV :
GR.API :
RI. :
RML.OHMM :
RXO.OHMM :
DEN.GM/CC :
~A
   40.0000    40.0000     0.0000     0.0000  -212.0870    45.3600     0.1100     0.4710     0.1620     2.4200 
   40.1250    40.1250     0.0010    -0.0010  -211.9050    43.7390     0.1100     0.4710     0.0410     2.4200 
   40.2500    40.2500     0.0010    -0.0020  -211.8540    43.8770     0.1100     0.4820     0.0290     2.4200 
   40.3750    40.3750     0.0020    -0.0030  -212.1130    44.6410     0.1100     0.4920     0.0230     2.4200 
   40.5000    40.5000     0.0030    -0.0040  -212.7240    44.9840     0.1110     0.4990     0.0180     2.4200 
   40.6250    40.6250     0.0030    -0.0060  -213.3920    46.0880     0.1110     0.5190     0.0160     2.4200 
   40.7500    40.7500     0.0040    -0.0070  -213.8780    48.1350     0.1110     0.5330     0.0150     2.4200 
   40.8750    40.8750     0.0050    -0.0080  -214.2140    49.1770     0.1180     0.5340     0.0150     2.4200 
   41.0000    41.0000     0.0050    -0.0090  -214.5640    47.8660     0.1180     0.5190     0.0170     2.4200 
   41.1250    41.1250     0.0060    -0.0100  -214.8000    45.7610     0.1170     0.5160     0.0210     2.4200 
   41.2500    41.2500     0.0070    -0.0110  -214.7820    44.6320     0.1170     0.5160     0.0210     2.4200 
   41.3750    41.3750     0.0070    -0.0120  -214.5870    43.5570     0.1190     0.5360     0.0160     2.4200 
   41.5000    41.5000     0.0080    -0.0130  -214.3350    42.8970     0.1280     0.5280     0.0130     2.4200 
   41.6250    41.6250     0.0090    -0.0150  -214.0420    44.9240     0.1310     0.5140     0.0130     2.4200 
   41.7500    41.7500     0.0090    -0.0160  -213.6920    49.6900     0.1410     0.5130     0.0140     2.4200 
   41.8750    41.8750     0.0100    -0.0170  -213.1570    53.3370     0.1250     0.5150     0.0140     2.4200 
   42.0000    42.0000     0.0110    -0.0180  -212.3880    53.3660     0.1220     0.5230     0.0150     2.4200 
   42.1250    42.1250     0.0120    -0.0190  -211.3580    51.7440     0.1130     0.5270     0.0150     2.4200 
   42.2500    42.2500     0.0120    -0.0200  -210.0520    49.9370     0.1150     0.5200     0.0150     2.4200 
   42.3750    42.3750     0.0130    -0.0210  -208.4340    46.6610     0.1290     0.5040     0.0150     2.4770 
   42.5000    42.5000     0.0140    -0.0220  -206.5000    41.7550     0.1430     0.4920     0.0150     2.5590 
   42.6250    42.6250     0.0140    -0.0230  -204.2610    37.3730     0.1580     0.4720     0.0140     2.5580 
   42.7500    42.7500     0.0150    -0.0250  -201.7740    34.8820     0.1620     0.4680     0.0140     2.4820 
   42.8750    42.8750     0.0160    -0.0260  -198.9950    34.5080     0.1630     0.4670     0.0140     2.4040 
   43.0000    43.0000     0.0170    -0.0270  -195.9630    36.8780     0.1640     0.4660     0.0140     2.3730 
   43.1250    43.1250     0.0170    -0.0280  -192.7550    40.2760     0.1640     0.4620     0.0150     2.3670 
   43.2500    43.2500     0.0180    -0.0290  -189.3760    41.2220     0.1640     0.4550     0.0150     2.3490 
   43.3750    43.3750     0.0190    -0.0300  -185.7720    38.9190     0.1620     0.4440     0.0150     2.3290 
   43.5000    43.5000     0.0190    -0.0310  -181.9340    37.0470     0.1600     0.4330     0.0170     2.3280 
   43.6250    43.6250     0.0200    -0.0330  -177.9290    38.1860     0.1590     0.4240     0.0270     2.3470 
   43.7500    43.7500     0.0210    -0.0340  -174.2110    40.1810     0.1590     0.4190     0.0850     2.3600 
   43.8750    43.8750     0.0210    -0.0350  -171.1190    40.3920     0.1610     0.4190     0.3790     2.3560 
   44.0000    44.0000     0.0220    -0.0360  -168.7560    38.3430     0.1630     0.4180     0.9160     2.3480 
   44.1250    44.1250     0.0220    -0.0380  -167.4970    36.8660     0.1650     0.4180     1.1140     2.3430 
   44.2500    44.2500     0.0230    -0.0390  -167.8590    36.6460     0.1650     0.4130     0.6930     2.3370 
   44.3750    44.3750     0.0240    -0.0400  -169.6160    36.9730     0.1640     0.4040     0.2050     2.3420 
   44.5000    44.5000     0.0240    -0.0410  -171.4540    36.7660     0.1680     0.3820     0.0320     2.3580 
   44.6250    44.6250     0.0250    -0.0430  -172.3300    36.4950     0.1820     0.3620     0.0210     2.3690 
   44.7500    44.7500     0.0250    -0.0440  -172.1880    37.1180     0.1970     0.3430     0.0250     2.3680 
   44.8750    44.8750     0.0260    -0.0450  -171.3780    39.3440     0.2120     0.3340     0.0260     2.3800 
   45.0000    45.0000     0.0270    -0.0470  -170.6390    41.1460     0.2170     0.3340     0.0280     2.3930 
   45.1250    45.1250     0.0270    -0.0480  -170.9620    39.7640     0.2190     0.3320     0.0740     2.3530 
   45.2500    45.2500     0.0280    -0.0490  -172.8820    35.7680     0.2210     0.3290     0.1450     2.3270 
   45.3750    45.3750     0.0280    -0.0510  -175.8600    32.2350     0.2240     0.3250     0.1280     2.4480 
   45.5000    45.5000     0.0290    -0.0520  -178.8000    30.6930     0.2290     0.3200     0.0510     2.6200 
   45.6250    45.6250     0.0290    -0.0530  -181.0470    32.1590     0.2310     0.3140     0.0160     2.6440 
   45.7500    45.7500     0.0300    -0.0540  -182.4050    35.9290     0.2300     0.3090     0.0150     2.5130 
   45.8750    45.8750     0.0300    -0.0560  -182.8660    39.0670     0.2280     0.3060     0.0150     2.4130 
   46.0000    46.0000     0.0310    -0.0570  -182.6030    38.7810     0.2350     0.3040     0.0150     2.4030 
   46.1250    46.1250     0.0310    -0.0580  -181.5710    35.9050     0.2410     0.3050     0.0160     2.4130 
   46.2500    46.2500     0.0320    -0.0600  -179.8370    34.3020     0.2480     0.3040     0.0160     2.4100 
   46.3750    46.3750     0.0320    -0.0610  -177.4860    35.7520     0.2480     0.3070     0.0160     2.4050 
   46.5000    46.5000     0.0320    -0.0620  -174.8200    39.1180     0.2400     0.3200     0.0160     2.4090 
   46.6250    46.6250     0.0330    -0.0640  -172.2760    41.1850     0.2330     0.3380     0.0180     2.4140 
   46.7500    46.7500     0.0330    -0.0650  -170.0940    40.6970     0.2000     0.3320     0.0210     2.4170 
   46.8750    46.8750     0.0340    -0.0660  -168.3200    38.7950     0.1440     0.2680     0.0240     2.4130 
   47.0000    47.0000     0.0340    -0.0680  -166.6980    38.0990     0.0910     0.1770     0.0270     2.4040 
   47.1250    47.1250     0.0340    -0.0690  -165.4100    38.7550     0.0520     0.0860     0.0360     2.4000 
   47.2500    47.2500     0.0350    -0.0700  -164.9760    40.1740     0.0530     0.0520     0.1070     2.3940 
   47.3750    47.3750     0.0350    -0.0720  -166.0920    41.9770     0.1290     0.1030     0.8450     2.4000 
   47.5000    47.5000     0.0350    -0.0730  -168.8430    43.4980     0.3100     0.2460     2.6160     2.4370 
   47.6250    47.6250     0.0360    -0.0740  -173.4990    44.2560     0.8040     0.7380     4.2250     2.4370 
   47.7500    47.7500     0.0360    -0.0760  -179.3190    44.9180     2.2440     3.7430     4.6290     2.3240 
   47.8750    47.8750     0.0360    -0.0770  -184.9750    46.7640     3.8250     6.2790     4.4360     2.1480 
   48.0000    48.0000     0.0370    -0.0780  -189.4920    49.7580     4.9410     7.4660     4.3250     2.0520 
   48.1250    48.1250     0.0370    -0.0800  -192.7630    53.4720     5.3580     7.4610     4.3650     2.0640 
   48.2500    48.2500     0.0370    -0.0810  -195.2170    55.8410     4.8580     4.7760     4.5160     2.0900 
   48.3750    48.3750     0.0380    -0.0820  -197.0940    55.4250     4.6340     3.9500     4.6770     2.0950 
   48.5000    48.4990     0.0380    -0.0840  -198.6870    54.1700     4.6840     3.8530     4.7860     2.0940 
   48.6250    48.6240     0.0390    -0.0850  -200.0050    55.6810     4.8280     3.9550     4.7810     2.0960 
   48.7500    48.7490     0.0390    -0.0860  -201.0650    59.3880     4.9570     4.0770     4.7900     2.1020 
   48.8750    48.8740     0.0400    -0.0880  -201.8280    63.0080     5.0630     4.1880     4.9820     2.1080 
   49.0000    48.9990     0.0400    -0.0890  -202.3780    64.9630     5.1840     4.3170     5.0920     2.1130 
