~V
VERS. 2.00: Ver 2.00
~W
STRT.M 30.0000:
STOP.M 284.0000:
STEP.M 0.1250:
NULL. -999.2500:
UWI. FD11172:
~C
DEPT.M :
TVD. :
DX. :
DY. :
SP.MV :
GR.API :
RI. :
RML.OHMM :
RXO.OHMM :
DEN.GM/CC :
~A
# ...
  239.8750   224.4230    68.0610    22.3620   -21.6360    67.3960    57.6580    60.9060    71.3630     2.1430 
  240.0000   224.5320    68.1180    22.3840   -21.4680    66.8050    56.1540    59.2880    60.8170     2.1470 
  240.1250   224.6410    68.1760    22.4050   -21.3340    65.9520    54.6100    57.6620    57.4520     2.1460 
  240.2500   224.7500    68.2330    22.4270   -21.2700    64.6240    53.0530    56.0330    60.9500     2.1440 
  240.3750   224.8590    68.2900    22.4490   -21.3310    64.2380    51.4410    54.3510    63.1460     2.1410 
  240.5000   224.9680    68.3480    22.4700   -21.5410    66.1880    49.7460    52.5560    61.5730     2.1370 
  240.6250   225.0760    68.4050    22.4920   -21.8370    69.9810    47.7330    50.4620    56.9260     2.1320 
  240.7500   225.1850    68.4620    22.5140   -22.0770    72.0190    45.3550    48.0510    51.4690     2.1320 
  240.8750   225.2940    68.5200    22.5360   -22.2170    71.4180    42.8660    45.5660    46.6490     2.1400 
  241.0000   225.4030    68.5770    22.5580   -22.3270    69.7790    40.6350    43.4170    43.6940     2.1530 
  241.1250   225.5120    68.6340    22.5800   -22.4310    68.7890    39.2540    42.0970    43.7970     2.1640 
  241.2500   225.6210    68.6920    22.6020   -22.5100    67.7690    38.6770    41.5760    45.5470     2.1650 
  241.3750   225.7300    68.7490    22.6230   -22.5800    65.1390    38.5990    41.6180    46.5610     2.1580 
  241.5000   225.8390    68.8070    22.6450   -22.7000    62.6160    38.8330    41.9610    46.0490     2.1530 
  241.6250   225.9480    68.8640    22.6670   -22.8900    63.3230    39.2510    42.4060    45.3310     2.1620 
  241.7500   226.0570    68.9210    22.6890   -23.1100    65.6480    39.6180    42.7720    46.1190     2.1760 
  241.8750   226.1650    68.9790    22.7110   -23.3660    65.7130    39.9080    42.9980    47.4930     2.1800 
  242.0000   226.2740    69.0360    22.7320   -23.6770    63.7070    40.0600    43.0400    47.3330     2.1660 
  242.1250   226.3830    69.0940    22.7540   -23.9920    62.5490    40.0150    42.8290    43.2500     2.1450 
  242.2500   226.4920    69.1510    22.7760   -24.2290    63.3500    39.7350    42.3760    40.5410     2.1330 
  242.3750   226.6010    69.2080    22.7980   -24.3580    64.1140    39.2280    41.5910    41.0330     2.1350 
  242.5000   226.7100    69.2660    22.8190   -24.4250    65.8770    38.0990    40.3270    40.0450     2.1410 
  242.6250   226.8190    69.3230    22.8410   -24.4640    66.2780    36.6100    38.7430    38.7910     2.1420 
  242.7500   226.9270    69.3810    22.8630   -24.4940    65.2560    34.9540    36.9560    36.9940     2.1380 
  242.8750   227.0360    69.4380    22.8850   -24.5240    63.5130    32.8830    34.9250    33.8210     2.1400 
  243.0000   227.1450    69.4960    22.9070   -24.5650    63.6080    30.8900    32.9040    30.4390     2.1530 
  243.1250   227.2540    69.5530    22.9290   -24.6150    65.9220    28.9310    31.0250    28.7380     2.1750 
  243.2500   227.3620    69.6110    22.9510   -24.6220    68.6850    27.3740    29.5190    28.6590     2.1890 
  243.3750   227.4710    69.6690    22.9730   -24.5450    69.5500    26.3990    28.6310    28.3340     2.1840 
  243.5000   227.5800    69.7270    22.9950   -24.4820    68.1080    26.0230    28.3500    27.3520     2.1690 
  243.6250   227.6880    69.7840    23.0170   -24.5580    68.0110    26.1960    28.6800    26.8450     2.1590 
  243.7500   227.7970    69.8420    23.0390   -24.7270    70.2220    26.8380    29.5720    27.1200     2.1570 
  243.8750   227.9060    69.9000    23.0610   -24.8660    71.0180    27.8480    30.7020    29.7170     2.1610 
  244.0000   228.0140    69.9580    23.0830   -24.9480    67.9870    28.7820    31.4700    34.7920     2.1660 
  244.1250   228.1230    70.0160    23.1060   -25.0030    63.5720    29.5100    32.1150    36.3040     2.1670 
  244.2500   228.2310    70.0730    23.1280   -25.0510    61.1280    29.9900    32.2800    32.1260     2.1660 
  244.3750   228.3400    70.1310    23.1500   -25.0990    60.8770    30.3680    32.2280    28.9600     2.1660 
  244.5000   228.4480    70.1890    23.1720   -25.1490    62.0150    30.4650    31.7250    29.9380     2.1690 
  244.6250   228.5570    70.2470    23.1940   -25.2020    64.3750    29.9300    30.5100    32.6590     2.1740 
  244.7500   228.6660    70.3050    23.2160   -25.2570    66.2970    28.5960    29.4680    35.7740     2.1750 
  244.8750   228.7740    70.3630    23.2390   -25.3030    67.3970    26.5740    27.6900    36.6920     2.1680 
  245.0000   228.8830    70.4210    23.2610   -25.3350    66.1420    24.4670    25.5200    32.8430     2.1600 
  245.1250   228.9910    70.4780    23.2840   -25.3730    63.4650    22.7180    23.8300    27.5400     2.1550 
  245.2500   229.1000    70.5360    23.3060   -25.4750    62.5020    21.6540    22.7830    24.6710     2.1510 
  245.3750   229.2080    70.5940    23.3280   -25.7280    65.1540    21.1630    22.4400    23.7270     2.1500 
  245.5000   229.3170    70.6520    23.3500   -26.1560    68.0760    21.2990    22.7410    23.8730     2.1520 
  245.6250   229.4260    70.7090    23.3720   -26.6350    68.1090    21.9550    23.5840    24.6490     2.1540 
  245.7500   229.5340    70.7670    23.3940   -26.9480    67.2570    22.7720    24.5960    24.9810     2.1540 
  245.8750   229.6430    70.8250    23.4160   -27.0300    66.8460    23.4940    25.4330    25.0160     2.1520 
  246.0000   229.7520    70.8820    23.4370   -27.0220    66.7780    23.8910    25.8410    25.4370     2.1500 
  246.1250   229.8610    70.9400    23.4590   -27.0070    64.8660    23.8360    25.7530    26.1720     2.1470 
  246.2500   229.9700    70.9980    23.4810   -26.9610    61.8670    23.4910    25.2940    25.3030     2.1480 
  246.3750   230.0780    71.0550    23.5020   -26.8220    58.4260    22.7480    24.3730    19.8080     2.1530 
  246.5000   230.1870    71.1130    23.5240   -26.5960    57.0170    21.5700    23.0440    17.6040     2.1700 
  246.6250   230.2960    71.1700    23.5450   -26.3380    57.9280    20.0100    21.4030    17.6800     2.2280 
  246.7500   230.4050    71.2280    23.5670   -26.1090    61.0150    18.2020    19.5160    16.8430     2.3200 
  246.8750   230.5140    71.2850    23.5890   -25.9120    64.9990    16.6230    17.9230    15.5510     2.3780 
  247.0000   230.6230    71.3420    23.6100   -25.7060    68.4500    15.3600    16.6850    15.1370     2.3480 
  247.1250   230.7320    71.3990    23.6320   -25.4850    68.6220    14.5600    15.9540    15.6800     2.2620 
  247.2500   230.8410    71.4570    23.6540   -25.2800    66.2430    14.1340    15.7000    16.0810     2.2050 
  247.3750   230.9500    71.5140    23.6760   -25.0480    65.2530    13.9720    15.6930    15.8550     2.2050 
  247.5000   231.0590    71.5710    23.6980   -24.7160    66.1440    13.8020    15.5880    15.3970     2.2340 
  247.6250   231.1680    71.6280    23.7200   -24.2710    66.0200    13.5030    15.2850    14.8680     2.2720 
  247.7500   231.2770    71.6860    23.7420   -23.7620    65.2410    13.1150    14.8280    14.8440     2.3040 
  247.8750   231.3860    71.7430    23.7640   -23.2260    66.9130    12.7540    14.3660    16.1510     2.3120 
  248.0000   231.4950    71.8000    23.7860   -22.6780    70.0970    12.5600    14.0520    17.5330     2.3010 
  248.1250   231.6040    71.8570    23.8070   -22.0880    71.6260    12.6870    14.0660    17.6950     2.2950 
  248.2500   231.7120    71.9150    23.8290   -21.4300    69.6320    13.2330    14.6360    18.2080     2.2970 
  248.3750   231.8210    71.9720    23.8510   -20.6940    66.4090    14.6340    16.2840    20.3050     2.2980 
  248.5000   231.9300    72.0290    23.8730   -19.8240    63.0490    17.1300    19.4030    22.5100     2.3110 
  248.6250   232.0390    72.0870    23.8950   -18.6450    60.6210    20.8930    24.6650    23.4140     2.3570 
  248.7500   232.1480    72.1440    23.9170   -17.1000    59.6230    25.8150    30.7030    25.9990     2.4360 
  248.8750   232.2570    72.2010    23.9390   -15.3210    60.4300    27.1930    32.3670    34.5710     2.5170 
