~V
VERS. 2.00: Ver 2.00
~W
STRT.M 10.0000:
STOP.M 230.0000:
STEP.M 0.1250:
NULL. -999.2500:
UWI. FD11119:
~C
DEPT.M :
TVD. :
DX. :
DY. :
SP.MV :
DEN.GM/CC :
GR.API :
RML.OHMM :
RI. :
RXO.OHMM :
CALI.CM :
~A
# ...
   84.2500    84.1100    -2.5630    -0.8200   -20.7630     2.3650    75.9520    11.1780     7.5620     9.3780    22.4020 
   84.3750    84.2330    -2.5840    -0.8260   -21.6080     2.4420    70.9280    12.1290     8.5430    14.0960    22.4290 
   84.5000    84.3560    -2.6050    -0.8320   -22.6630     2.4550    69.8530    11.8790     8.8930    15.2350    22.5190 
   84.6250    84.4790    -2.6260    -0.8380   -23.8210     2.3890    68.0440    10.5260     8.3930    11.6900    22.4300 
   84.7500    84.6020    -2.6470    -0.8440   -24.9550     2.2940    64.9200     9.0730     7.5730     9.5290    22.2100 
   84.8750    84.7250    -2.6680    -0.8510   -25.9470     2.2090    63.4370     8.0500     6.8240     8.8210    22.1360 
   85.0000    84.8490    -2.6890    -0.8570   -26.7950     2.1580    66.4000     7.5890     6.3390     8.5560    22.2040 
   85.1250    84.9720    -2.7100    -0.8630   -27.4110     2.1420    70.3280     7.6040     6.1660     8.3550    22.2990 
   85.2500    85.0950    -2.7310    -0.8690   -27.8230     2.1380    69.3570     7.7960     6.1630     8.3220    22.5160 
   85.3750    85.2180    -2.7520    -0.8750   -28.0330     2.1280    65.3130     8.0120     6.2380     8.4280    22.9120 
   85.5000    85.3410    -2.7730    -0.8820   -28.0940     2.1090    63.0650     8.1840     6.3260     8.6700    22.9510 
   85.6250    85.4640    -2.7940    -0.8880   -28.0180     2.0910    65.5440     8.2890     6.3840     8.8300    22.3800 
   85.7500    85.5870    -2.8150    -0.8940   -27.8960     2.0840    71.0650     8.3430     6.4120     8.7400    21.6740 
   85.8750    85.7100    -2.8360    -0.9000   -27.7140     2.0940    76.3050     8.3480     6.4260     8.5370    21.5540 
   86.0000    85.8330    -2.8570    -0.9060   -27.4710     2.1160    76.8180     8.3030     6.4330     8.3420    21.5450 
   86.1250    85.9560    -2.8780    -0.9130   -27.1930     2.1380    72.2610     8.2310     6.4240     8.3260    21.5410 
   86.2500    86.0790    -2.9000    -0.9190   -26.9030     2.1470    68.9860     8.1750     6.3960     8.3750    21.5420 
   86.3750    86.2020    -2.9210    -0.9250   -26.6080     2.1410    68.6590     8.1440     6.3410     8.4770    21.5380 
   86.5000    86.3250    -2.9420    -0.9310   -26.3110     2.1250    68.6520     8.1100     6.2510     8.5360    21.5380 
   86.6250    86.4480    -2.9630    -0.9370   -26.0150     2.1100    69.5130     8.0350     6.1190     8.4550    21.5540 
   86.7500    86.5710    -2.9840    -0.9430   -25.6970     2.1050    72.3920     7.9390     5.9610     8.2870    21.6350 
   86.8750    86.6940    -3.0050    -0.9500   -25.4210     2.1150    73.2580     7.8650     5.8040     8.0540    21.7370 
   87.0000    86.8170    -3.0260    -0.9560   -25.1810     2.1360    69.9130     7.8380     5.6750     7.8450    21.7590 
   87.1250    86.9400    -3.0470    -0.9620   -24.9880     2.1550    69.3870     7.8320     5.5850     7.7220    21.7260 
   87.2500    87.0630    -3.0680    -0.9680   -24.8390     2.1630    74.0720     7.7830     5.5110     7.5800    21.6540 
   87.3750    87.1860    -3.0890    -0.9740   -24.7710     2.1570    78.8790     7.6710     5.4380     7.4830    21.4640 
   87.5000    87.3090    -3.1100    -0.9810   -24.7410     2.1440    78.1380     7.5280     5.3620     7.4910    21.3320 
   87.6250    87.4320    -3.1310    -0.9870   -24.8000     2.1360    73.7300     7.4280     5.3060     7.5550    21.3380 
   87.7500    87.5560    -3.1520    -0.9930   -24.9390     2.1370    71.2480     7.4050     5.2850     7.5910    21.4770 
   87.8750    87.6790    -3.1730    -0.9990   -25.0730     2.1470    72.0250     7.4500     5.3120     7.6080    21.7160 
   88.0000    87.8020    -3.1940    -1.0050   -25.1610     2.1550    73.7230     7.5380     5.3830     7.6500    21.8370 
   88.1250    87.9250    -3.2150    -1.0120   -25.1840     2.1480    71.2700     7.6290     5.4760     7.7750    21.8430 
   88.2500    88.0480    -3.2360    -1.0180   -25.1090     2.1270    66.9030     7.6820     5.5490     7.9210    21.7690 
   88.3750    88.1710    -3.2570    -1.0240   -24.8690     2.1020    66.1060     7.6680     5.5690     8.0350    21.4210 
   88.5000    88.2940    -3.2780    -1.0300   -24.5140     2.0860    68.0490     7.5940     5.5280     8.0060    21.2650 
   88.6250    88.4170    -3.2990    -1.0360   -23.9490     2.0890    69.0400     7.5160     5.4630     7.8550    21.3270 
   88.7500    88.5400    -3.3200    -1.0430   -23.2160     2.1050    69.0710     7.5290     5.4280     7.6070    21.5000 
   88.8750    88.6630    -3.3420    -1.0490   -22.3600     2.1230    70.6940     7.6590     5.4460     7.3590    21.5740 
   89.0000    88.7860    -3.3630    -1.0550   -21.3940     2.1320    72.4160     7.8460     5.5110     7.2000    21.7240 
   89.1250    88.9090    -3.3840    -1.0610   -20.3000     2.1230    71.2610     7.9470     5.5810     7.2770    21.6360 
   89.2500    89.0320    -3.4050    -1.0670   -19.1570     2.1060    69.8500     7.8960     5.6070     7.4960    21.2070 
   89.3750    89.1550    -3.4260    -1.0740   -17.9820     2.0940    71.3900     7.6970     5.5680     7.5480    20.6640 
   89.5000    89.2780    -3.4470    -1.0800   -16.7610     2.0960    75.8440     7.3970     5.4620     7.2860    20.8480 
   89.6250    89.4010    -3.4680    -1.0860   -15.6320     2.1220    80.7240     7.0420     5.3070     6.8540    21.1520 
   89.7500    89.5240    -3.4890    -1.0920   -14.5880     2.1570    84.7230     6.6840     5.1490     6.2610    21.3760 
   89.8750    89.6470    -3.5100    -1.0980   -13.6490     2.1880    88.0190     6.4030     5.0160     5.5930    21.7910 
   90.0000    89.7700    -3.5310    -1.1050   -12.8360     2.2010    87.8700     6.2850     4.9310     5.2110    21.9160 
   90.1250    89.8930    -3.5520    -1.1110   -12.1780     2.1920    84.4380     6.3840     4.9120     5.1920    21.9240 
   90.2500    90.0160    -3.5730    -1.1170   -11.6020     2.1730    80.7840     6.5640     4.9450     5.4820    21.8410 
   90.3750    90.1390    -3.5940    -1.1230   -11.1830     2.1540    79.0010     6.6970     5.0150     6.1680    21.5190 
   90.5000    90.2630    -3.6150    -1.1290   -10.9490     2.1450    80.8490     6.7130     5.0970     7.0920    21.2760 
   90.6250    90.3860    -3.6360    -1.1350   -10.7980     2.1520    88.9150     6.6530     5.1640     6.5160    21.2390 
   90.7500    90.5090    -3.6570    -1.1420   -10.7260     2.1680    96.8580     6.5960     5.2090     5.3760    21.2680 
   90.8750    90.6320    -3.6780    -1.1480   -10.7090     2.1860    98.6170     6.5520     5.2240     4.8510    21.4550 
   91.0000    90.7550    -3.6990    -1.1540   -10.7470     2.1990    95.2510     6.4900     5.2060     4.7800    21.5880 
   91.1250    90.8780    -3.7200    -1.1600   -10.8640     2.2050    94.6740     6.3990     5.1530     4.8290    21.6010 
   91.2500    91.0010    -3.7410    -1.1660   -11.1010     2.2070    97.2060     6.3000     5.0800     4.8490    21.5530 
   91.3750    91.1240    -3.7620    -1.1730   -11.3690     2.2100    98.0080     6.2130     5.0080     4.7990    21.4780 
   91.5000    91.2470    -3.7830    -1.1790   -11.6860     2.2160    96.6060     6.1350     4.9590     4.6780    21.4570 
   91.6250    91.3700    -3.8050    -1.1850   -12.1070     2.2270    96.7610     6.0540     4.9700     4.5510    21.4780 
   91.7500    91.4930    -3.8260    -1.1910   -12.5770     2.2380    97.2170     6.0010     5.0390     4.5130    21.5240 
   91.8750    91.6160    -3.8470    -1.1970   -13.0970     2.2430    95.0000     6.0330     5.1450     4.6020    21.5050 
   92.0000    91.7390    -3.8680    -1.2040   -13.6750     2.2390    90.5800     6.1710     5.2650     4.8210    21.3990 
   92.1250    91.8620    -3.8890    -1.2100   -14.2760     2.2260    87.4360     6.3940     5.3850     5.1570    21.0810 
   92.2500    91.9840    -3.9140    -1.2180   -14.8900     2.2130    85.7470     6.6460     5.5020     5.4700    20.7320 
   92.3750    92.1060    -3.9410    -1.2270   -15.5620     2.2030    84.3600     6.9230     5.6300     5.5360    20.6760 
