~V
VERS. 2.00: Ver 2.00
~W
STRT.M 20.0000:
STOP.M 285.0000:
STEP.M 0.1250:
NULL. -999.2500:
UWI. FD11157:
~C
DEPT.M :
TVD. :
DX. :
DY. :
GR.API :
RML.OHMM :
RI. :
RXO.OHMM :
CALI.CM :
SP.MV :
DEN.GM/CC :
~A
# ...
   69.5000    69.4840    -0.3040    -0.4210    57.4400     9.4990     7.5530    10.9360    23.3470   -36.3750     2.1950 
   69.6250    69.6090    -0.3090    -0.4270    60.2960     9.8820     8.0030    13.5030    23.3690   -36.6870     2.1760 
   69.7500    69.7340    -0.3130    -0.4320    63.1950    10.0840     8.3270    19.2220    23.3700   -37.0440     2.1620 
   69.8750    69.8590    -0.3170    -0.4380    61.5630    10.0190     8.4290    24.0010    23.3580   -37.4330     2.1560 
   70.0000    69.9830    -0.3220    -0.4440    56.5470     9.6950     8.2910    18.6420    23.3030   -37.8230     2.1570 
   70.1250    70.1080    -0.3280    -0.4530    53.5560     9.2440     7.9730    13.0250    23.2180   -38.1660     2.1620 
   70.2500    70.2320    -0.3360    -0.4630    55.6080     8.8550     7.6340    11.1930    23.1940   -38.4730     2.1690 
   70.3750    70.3570    -0.3430    -0.4730    60.4290     8.6120     7.3630    10.9450    23.1460   -38.7620     2.1770 
   70.5000    70.4810    -0.3510    -0.4820    63.8780     8.5350     7.2000    10.9250    23.1210   -39.0930     2.1820 
   70.6250    70.6050    -0.3580    -0.4920    64.1990     8.6010     7.1600    10.8810    23.3880   -39.4670     2.1790 
   70.7500    70.7300    -0.3660    -0.5020    64.6380     8.7220     7.1870    10.8860    23.6210   -39.7920     2.1640 
   70.8750    70.8540    -0.3730    -0.5120    63.5290     8.8440     7.2510    10.9660    23.7140   -40.0630     2.1420 
   71.0000    70.9780    -0.3810    -0.5220    57.9840     8.9230     7.3370    10.9540    23.7440   -40.3390     2.1250 
   71.1250    71.1030    -0.3880    -0.5310    51.2500     8.9330     7.4330    11.0070    23.8230   -40.6320     2.1250 
   71.2500    71.2270    -0.3960    -0.5410    50.0040     8.9170     7.5160    10.9990    23.7940   -40.9070     2.1360 
   71.3750    71.3520    -0.4030    -0.5510    53.9610     8.9150     7.5620    10.9920    23.7090   -41.1630     2.1470 
   71.5000    71.4760    -0.4100    -0.5610    56.7900     8.9340     7.5600    10.9880    23.7750   -41.4020     2.1530 
   71.6250    71.6000    -0.4180    -0.5700    54.3890     8.9400     7.5120    10.9880    23.9730   -41.6150     2.1530 
   71.7500    71.7250    -0.4250    -0.5800    51.4990     8.8860     7.4480    11.0560    24.1750   -41.7900     2.1520 
   71.8750    71.8490    -0.4330    -0.5900    52.1200     8.7630     7.3840    11.0850    24.3310   -41.9130     2.1550 
   72.0000    71.9740    -0.4400    -0.6000    55.4630     8.5940     7.3230    10.9720    24.4970   -41.9880     2.1630 
   72.1250    72.0980    -0.4480    -0.6090    55.8690     8.4110     7.2510    10.7250    24.5910   -42.0340     2.1690 
   72.2500    72.2220    -0.4550    -0.6190    53.8760     8.2430     7.1600    10.4910    24.6270   -42.0470     2.1650 
   72.3750    72.3470    -0.4630    -0.6290    52.9590     8.1220     7.0590    10.3070    24.5710   -42.0410     2.1470 
   72.5000    72.4710    -0.4700    -0.6390    54.2190     8.0680     6.9700    10.2350    24.4410   -42.0070     2.1130 
   72.6250    72.5950    -0.4780    -0.6490    55.6920     8.0740     6.9250    10.2530    24.4420   -41.9470     2.0690 
   72.7500    72.7200    -0.4850    -0.6580    56.6720     8.1040     6.9250    10.4970    24.5840   -41.9040     2.0360 
   72.8750    72.8440    -0.4930    -0.6680    57.4910     8.1560     6.9690    10.7860    24.9780   -41.8980     2.0300 
   73.0000    72.9690    -0.5000    -0.6780    57.0790     8.2510     7.0440    10.9790    25.4210   -41.8980     2.0630 
   73.1250    73.0930    -0.5080    -0.6880    53.3820     8.4130     7.1340    11.3570    25.4670   -41.8940     2.1270 
   73.2500    73.2170    -0.5150    -0.6970    49.7660     8.5880     7.2210    12.0820    24.8860   -41.9020     2.1810 
   73.3750    73.3420    -0.5220    -0.7070    50.1070     8.6730     7.2780    13.2660    24.0420   -41.8640     2.2030 
   73.5000    73.4660    -0.5300    -0.7170    53.7750     8.5820     7.2740    14.3560    23.6400   -41.7770     2.1960 
   73.6250    73.5910    -0.5370    -0.7270    55.9210     8.3120     7.1810    13.7380    23.5390   -41.6840     2.1830 
   73.7500    73.7150    -0.5450    -0.7360    55.5140     8.0280     7.0340    12.3570    23.4470   -41.5760     2.1770 
   73.8750    73.8390    -0.5520    -0.7460    55.9450     7.8490     6.8790    11.6730    23.3350   -41.4080     2.1730 
   74.0000    73.9640    -0.5600    -0.7560    57.6340     7.8180     6.7620    11.6540    23.3030   -41.1980     2.1530 
   74.1250    74.0880    -0.5670    -0.7660    56.6900     7.9200     6.7130    11.7820    23.3430   -40.9770     2.1090 
   74.2500    74.2130    -0.5750    -0.7750    54.5090     8.0680     6.7130    11.7970    23.4140   -40.7160     2.0750 
   74.3750    74.3370    -0.5820    -0.7850    53.7890     8.2110     6.7380    11.7720    23.4550   -40.4320     2.0870 
   74.5000    74.4610    -0.5900    -0.7950    54.4110     8.3220     6.7660    11.8110    23.4340   -40.1610     2.1470 
   74.6250    74.5860    -0.5970    -0.8050    55.5320     8.3740     6.7780    11.8880    23.2540   -39.8680     2.2130 
   74.7500    74.7100    -0.6050    -0.8150    57.3530     8.3630     6.7680    12.0110    22.8790   -39.5300     2.2410 
   74.8750    74.8340    -0.6120    -0.8240    59.0680     8.2720     6.7410    12.0640    22.6190   -39.1730     2.2300 
   75.0000    74.9590    -0.6200    -0.8340    57.9580     8.1090     6.7100    12.0050    22.5160   -38.8010     2.1990 
   75.1250    75.0830    -0.6270    -0.8440    55.7010     7.9250     6.7120    11.8930    22.5450   -38.3810     2.1750 
   75.2500    75.2080    -0.6350    -0.8540    55.0320     7.7760     6.7470    11.6900    22.6280   -37.9370     2.1700 
   75.3750    75.3320    -0.6420    -0.8630    55.3100     7.6760     6.7880    11.3560    22.7520   -37.4980     2.1830 
   75.5000    75.4560    -0.6490    -0.8730    57.6440     7.6030     6.7980    10.9910    22.8420   -37.0620     2.2070 
   75.6250    75.5810    -0.6570    -0.8830    64.2630     7.5270     6.7380    10.9950    22.8670   -36.6500     2.2320 
   75.7500    75.7050    -0.6640    -0.8930    70.0240     7.4590     6.6260    11.0070    22.8210   -36.3020     2.2460 
   75.8750    75.8300    -0.6720    -0.9020    70.0680     7.4190     6.4990    10.5190    22.7740   -36.0510     2.2380 
   76.0000    75.9540    -0.6790    -0.9120    66.1920     7.4180     6.4000    10.2340    22.7610   -35.8850     2.2040 
   76.1250    76.0780    -0.6870    -0.9220    62.4300     7.4440     6.3660    10.6930    22.7290   -35.7920     2.1590 
   76.2500    76.2030    -0.6940    -0.9320    60.4670     7.4700     6.3850    11.1550    22.6730   -35.7940     2.1290 
   76.3750    76.3270    -0.7020    -0.9420    60.3910     7.4930     6.4350    10.9430    22.6640   -35.8730     2.1300 
   76.5000    76.4510    -0.7090    -0.9510    63.3610     7.5310     6.4860    10.3680    22.6310   -35.9650     2.1570 
   76.6250    76.5760    -0.7170    -0.9610    68.1250     7.5900     6.5150    10.3690    22.6260   -36.0400     2.1840 
   76.7500    76.7000    -0.7240    -0.9710    70.4870     7.6490     6.5330    10.7650    22.6350   -36.0990     2.1860 
   76.8750    76.8250    -0.7320    -0.9810    68.0850     7.7000     6.5590    11.1320    22.6670   -36.0630     2.1600 
   77.0000    76.9490    -0.7390    -0.9900    62.2030     7.7660     6.6050    11.3630    22.6820   -35.8680     2.1230 
   77.1250    77.0730    -0.7470    -1.0000    59.8050     7.8780     6.6780    11.5600    22.6680   -35.5190     2.0980 
   77.2500    77.1980    -0.7540    -1.0100    61.6600     8.0070     6.7680    11.5920    22.6720   -34.9950     2.0970 
   77.3750    77.3220    -0.7610    -1.0200    64.3190     8.1010     6.8640    11.4120    22.7180   -34.2800     2.1170 
   77.5000    77.4470    -0.7690    -1.0290    63.0070     8.1080     6.9450    11.1530    22.7420   -33.3600     2.1430 
   77.6250    77.5710    -0.7760    -1.0390    58.4520     7.9920     6.9750    11.2120    22.7070   -32.1670     2.1580 
