~V
VERS. 2.00: Ver 2.00
~W
STRT.M 30.0000:
STOP.M 284.0000:
STEP.M 0.1250:
NULL. -999.2500:
UWI. FD11172:
~C
DEPT.M :
TVD. :
DX. :
DY. :
SP.MV :
GR.API :
RI. :
RML.OHMM :
RXO.OHMM :
DEN.GM/CC :
~A
# ...
  148.6250   144.0050    27.5440     7.6610   -23.0180    67.8930     7.2260     7.7200     8.3940     2.1600 
  148.7500   144.1160    27.5980     7.6770   -22.9790    69.3540     7.0410     7.5670     8.3070     2.1510 
  148.8750   144.2280    27.6510     7.6940   -22.8460    69.6370     6.9440     7.5870     7.9790     2.1520 
  149.0000   144.3400    27.7050     7.7110   -22.6850    69.2060     6.9520     7.7140     7.7320     2.1570 
  149.1250   144.4510    27.7590     7.7280   -22.5640    69.2990     7.0510     7.8630     7.8130     2.1630 
  149.2500   144.5630    27.8130     7.7440   -22.5050    68.3790     7.1950     7.9910     8.0720     2.1620 
  149.3750   144.6750    27.8660     7.7610   -22.4740    65.4010     7.3110     8.0470     8.0400     2.1560 
  149.5000   144.7860    27.9200     7.7780   -22.4380    62.4130     7.3920     8.0940     7.7430     2.1510 
  149.6250   144.8980    27.9740     7.7950   -22.4360    62.5170     7.4170     8.1760     7.6240     2.1490 
  149.7500   145.0090    28.0280     7.8120   -22.5040    62.7160     7.3710     8.2530     7.7130     2.1460 
  149.8750   145.1210    28.0820     7.8290   -22.5950    61.2070     7.1470     8.1170     7.8700     2.1420 
  150.0000   145.2320    28.1350     7.8450   -22.6210    59.0610     6.6580     7.5960     8.0620     2.1440 
  150.1250   145.3440    28.1890     7.8620   -22.5720    59.0590     6.0350     6.8430     8.1680     2.1600 
  150.2500   145.4550    28.2430     7.8790   -22.5230    62.5800     5.5030     6.1780     7.8150     2.1980 
  150.3750   145.5670    28.2970     7.8960   -22.5690    69.0900     5.2230     5.8280     6.6100     2.2430 
  150.5000   145.6790    28.3510     7.9130   -22.8180    77.0140     5.2880     5.9110     5.5110     2.2590 
  150.6250   145.7900    28.4050     7.9300   -23.4240    80.7330     5.7270     6.4940     6.0930     2.2230 
  150.7500   145.9020    28.4580     7.9470   -24.3360    77.6110     6.4160     7.3360     7.7680     2.1680 
  150.8750   146.0130    28.5120     7.9640   -25.3100    68.9030     7.1130     8.0990     8.8150     2.1350 
  151.0000   146.1250    28.5660     7.9810   -26.0980    60.6470     7.5590     8.5700     8.9200     2.1240 
  151.1250   146.2360    28.6200     7.9980   -26.6500    57.9730     7.6830     8.6500     8.6690     2.1150 
  151.2500   146.3480    28.6730     8.0150   -27.0400    58.1850     7.5910     8.5610     8.3390     2.1050 
  151.3750   146.4590    28.7270     8.0320   -27.3020    57.6850     7.4730     8.4890     8.0570     2.1040 
  151.5000   146.5710    28.7810     8.0490   -27.4870    57.4280     7.4100     8.4540     7.9940     2.1090 
  151.6250   146.6830    28.8340     8.0660   -27.5880    59.1810     7.4120     8.5050     8.0060     2.1160 
  151.7500   146.7940    28.8880     8.0830   -27.5410    62.3500     7.4890     8.6130     7.8780     2.1200 
  151.8750   146.9060    28.9420     8.1000   -27.2640    63.0620     7.6150     8.7660     7.8750     2.1190 
  152.0000   147.0180    28.9950     8.1170   -26.7540    63.1080     7.7310     8.8910     8.2770     2.1160 
  152.1250   147.1290    29.0490     8.1340   -25.9820    64.6350     7.7900     8.9770     8.7690     2.1200 
  152.2500   147.2410    29.1030     8.1510   -24.9960    65.7670     7.7800     8.9950     8.8490     2.1280 
  152.3750   147.3520    29.1560     8.1670   -23.9810    65.1870     7.7360     8.9670     8.5470     2.1320 
  152.5000   147.4640    29.2100     8.1840   -23.1910    64.4310     7.7060     8.9670     8.2610     2.1290 
  152.6250   147.5760    29.2640     8.2020   -22.6800    64.0250     7.7040     9.0120     8.1230     2.1220 
  152.7500   147.6870    29.3170     8.2190   -22.2910    64.4160     7.7210     9.0950     8.2100     2.1210 
  152.8750   147.7990    29.3710     8.2360   -21.9390    66.1820     7.7070     9.1390     8.5890     2.1260 
  153.0000   147.9100    29.4250     8.2530   -21.5910    67.9730     7.6230     9.0950     8.9270     2.1320 
  153.1250   148.0220    29.4790     8.2700   -21.2200    67.3320     7.4870     8.9450     8.8590     2.1360 
  153.2500   148.1330    29.5320     8.2870   -20.8140    67.1200     7.3580     8.7790     8.5050     2.1380 
  153.3750   148.2450    29.5860     8.3040   -20.3640    69.6970     7.4250     8.8460     8.1870     2.1390 
  153.5000   148.3560    29.6400     8.3210   -19.8770    71.8360     7.7920     9.3130     7.9880     2.1370 
  153.6250   148.4680    29.6940     8.3390   -19.3380    70.1570     8.5350    10.3190     7.9400     2.1500 
  153.7500   148.5800    29.7470     8.3560   -18.7080    66.9940     9.6420    11.8180     8.3740     2.1920 
  153.8750   148.6910    29.8010     8.3730   -17.9240    64.7550    10.4880    12.8910     9.5730     2.2710 
  154.0000   148.8020    29.8550     8.3910   -17.0290    63.4030    10.2860    12.5710    11.0940     2.3600 
  154.1250   148.9140    29.9090     8.4080   -16.1840    63.7870     9.2430    11.1440    11.9930     2.4030 
  154.2500   149.0250    29.9630     8.4250   -15.5290    65.1000     7.5240     8.8830    11.1970     2.3770 
  154.3750   149.1370    30.0160     8.4430   -15.0650    69.8050     5.9890     6.9930     8.6000     2.3150 
  154.5000   149.2480    30.0700     8.4600   -14.7180    78.2510     5.0960     5.9530     6.0900     2.2660 
  154.6250   149.3600    30.1240     8.4780   -14.5210    85.5700     4.5870     5.4410     5.1240     2.2300 
  154.7500   149.4710    30.1780     8.4950   -14.4600    86.5320     4.4260     5.3500     5.3140     2.1930 
  154.8750   149.5830    30.2320     8.5130   -14.3790    83.0300     4.4680     5.4460     5.6350     2.1730 
  155.0000   149.6940    30.2860     8.5300   -14.1030    83.2230     4.5150     5.4730     5.4140     2.1810 
  155.1250   149.8050    30.3400     8.5480   -13.6300    87.2700     4.4690     5.3500     4.9420     2.2010 
  155.2500   149.9170    30.3930     8.5650   -13.1620    89.6540     4.3330     5.1050     4.7030     2.2110 
  155.3750   150.0280    30.4470     8.5830   -12.8350    89.8830     4.1590     4.8430     4.7470     2.2100 
  155.5000   150.1400    30.5010     8.6000   -12.5960    89.5120     3.9910     4.6070     4.9400     2.2090 
  155.6250   150.2510    30.5550     8.6180   -12.3090    90.7030     3.8460     4.4020     4.9250     2.2180 
  155.7500   150.3630    30.6090     8.6350   -11.8830    92.9750     3.7280     4.2430     4.5450     2.2300 
  155.8750   150.4740    30.6630     8.6530   -11.3810    96.2400     3.6490     4.1380     4.1390     2.2420 
  156.0000   150.5850    30.7170     8.6700   -10.9740    96.7410     3.6110     4.1050     4.0040     2.2480 
  156.1250   150.6970    30.7710     8.6880   -10.7660    94.3340     3.6020     4.1130     4.0920     2.2450 
  156.2500   150.8080    30.8250     8.7050   -10.7210    92.4760     3.5900     4.1420     4.1660     2.2340 
  156.3750   150.9190    30.8790     8.7230   -10.7960    93.3160     3.5360     4.1130     4.0670     2.2280 
  156.5000   151.0310    30.9330     8.7400   -10.9340    95.1400     3.4300     4.0200     3.8410     2.2430 
  156.6250   151.1420    30.9870     8.7580   -11.0870    98.1880     3.2760     3.8670     3.6600     2.2750 
  156.7500   151.2530    31.0410     8.7760   -11.2250   102.6120     3.1190     3.7050     3.5920     2.3020 
  156.8750   151.3650    31.0950     8.7930   -11.3850   105.3960     2.9600     3.5250     3.5410     2.3090 
  157.0000   151.4760    31.1490     8.8110   -11.6440   104.8830     2.8350     3.3760     3.4360     2.3050 
  157.1250   151.5870    31.2040     8.8290   -12.0610   102.8090     2.7790     3.3120     3.2940     2.3000 
  157.2500   151.6980    31.2580     8.8470   -12.6330   101.3580     2.8290     3.3910     3.2220     2.3040 
  157.3750   151.8100    31.3120     8.8650   -13.3960   101.8280     3.0800     3.7380     3.4180     2.3170 
  157.5000   151.9210    31.3660     8.8830   -14.3770   102.4860     3.4930     4.2940     3.9680     2.3240 
  157.6250   152.0320    31.4210     8.9020   -15.5540   102.2470     4.0530     5.0350     4.6200     2.2960 
