~V
VERS. 2.00: Ver 2.00
~W
STRT.M 15.0000:
STOP.M 219.0000:
STEP.M 0.1250:
NULL. -999.2500:
UWI. FD11101:
~C
DEPT.M :
TVD. :
DX. :
DY. :
GR.API :
RML.OHMM :
RI. :
RXO.OHMM :
CALI.CM :
SP.MV :
DEN.GM/CC :
~A
# ...
   81.0000    80.6260     1.5610     4.6940    86.7990     8.4890     8.1800     7.7110    21.5600   -13.8080     2.2780 
   81.1250    80.7480     1.5680     4.7220    86.2770     7.4830     7.2660     7.7660    21.7000   -13.8720     2.2450 
   81.2500    80.8690     1.5750     4.7500    89.0430     6.6540     6.4140     7.5210    21.8820   -13.7320     2.2220 
   81.3750    80.9910     1.5810     4.7770    93.6700     6.2620     5.8370     6.5060    22.1010   -13.4960     2.2100 
   81.5000    81.1130     1.5880     4.8050    98.2970     6.5250     5.7110     5.0860    22.3020   -13.2530     2.2060 
   81.6250    81.2350     1.5950     4.8320   101.1200     7.7080     6.3050     4.9050    22.2750   -13.1040     2.2220 
   81.7500    81.3560     1.6020     4.8600    99.8110     9.6580     7.5900     5.9650    22.0630   -13.1070     2.2680 
   81.8750    81.4780     1.6090     4.8880    91.7060    12.0630     9.4070     9.4140    21.8570   -13.3480     2.3450 
   82.0000    81.6000     1.6160     4.9150    79.6130    14.1880    11.2700    17.9020    21.7120   -13.8760     2.4290 
   82.1250    81.7210     1.6230     4.9430    73.0440    14.8630    12.2770    21.4210    21.6340   -14.6530     2.4720 
   82.2500    81.8430     1.6290     4.9710    73.2990    14.0290    12.1110    16.4020    21.6330   -15.5000     2.4550 
   82.3750    81.9650     1.6360     4.9980    76.7600    12.2950    11.0200    11.1310    21.8020   -16.3240     2.3840 
   82.5000    82.0860     1.6430     5.0260    79.5140    10.5110     9.6130     8.7230    22.0750   -17.0690     2.2910 
   82.6250    82.2080     1.6500     5.0540    81.0250     9.3310     8.5200     7.9840    22.1820   -17.7150     2.2160 
   82.7500    82.3300     1.6570     5.0810    81.7060     8.7470     7.8930     7.5500    21.9240   -18.3180     2.1730 
   82.8750    82.4520     1.6640     5.1090    82.5220     8.5800     7.6550     7.2420    21.5160   -18.8520     2.1600 
   83.0000    82.5730     1.6700     5.1370    83.7460     8.6330     7.6630     7.4470    21.2120   -19.2550     2.1650 
   83.1250    82.6950     1.6770     5.1640    84.1300     8.7610     7.7910     7.6650    21.1860   -19.5170     2.1760 
   83.2500    82.8170     1.6840     5.1920    83.1850     8.8740     7.9270     7.8100    21.3480   -19.7430     2.1830 
   83.3750    82.9380     1.6910     5.2190    80.1790     8.9400     8.0190     7.9830    21.7060   -19.9650     2.1800 
   83.5000    83.0600     1.6980     5.2470    77.9030     8.9460     8.0350     8.0560    22.1180   -20.1830     2.1660 
   83.6250    83.1820     1.7050     5.2750    79.3230     8.8900     7.9570     8.0390    22.4340   -20.3910     2.1480 
   83.7500    83.3030     1.7120     5.3020    82.4260     8.8010     7.8240     7.9850    22.4180   -20.5190     2.1380 
   83.8750    83.4250     1.7180     5.3300    83.9160     8.7010     7.6700     7.9350    22.1520   -20.5470     2.1400 
   84.0000    83.5470     1.7250     5.3580    82.0600     8.6010     7.5230     7.9070    22.0180   -20.5190     2.1560 
   84.1250    83.6690     1.7320     5.3850    80.0280     8.5040     7.3990     8.0830    22.1210   -20.5000     2.1740 
   84.2500    83.7900     1.7390     5.4130    79.4950     8.4040     7.2900     8.2270    22.2560   -20.4680     2.1790 
   84.3750    83.9120     1.7460     5.4410    80.8250     8.3110     7.1930     8.2410    22.4720   -20.4360     2.1640 
   84.5000    84.0340     1.7530     5.4680    82.6940     8.2580     7.1240     8.0210    22.8430   -20.4040     2.1310 
   84.6250    84.1550     1.7590     5.4960    84.1160     8.3260     7.1400     7.5680    23.1890   -20.3260     2.0970 
   84.7500    84.2770     1.7660     5.5240    86.2960     8.5490     7.2820     7.4030    23.0850   -20.2270     2.0820 
   84.8750    84.3990     1.7730     5.5510    87.5220     8.9250     7.5680     7.2300    22.4740   -20.1690     2.0960 
   85.0000    84.5210     1.7800     5.5790    85.0720     9.3930     7.9630     6.8590    21.6700   -20.1970     2.1350 
   85.1250    84.6420     1.7870     5.6060    80.9450     9.8200     8.3710     6.6800    21.2050   -20.3280     2.1860 
   85.2500    84.7640     1.7940     5.6340    79.7940    10.0830     8.6730     6.6740    21.0730   -20.5730     2.2280 
   85.3750    84.8860     1.8010     5.6620    79.1320    10.1220     8.7960     7.1000    21.1840   -20.8760     2.2500 
   85.5000    85.0070     1.8070     5.6890    76.2860     9.9470     8.7300     7.8600    21.5890   -21.1560     2.2450 
   85.6250    85.1290     1.8140     5.7170    73.9880     9.6130     8.5020     8.4120    22.2890   -21.3920     2.2110 
   85.7500    85.2510     1.8210     5.7450    75.0960     9.2460     8.2210     8.5570    22.7220   -21.6470     2.1610 
   85.8750    85.3720     1.8280     5.7720    77.8470     8.9260     7.9610     8.4540    22.6860   -21.8840     2.1100 
   86.0000    85.4940     1.8350     5.8000    79.3720     8.7060     7.7730     7.9790    22.2030   -22.0350     2.0720 
   86.1250    85.6160     1.8420     5.8280    79.9360     8.6350     7.7020     7.4920    21.4740   -22.0600     2.0660 
   86.2500    85.7380     1.8490     5.8550    81.1950     8.6800     7.7290     7.5100    21.0380   -21.9810     2.0870 
   86.3750    85.8590     1.8550     5.8830    83.0510     8.8060     7.8290     7.9120    21.1610   -21.8420     2.1230 
   86.5000    85.9810     1.8620     5.9100    83.2040     8.9600     7.9630     8.6180    21.7690   -21.7430     2.1550 
   86.6250    86.1030     1.8690     5.9380    78.4330     9.0710     8.0740     9.1970    22.3520   -21.7400     2.1640 
   86.7500    86.2240     1.8760     5.9660    73.9850     9.0980     8.1230     9.2110    22.4840   -21.7190     2.1540 
   86.8750    86.3460     1.8830     5.9930    72.4790     9.0350     8.0970     8.9430    22.2310   -21.6560     2.1340 
   87.0000    86.4680     1.8900     6.0210    73.1310     8.9010     8.0090     8.6620    21.7800   -21.5850     2.1160 
   87.1250    86.5890     1.8960     6.0490    73.1050     8.7390     7.8920     8.5060    21.2600   -21.5300     2.1130 
   87.2500    86.7110     1.9030     6.0760    72.8090     8.5980     7.7860     8.3420    20.9360   -21.4810     2.1220 
   87.3750    86.8330     1.9100     6.1040    73.1600     8.5020     7.7120     8.1630    20.9760   -21.4280     2.1390 
   87.5000    86.9550     1.9170     6.1320    74.2060     8.4560     7.6690     8.0790    21.3860   -21.3350     2.1540 
   87.6250    87.0760     1.9240     6.1590    77.7820     8.4540     7.6430     8.2640    21.8900   -21.1340     2.1610 
   87.7500    87.1980     1.9310     6.1870    81.5150     8.4770     7.6240     8.3690    22.2140   -20.8530     2.1590 
   87.8750    87.3180     1.9380     6.2200    82.4260     8.5180     7.6280     8.4270    22.1880   -20.5310     2.1520 
   88.0000    87.4380     1.9450     6.2530    81.7610     8.5670     7.6750     8.4760    21.7760   -20.1640     2.1440 
   88.1250    87.5590     1.9530     6.2870    82.2530     8.5870     7.7550     8.3460    21.1870   -19.6920     2.1420 
   88.2500    87.6790     1.9600     6.3200    82.8030     8.5200     7.7950     8.1670    20.7750   -19.0930     2.1500 
   88.3750    87.7990     1.9670     6.3540    83.0640     8.3030     7.7090     8.1080    20.6990   -18.3010     2.1660 
   88.5000    87.9190     1.9750     6.3870    84.6710     7.9210     7.4460     8.2010    20.8360   -17.2960     2.1880 
   88.6250    88.0390     1.9820     6.4210    87.9910     7.4910     7.0180     8.0750    21.2200   -16.2020     2.2100 
   88.7500    88.1600     1.9890     6.4540    92.8270     7.1450     6.5570     7.3590    21.7630   -15.2210     2.2270 
   88.8750    88.2800     1.9970     6.4880    99.5150     6.8930     6.1700     6.2900    22.1240   -14.3910     2.2340 
   89.0000    88.4000     2.0040     6.5210   105.9370     6.7100     5.9240     5.7290    22.0300   -13.7080     2.2310 
   89.1250    88.5200     2.0120     6.5550   105.4190     6.6400     5.8580     5.6360    21.5880   -13.1510     2.2210 
