~V
VERS. 2.00: Ver 2.00
~W
STRT.M 45.0000:
STOP.M 272.0000:
STEP.M 0.1250:
NULL. -999.2500:
UWI. FD11191:
~C
DEPT.M :
TVD. :
DX. :
DY. :
SP.MV :
GR.API :
RI. :
RML.OHMM :
RXO.OHMM :
DEN.GM/CC :
~A
# ...
  245.7500   237.8020   -45.7090     2.1650   -28.5610    65.7230    20.8560    22.6790    19.5570     2.0990 
  245.8750   237.9160   -45.7610     2.1690   -28.5680    66.0930    21.0730    22.6510    19.6180     2.1100 
  246.0000   238.0290   -45.8130     2.1720   -28.5970    66.3890    20.9410    22.2370    19.2260     2.1190 
  246.1250   238.1430   -45.8650     2.1760   -28.6360    67.9030    20.7070    21.7490    18.6900     2.1210 
  246.2500   238.2560   -45.9170     2.1800   -28.6700    68.7660    20.5390    21.3890    18.3280     2.1170 
  246.3750   238.3700   -45.9700     2.1840   -28.6880    66.3810    20.8280    21.6290    18.6430     2.1090 
  246.5000   238.4830   -46.0220     2.1870   -28.6870    64.6040    21.8370    22.6980    19.1890     2.1090 
  246.6250   238.5970   -46.0740     2.1910   -28.6680    66.5900    23.0010    23.8590    19.2700     2.1190 
  246.7500   238.7100   -46.1260     2.1940   -28.6260    69.6820    23.3710    24.0880    24.0130     2.1360 
  246.8750   238.8240   -46.1780     2.1980   -28.5510    68.9780    22.4550    22.9240    32.9830     2.1560 
  247.0000   238.9380   -46.2300     2.2020   -28.4480    66.9670    20.6260    20.8080    36.9320     2.1660 
  247.1250   239.0510   -46.2820     2.2050   -28.3390    68.0460    18.8350    18.8440    31.4060     2.1600 
  247.2500   239.1650   -46.3340     2.2090   -28.2640    71.9700    17.9480    17.9430    21.6080     2.1430 
  247.3750   239.2780   -46.3860     2.2130   -28.2570    74.9310    18.2510    18.3410    17.3660     2.1210 
  247.5000   239.3920   -46.4380     2.2170   -28.3150    74.0920    19.9140    20.1830    21.3770     2.0940 
  247.6250   239.5060   -46.4900     2.2200   -28.4020    69.9000    22.4040    22.7760    28.9070     2.0750 
  247.7500   239.6190   -46.5420     2.2240   -28.4610    66.3960    24.6680    24.9590    32.7930     2.0780 
  247.8750   239.7330   -46.5940     2.2280   -28.4400    66.4520    25.5870    25.6550    31.9690     2.0980 
  248.0000   239.8470   -46.6450     2.2320   -28.3320    68.6120    25.1750    24.9750    30.2970     2.1170 
  248.1250   239.9600   -46.6970     2.2350   -28.1560    69.5810    23.7170    23.3430    28.8970     2.1270 
  248.2500   240.0740   -46.7490     2.2390   -27.9620    68.5540    22.0330    21.5710    28.0680     2.1240 
  248.3750   240.1880   -46.8010     2.2430   -27.8000    68.3290    20.6900    20.2120    28.2480     2.1170 
  248.5000   240.3020   -46.8520     2.2470   -27.6840    72.9200    19.6460    19.2020    26.3850     2.1150 
  248.6250   240.4150   -46.9040     2.2500   -27.6070    78.6470    19.1940    18.7820    21.9390     2.1150 
  248.7500   240.5290   -46.9560     2.2540   -27.5390    78.9620    19.0410    18.6590    21.2370     2.1130 
  248.8750   240.6430   -47.0070     2.2580   -27.4610    74.6570    19.0140    18.6350    22.6440     2.1180 
  249.0000   240.7570   -47.0590     2.2620   -27.3730    74.5900    18.9850    18.5910    22.5550     2.1340 
  249.1250   240.8700   -47.1110     2.2660   -27.2860    77.9130    18.8020    18.3430    22.5880     2.1460 
  249.2500   240.9840   -47.1620     2.2710   -27.2070    76.7050    18.4290    17.9070    21.5950     2.1440 
  249.3750   241.0980   -47.2140     2.2750   -27.1390    73.6870    17.9800    17.4290    20.1200     2.1350 
  249.5000   241.2120   -47.2650     2.2790   -27.0710    73.3420    17.5350    16.9550    19.6050     2.1270 
  249.6250   241.3260   -47.3160     2.2830   -26.9920    73.6960    17.0070    16.4050    19.2060     2.1180 
  249.7500   241.4400   -47.3680     2.2870   -26.8990    72.4060    16.3170    15.6950    18.7580     2.1100 
  249.8750   241.5530   -47.4190     2.2910   -26.8050    72.3820    15.5320    14.8920    18.8190     2.1160 
  250.0000   241.6670   -47.4710     2.2950   -26.7510    73.4670    14.7060    14.0760    18.7230     2.1360 
  250.1250   241.7810   -47.5220     2.2990   -26.8070    73.6380    14.0260    13.4440    17.2420     2.1520 
  250.2500   241.8950   -47.5730     2.3030   -27.0210    75.3250    13.5310    12.9970    15.6640     2.1510 
  250.3750   242.0090   -47.6240     2.3080   -27.4010    78.6540    13.1690    12.6860    15.5920     2.1370 
  250.5000   242.1230   -47.6760     2.3120   -27.8600    78.4480    12.9770    12.5420    15.9650     2.1250 
  250.6250   242.2370   -47.7270     2.3160   -28.2790    76.3770    13.0190    12.6160    15.7760     2.1230 
  250.7500   242.3510   -47.7780     2.3210   -28.5730    75.7190    13.3570    12.9860    15.3990     2.1280 
  250.8750   242.4650   -47.8290     2.3250   -28.7130    75.5920    14.0750    13.7230    15.6970     2.1360 
  251.0000   242.5790   -47.8800     2.3290   -28.7490    72.7310    15.1470    14.8130    17.0320     2.1510 
  251.1250   242.6930   -47.9310     2.3330   -28.7320    70.5760    16.4920    16.1570    19.2900     2.1780 
  251.2500   242.8070   -47.9820     2.3370   -28.7060    71.7570    17.7420    17.3560    23.2070     2.2040 
  251.3750   242.9210   -48.0330     2.3400   -28.6940    72.0980    18.6790    18.2250    26.1450     2.2110 
  251.5000   243.0350   -48.0840     2.3440   -28.7220    70.6380    19.2800    18.7450    25.7340     2.2030 
  251.6250   243.1490   -48.1350     2.3480   -28.8200    72.1710    19.3090    18.7020    25.2990     2.1960 
  251.7500   243.2630   -48.1860     2.3520   -28.9860    74.3900    18.9580    18.3310    24.1650     2.1860 
  251.8750   243.3780   -48.2370     2.3550   -29.1680    72.3540    18.4050    17.8080    22.6480     2.1620 
  252.0000   243.4920   -48.2880     2.3590   -29.2650    68.8410    17.7410    17.2050    23.4810     2.1340 
  252.1250   243.6060   -48.3390     2.3630   -29.1860    69.0900    17.2130    16.7490    22.1280     2.1240 
  252.2500   243.7200   -48.3900     2.3670   -28.9440    70.5280    16.7710    16.3570    18.8180     2.1460 
  252.3750   243.8340   -48.4410     2.3710   -28.6020    70.2990    16.3510    15.9600    18.1590     2.1990 
  252.5000   243.9480   -48.4910     2.3750   -28.2560    70.7970    15.9080    15.5160    17.7840     2.2510 
  252.6250   244.0620   -48.5420     2.3790   -27.9710    73.9430    15.5230    15.0950    16.5230     2.2650 
  252.7500   244.1760   -48.5930     2.3820   -27.7740    76.6220    15.1940    14.7050    17.3110     2.2470 
  252.8750   244.2900   -48.6440     2.3860   -27.6780    77.8300    15.0750    14.5460    18.8510     2.2320 
  253.0000   244.4050   -48.6950     2.3900   -27.6490    76.8210    15.4930    14.9710    18.1310     2.2480 
  253.1250   244.5190   -48.7460     2.3940   -27.6300    74.8870    16.6940    16.2140    16.3960     2.2840 
  253.2500   244.6330   -48.7970     2.3980   -27.5690    73.6080    18.7560    18.3420    16.9070     2.3080 
  253.3750   244.7470   -48.8470     2.4020   -27.4680    73.3140    21.5050    21.1370    21.6340     2.3010 
  253.5000   244.8610   -48.8980     2.4050   -27.3870    72.6360    24.1180    23.7270    28.3290     2.2770 
  253.6250   244.9750   -48.9490     2.4090   -27.3730    70.6360    25.6060    25.0960    30.5590     2.2560 
  253.7500   245.0890   -49.0000     2.4130   -27.4100    68.3770    25.3180    24.6440    26.9780     2.2350 
  253.8750   245.2040   -49.0500     2.4170   -27.4520    67.7730    23.4800    22.7140    24.3110     2.2120 
  254.0000   245.3180   -49.1010     2.4210   -27.4770    68.7610    21.3600    20.5920    24.0090     2.1920 
  254.1250   245.4320   -49.1520     2.4250   -27.5180    71.0390    19.8600    19.2210    21.9870     2.1920 
  254.2500   245.5460   -49.2020     2.4280   -27.6070    73.5460    19.9050    19.4480    20.2510     2.2160 
  254.3750   245.6610   -49.2530     2.4320   -27.7240    75.7650    21.4710    21.1880    24.6600     2.2680 
  254.5000   245.7750   -49.3030     2.4360   -27.8020    76.4160    24.5050    24.3970    34.8630     2.3440 
  254.6250   245.8890   -49.3540     2.4400   -27.7890    75.1690    28.2190    28.2430    40.9050     2.4360 
  254.7500   246.0040   -49.4040     2.4440   -27.7200    72.8150    32.1720    32.3380    42.5300     2.4980 
