~V
VERS. 2.00: Ver 2.00
~W
STRT.M 30.0000:
STOP.M 272.0000:
STEP.M 0.1250:
NULL. -999.2500:
UWI. FD11176:
~C
DEPT.M :
TVD. :
DX. :
DY. :
SP.MV :
GR.API :
RI. :
RML.OHMM :
RXO.OHMM :
DEN.GM/CC :
~A
   30.0000    30.0000     0.0000     0.0000    45.1710    32.1240     0.1310     0.3340     0.2000     2.4450 
   30.1250    30.1250     0.0010    -0.0010    44.4870    31.5950     0.1370     0.3330     0.1670     2.3320 
   30.2500    30.2500     0.0030    -0.0010    43.5960    32.3820     0.1500     0.3380     0.1880     2.2510 
   30.3750    30.3750     0.0040    -0.0020    42.7770    35.5030     0.1680     0.3430     0.2850     2.2390 
   30.5000    30.5000     0.0060    -0.0030    42.1460    39.4930     0.1740     0.3490     0.2660     2.2550 
   30.6250    30.6250     0.0080    -0.0030    41.6850    41.5060     0.1840     0.3460     0.1780     2.2640 
   30.7500    30.7500     0.0100    -0.0040    41.2260    41.9350     0.1800     0.3380     0.1520     2.2650 
   30.8750    30.8750     0.0120    -0.0050    40.6960    41.5730     0.1750     0.3290     0.1300     2.2700 
   31.0000    31.0000     0.0140    -0.0060    40.2160    40.9660     0.1710     0.3210     0.2130     2.2780 
   31.1250    31.1250     0.0160    -0.0060    39.7710    40.0870     0.1700     0.3150     0.3880     2.2820 
   31.2500    31.2500     0.0180    -0.0070    39.0850    38.5460     0.1710     0.3150     0.4790     2.2740 
   31.3750    31.3750     0.0200    -0.0080    37.9130    37.1890     0.1720     0.3140     0.4930     2.2630 
   31.5000    31.5000     0.0220    -0.0090    36.3850    36.7940     0.1720     0.3140     0.4840     2.2560 
   31.6250    31.6250     0.0240    -0.0090    34.7470    38.3880     0.1720     0.3130     0.4640     2.2540 
   31.7500    31.7500     0.0260    -0.0100    33.2530    39.7020     0.1730     0.3100     0.4560     2.2500 
   31.8750    31.8750     0.0280    -0.0110    32.1740    39.2340     0.1780     0.3070     0.4660     2.2460 
   32.0000    32.0000     0.0300    -0.0120    31.6720    37.8300     0.1790     0.3060     0.4610     2.2480 
   32.1250    32.1250     0.0320    -0.0120    31.8550    37.6090     0.1850     0.3050     0.4510     2.2540 
   32.2500    32.2500     0.0340    -0.0130    32.6570    38.9800     0.1860     0.3010     0.4590     2.2560 
   32.3750    32.3750     0.0370    -0.0130    34.1270    41.2340     0.1850     0.2970     0.4710     2.2500 
   32.5000    32.5000     0.0390    -0.0140    36.1270    40.3780     0.1880     0.2910     0.4750     2.2550 
   32.6250    32.6250     0.0410    -0.0150    38.3320    34.7230     0.1940     0.2860     0.4560     2.2930 
   32.7500    32.7500     0.0440    -0.0150    40.1490    30.6050     0.1990     0.2860     0.4270     2.3350 
   32.8750    32.8750     0.0460    -0.0160    40.9500    31.9740     0.1930     0.2940     0.4390     2.3530 
   33.0000    33.0000     0.0480    -0.0160    40.6980    34.5200     0.1860     0.3020     0.4700     2.3710 
   33.1250    33.1250     0.0510    -0.0170    39.7210    34.3300     0.1710     0.3000     0.4760     2.4330 
   33.2500    33.2500     0.0530    -0.0170    38.3660    33.2270     0.1450     0.2820     0.4700     2.5260 
   33.3750    33.3740     0.0560    -0.0180    36.2970    32.2500     0.1150     0.2230     0.4390     2.6240 
   33.5000    33.4990     0.0580    -0.0180    32.9970    30.1980     0.0790     0.1510     0.4190     2.7090 
   33.6250    33.6240     0.0610    -0.0190    27.9640    28.4290     0.0620     0.0940     0.4400     2.7090 
   33.7500    33.7490     0.0640    -0.0190    21.3770    29.0550     0.0960     0.0870     0.4670     2.5980 
   33.8750    33.8740     0.0660    -0.0200    13.5460    31.2080     0.2700     0.2200     1.1740     2.4520 
   34.0000    33.9990     0.0690    -0.0200     5.0810    32.9650     0.7190     0.5820     3.3730     2.3150 
   34.1250    34.1240     0.0720    -0.0210    -3.4270    35.3690     2.1980     1.8410     5.7150     2.1480 
   34.2500    34.2490     0.0750    -0.0210   -11.0950    39.7600     4.6640     3.8150     6.5570     1.9670 
   34.3750    34.3740     0.0770    -0.0210   -16.9090    43.1120     6.9250     5.4660     7.0270     1.8660 
   34.5000    34.4990     0.0800    -0.0220   -20.7970    44.1530     8.7120     6.6510     7.4300     1.8660 
   34.6250    34.6240     0.0830    -0.0220   -23.0550    44.6540     9.2340     6.7270     6.1670     1.9360 
   34.7500    34.7490     0.0860    -0.0220   -24.3200    47.0090     9.2720     6.6280     4.6320     2.0470 
   34.8750    34.8740     0.0890    -0.0230   -24.9250    50.2530     9.2880     6.7320     5.0180     2.1310 
   35.0000    34.9990     0.0920    -0.0230   -25.1940    52.6850     9.0190     6.8200     8.5850     2.1230 
   35.1250    35.1240     0.0950    -0.0230   -25.2760    53.4960     8.4470     6.6940    13.6800     2.0570 
   35.2500    35.2490     0.0980    -0.0240   -25.2530    55.1920     7.7930     6.3170    13.9450     2.0320 
   35.3750    35.3740     0.1010    -0.0240   -25.1430    60.3100     7.1340     5.7080    10.8710     2.0820 
   35.5000    35.4990     0.1050    -0.0240   -24.9800    66.1060     6.6310     5.0560     9.1810     2.1550 
   35.6250    35.6240     0.1080    -0.0240   -24.8170    69.2130     6.3090     4.6200     7.1750     2.1960 
   35.7500    35.7490     0.1110    -0.0240   -24.7090    70.3630     6.0960     4.5200     5.6190     2.1890 
   35.8750    35.8740     0.1140    -0.0250   -24.6540    73.2290     5.9620     4.6670     5.5980     2.1470 
   36.0000    35.9990     0.1180    -0.0250   -24.6160    75.9370     5.7070     4.7390     6.0480     2.1080 
   36.1250    36.1240     0.1210    -0.0250   -24.5760    77.3690     5.4000     4.6810     6.6750     2.0930 
   36.2500    36.2490     0.1250    -0.0250   -24.5160    77.3190     5.1970     4.6490     6.6010     2.0970 
   36.3750    36.3740     0.1280    -0.0250   -24.4560    80.7210     5.2860     4.8920     5.4950     2.1090 
   36.5000    36.4990     0.1320    -0.0250   -24.5170    88.4810     5.7730     5.6770     5.8120     2.1140 
   36.6250    36.6230     0.1350    -0.0260   -24.9130    92.3430     6.8280     7.0190     8.5650     2.1150 
   36.7500    36.7480     0.1390    -0.0260   -25.6890    87.8830     8.3690     8.7260    10.3830     2.1480 
   36.8750    36.8730     0.1420    -0.0260   -26.6760    78.0040     9.7410    10.1080     9.6330     2.2590 
   37.0000    36.9980     0.1460    -0.0260   -27.5770    69.9130    10.4870    10.7640     8.1200     2.3960 
   37.1250    37.1230     0.1500    -0.0260   -28.2640    66.2140    10.2250    10.4460     7.8490     2.4350 
   37.2500    37.2480     0.1540    -0.0260   -28.8060    67.1780     9.2730     9.5130     8.4370     2.3260 
   37.3750    37.3730     0.1580    -0.0260   -29.2600    69.3490     8.3480     8.7490     8.6050     2.1490 
   37.5000    37.4980     0.1620    -0.0260   -29.6620    69.1800     7.6730     8.3370     8.5760     2.0010 
   37.6250    37.6230     0.1660    -0.0260   -30.0050    67.7380     7.3740     8.3650     8.5170     1.9930 
   37.7500    37.7480     0.1700    -0.0260   -30.2760    67.8010     7.3510     8.4790     8.6540     1.9860 
   37.8750    37.8730     0.1740    -0.0260   -30.4580    68.2660     7.5400     8.6430     9.2550     1.9890 
   38.0000    37.9980     0.1780    -0.0260   -30.5410    67.4330     7.7800     8.6150     9.6190     2.0010 
   38.1250    38.1230     0.1820    -0.0260   -30.4930    66.1860     7.9440     8.7950     9.3380     2.0200 
   38.2500    38.2480     0.1870    -0.0260   -30.3410    68.0460     7.9620     8.8290     9.0790     2.0380 
   38.3750    38.3730     0.1910    -0.0260   -30.1370    71.9460     7.8610     8.7510     9.1590     2.0520 
   38.5000    38.4980     0.1950    -0.0260   -29.9510    75.3270     7.6920     8.5860     9.2380     2.0610 
   38.6250    38.6220     0.2000    -0.0260   -29.8370    76.6220     7.5030     8.3870     9.2860     2.0600 
   38.7500    38.7470     0.2040    -0.0260   -29.8060    76.1470     7.3550     8.1620     9.6090     2.0440 
   38.8750    38.8720     0.2080    -0.0260   -29.8340    74.9050     7.2440     7.9680    10.0010     2.0310 
   39.0000    38.9970     0.2130    -0.0260   -29.8830    72.7420     7.1730     7.8220    10.0310     2.0250 
