~V
VERS. 2.00: Ver 2.00
~W
STRT.M 11.0000:
STOP.M 273.0000:
STEP.M 0.1250:
NULL. -999.2500:
UWI. FD11023:
~C
DEPT.M :
TVD. :
DX. :
DY. :
GR.API :
RML.OHMM :
RI. :
RXO.OHMM :
CALI.CM :
DEN.GM/CC :
SP.MV :
~A
# ...
   85.2500    85.2440    -0.5660    -0.1820    54.1500     9.4160     7.4670     9.3360    25.8860     2.0950   -21.4480 
   85.3750    85.3690    -0.5710    -0.1810    53.1160     9.3390     7.3540     8.7880    25.8860     2.1010   -21.3660 
   85.5000    85.4940    -0.5760    -0.1790    53.3610     9.3440     7.3110     8.4590    25.8850     2.1270   -21.2160 
   85.6250    85.6190    -0.5810    -0.1780    54.3280     9.2090     7.2060     8.0740    25.8750     2.1650   -20.9830 
   85.7500    85.7440    -0.5860    -0.1770    53.5890     8.8830     6.9840     7.4400    25.8500     2.2020   -20.6850 
   85.8750    85.8690    -0.5910    -0.1750    53.4270     8.4350     6.6700     6.8330    25.8060     2.2260   -20.3340 
   86.0000    85.9940    -0.5970    -0.1740    57.8280     7.9900     6.3360     6.4030    25.7290     2.2370   -19.9510 
   86.1250    86.1180    -0.6020    -0.1730    66.2830     7.6920     6.0700     6.0090    25.6360     2.2340   -19.6030 
   86.2500    86.2430    -0.6070    -0.1720    73.4920     7.5690     5.9110     5.8860    25.5820     2.2240   -19.3400 
   86.3750    86.3680    -0.6120    -0.1700    76.9810     7.6040     5.8620     6.0890    25.5610     2.2120   -19.1950 
   86.5000    86.4930    -0.6170    -0.1690    76.7810     7.7420     5.9030     6.3760    25.5270     2.1980   -19.1810 
   86.6250    86.6180    -0.6220    -0.1680    74.2350     7.9210     6.0030     6.4900    25.3960     2.1820   -19.2650 
   86.7500    86.7430    -0.6270    -0.1660    71.5710     8.0820     6.1190     6.4980    25.1880     2.1690   -19.4020 
   86.8750    86.8680    -0.6320    -0.1650    71.9300     8.2020     6.2270     6.5480    25.0290     2.1620   -19.5780 
   87.0000    86.9930    -0.6370    -0.1640    74.1070     8.2760     6.3160     6.7390    24.9680     2.1650   -19.7740 
   87.1250    87.1180    -0.6420    -0.1620    73.4070     8.3040     6.3780     7.0080    24.9650     2.1710   -20.0040 
   87.2500    87.2420    -0.6470    -0.1610    71.4990     8.3110     6.4220     7.1370    24.9650     2.1730   -20.2590 
   87.3750    87.3670    -0.6520    -0.1600    72.8190     8.3220     6.4580     7.1440    24.9650     2.1660   -20.5140 
   87.5000    87.4920    -0.6580    -0.1590    77.2270     8.3730     6.5070     6.9880    24.9660     2.1530   -20.7590 
   87.6250    87.6170    -0.6630    -0.1570    78.3540     8.5060     6.5920     6.8760    24.9750     2.1520   -20.9910 
   87.7500    87.7420    -0.6680    -0.1560    75.6940     8.6920     6.7040     6.9990    24.9960     2.1700   -21.2040 
   87.8750    87.8670    -0.6730    -0.1550    73.3220     8.8580     6.8130     7.2980    25.0150     2.1980   -21.3850 
   88.0000    87.9920    -0.6780    -0.1530    71.5890     8.9110     6.8660     7.5330    25.0230     2.2260   -21.5210 
   88.1250    88.1170    -0.6830    -0.1520    70.0970     8.7390     6.8020     7.4530    25.0230     2.2440   -21.6030 
   88.2500    88.2410    -0.6880    -0.1510    70.0790     8.3830     6.6290     7.0950    25.0230     2.2460   -21.6510 
   88.3750    88.3660    -0.6930    -0.1490    72.2890     7.9340     6.3870     6.5600    25.0230     2.2310   -21.6790 
   88.5000    88.4910    -0.6980    -0.1480    74.6290     7.5250     6.1400     6.0250    25.0230     2.2070   -21.7180 
   88.6250    88.6160    -0.7030    -0.1470    74.6640     7.2950     5.9730     5.7650    25.0230     2.1860   -21.8070 
   88.7500    88.7410    -0.7080    -0.1460    75.9200     7.2550     5.9100     5.7270    25.0230     2.1770   -21.9620 
   88.8750    88.8660    -0.7140    -0.1440    79.4190     7.3720     5.9450     5.8130    25.0230     2.1790   -22.2100 
   89.0000    88.9910    -0.7190    -0.1430    82.5480     7.5730     6.0470     5.9350    25.0230     2.1890   -22.5360 
   89.1250    89.1160    -0.7240    -0.1420    79.9970     7.7520     6.1550     6.0750    25.0230     2.2020   -22.9130 
   89.2500    89.2410    -0.7290    -0.1400    75.5120     7.8150     6.2030     6.1960    25.0230     2.2160   -23.3000 
   89.3750    89.3650    -0.7340    -0.1390    74.6100     7.7080     6.1480     6.3090    25.0230     2.2350   -23.6710 
   89.5000    89.4900    -0.7390    -0.1380    76.6920     7.4330     5.9800     6.4220    25.0230     2.2580   -24.0400 
   89.6250    89.6150    -0.7440    -0.1360    79.9830     7.0830     5.7450     6.4470    25.0230     2.2860   -24.4150 
   89.7500    89.7400    -0.7490    -0.1350    86.5640     6.8850     5.5810     6.4930    25.0230     2.3150   -24.8000 
   89.8750    89.8650    -0.7540    -0.1340    92.7880     7.0800     5.6480     6.7530    25.0180     2.3460   -25.2150 
   90.0000    89.9900    -0.7590    -0.1320    90.9100     7.8480     6.0860     7.1960    24.9990     2.3800   -25.6640 
   90.1250    90.1150    -0.7640    -0.1310    80.6160     9.2660     7.0060     8.3000    24.9570     2.3970   -26.1580 
   90.2500    90.2400    -0.7690    -0.1300    74.0830    10.9300     8.1900     9.6190    24.9250     2.3650   -26.7080 
   90.3750    90.3640    -0.7750    -0.1290    73.4600    12.3540     9.3410    10.5300    24.9170     2.2800   -27.3030 
   90.5000    90.4890    -0.7800    -0.1270    70.8220    13.0250    10.0870    11.2490    24.9340     2.1760   -27.9080 
   90.6250    90.6140    -0.7850    -0.1260    62.6950    12.4760    10.0100     9.7930    24.9750     2.1050   -28.4760 
   90.7500    90.7390    -0.7900    -0.1250    56.0110    11.1760     9.3030     8.8180    25.0090     2.0740   -28.9730 
   90.8750    90.8640    -0.7950    -0.1230    53.6350     9.7600     8.3540     8.1300    25.0210     2.0710   -29.3590 
   91.0000    90.9890    -0.8000    -0.1220    53.1990     8.7370     7.5410     8.2350    25.0230     2.0790   -29.6180 
   91.1250    91.1140    -0.8050    -0.1210    52.3190     8.3390     7.0980     8.8660    25.0350     2.0810   -29.7450 
   91.2500    91.2390    -0.8110    -0.1190    52.0020     8.3270     6.9410     8.8580    25.0740     2.0700   -29.7910 
   91.3750    91.3630    -0.8200    -0.1150    52.0450     8.4960     6.9650     8.7780    25.1350     2.0540   -29.7820 
   91.5000    91.4880    -0.8290    -0.1110    52.6960     8.6800     7.0610     8.6510    25.1740     2.0500   -29.7430 
   91.6250    91.6120    -0.8380    -0.1070    54.2730     8.7640     7.1410     8.6380    25.1840     2.0630   -29.7050 
   91.7500    91.7370    -0.8470    -0.1030    55.0820     8.7540     7.1770     8.7800    25.1840     2.0780   -29.6820 
   91.8750    91.8620    -0.8560    -0.0990    54.1720     8.6860     7.1730     8.9690    25.1880     2.0930   -29.6710 
   92.0000    91.9860    -0.8650    -0.0950    54.1920     8.6030     7.1460     9.1610    25.2060     2.1120   -29.6610 
   92.1250    92.1110    -0.8740    -0.0910    55.9620     8.5500     7.1150     9.2640    25.2670     2.1340   -29.6200 
   92.2500    92.2350    -0.8830    -0.0860    56.4920     8.5430     7.0950     9.2980    25.3750     2.1500   -29.5620 
   92.3750    92.3600    -0.8920    -0.0820    55.2980     8.5710     7.0840     9.4090    25.5190     2.1600   -29.5030 
   92.5000    92.4850    -0.9010    -0.0780    53.3300     8.6000     7.0660     9.6220    25.6200     2.1680   -29.4490 
   92.6250    92.6090    -0.9100    -0.0740    51.8160     8.5670     7.0040     9.7390    25.6250     2.1720   -29.4190 
   92.7500    92.7340    -0.9190    -0.0700    51.4510     8.4390     6.8840     9.5810    25.5870     2.1640   -29.3930 
   92.8750    92.8580    -0.9280    -0.0660    52.9340     8.2280     6.7100     9.2540    25.5660     2.1450   -29.3560 
   93.0000    92.9830    -0.9380    -0.0620    55.6360     7.9920     6.5180     8.9230    25.5770     2.1230   -29.3160 
   93.1250    93.1080    -0.9470    -0.0580    55.6930     7.8400     6.3730     8.7670    25.6470     2.1100   -29.2600 
   93.2500    93.2320    -0.9560    -0.0540    53.3850     7.8180     6.3140     8.7280    25.7550     2.1040   -29.2040 
   93.3750    93.3570    -0.9650    -0.0490    51.0490     7.9200     6.3460     8.6870    25.8140     2.1000   -29.1730 
