~V
VERS. 2.00: Ver 2.00
~W
STRT.M 30.0000:
STOP.M 272.0000:
STEP.M 0.1250:
NULL. -999.2500:
UWI. FD11176:
~C
DEPT.M :
TVD. :
DX. :
DY. :
SP.MV :
GR.API :
RI. :
RML.OHMM :
RXO.OHMM :
DEN.GM/CC :
~A
# ...
   57.3750    57.3230     1.4780     0.2030   -21.1980    61.0410     5.6290     6.6500     7.9010     2.1230 
   57.5000    57.4470     1.4920     0.2040   -21.1960    62.1470     5.6410     6.6330     7.3650     2.2320 
   57.6250    57.5710     1.5050     0.2060   -21.2390    61.0600     5.5990     6.5520     7.2320     2.3580 
   57.7500    57.6960     1.5180     0.2070   -21.2660    59.2550     5.5320     6.4300     7.6350     2.3820 
   57.8750    57.8200     1.5320     0.2080   -21.2370    59.7310     5.4400     6.2720     8.3480     2.2700 
   58.0000    57.9440     1.5450     0.2100   -21.1570    61.7360     5.3660     6.1390     8.9520     2.1320 
   58.1250    58.0680     1.5590     0.2110   -21.0150    61.1830     5.3160     6.0610     8.9780     2.0670 
   58.2500    58.1930     1.5730     0.2120   -20.7640    58.1970     5.2920     6.0350     8.6460     2.0600 
   58.3750    58.3170     1.5860     0.2130   -20.3230    55.9920     5.2810     6.0300     8.4720     2.0680 
   58.5000    58.4410     1.6000     0.2140   -19.6610    54.3550     5.2320     5.9700     8.4090     2.0730 
   58.6250    58.5650     1.6140     0.2150   -18.7440    54.7130     5.0730     5.7610     8.1720     2.0740 
   58.7500    58.6900     1.6280     0.2160   -17.5710    58.2830     4.8230     5.4500     8.1960     2.0750 
   58.8750    58.8140     1.6420     0.2180   -16.1190    64.1520     4.5480     5.1110     9.1840     2.0910 
   59.0000    58.9380     1.6560     0.2190   -14.4720    70.5750     4.3180     4.8390     9.0700     2.1230 
   59.1250    59.0620     1.6710     0.2200   -12.8160    77.3060     4.2100     4.7320     6.8900     2.1480 
   59.2500    59.1860     1.6850     0.2200   -11.4290    83.2550     4.1910     4.7260     6.1730     2.1470 
   59.3750    59.3110     1.6990     0.2210   -10.5110    86.3030     4.2300     4.7890     6.8660     2.1360 
   59.5000    59.4350     1.7130     0.2220    -9.9430    87.8820     4.2950     4.8710     6.5080     2.1370 
   59.6250    59.5590     1.7280     0.2230    -9.5550    87.2540     4.3680     4.9450     5.5330     2.1480 
   59.7500    59.6830     1.7420     0.2230    -9.2980    85.0060     4.4350     5.0130     4.9610     2.1530 
   59.8750    59.8070     1.7570     0.2240    -9.2920    83.2100     4.4870     5.0850     5.2540     2.1430 
   60.0000    59.9310     1.7710     0.2250    -9.5540    83.6940     4.5160     5.1450     5.8630     2.1300 
   60.1250    60.0560     1.7860     0.2250    -9.9290    84.8780     4.4750     5.1070     6.0340     2.1330 
   60.2500    60.1800     1.8010     0.2260   -10.1440    84.4370     4.3720     4.9800     5.8240     2.1550 
   60.3750    60.3040     1.8150     0.2260   -10.0770    84.0440     4.2330     4.7850     5.2610     2.1740 
   60.5000    60.4280     1.8300     0.2260    -9.9010    86.7930     4.1550     4.6810     4.7510     2.1680 
   60.6250    60.5520     1.8450     0.2260    -9.8900    92.8480     4.3690     4.9660     5.0460     2.1420 
   60.7500    60.6760     1.8600     0.2270   -10.1960    94.9010     4.9870     5.7910     5.8370     2.1220 
   60.8750    60.8000     1.8750     0.2270   -10.8070    89.5310     5.8050     6.8640    10.6610     2.1230 
   61.0000    60.9240     1.8900     0.2270   -11.5610    84.2590     6.6700     7.9650    23.2890     2.1340 
   61.1250    61.0480     1.9050     0.2270   -12.4100    81.3910     7.1950     8.5570    33.6710     2.1400 
   61.2500    61.1720     1.9200     0.2270   -13.3460    78.5270     7.1740     8.4060    28.1540     2.1370 
   61.3750    61.2970     1.9360     0.2270   -14.2810    76.3310     6.7330     7.7710    14.1300     2.1360 
   61.5000    61.4210     1.9510     0.2270   -15.0550    77.3980     6.1150     6.9700     7.2470     2.1400 
   61.6250    61.5450     1.9670     0.2270   -15.5650    80.0680     5.5770     6.3660     6.5750     2.1320 
   61.7500    61.6690     1.9820     0.2270   -15.8620    82.4180     5.3140     6.1320     6.4670     2.1090 
   61.8750    61.7930     1.9980     0.2260   -16.0210    84.9970     5.2610     6.1400     6.5450     2.0870 
   62.0000    61.9170     2.0130     0.2260   -16.1500    86.3130     5.2460     6.1750     6.7060     2.0810 
   62.1250    62.0410     2.0290     0.2260   -16.3590    82.6150     5.2320     6.1830     6.7940     2.0830 
   62.2500    62.1650     2.0450     0.2260   -16.7150    77.4570     5.2000     6.1570     6.7720     2.0800 
   62.3750    62.2890     2.0600     0.2250   -17.2400    77.2560     5.1480     6.0930     6.8770     2.0790 
   62.5000    62.4130     2.0760     0.2250   -17.8600    81.2570     5.1050     6.0420     7.0520     2.0820 
   62.6250    62.5370     2.0920     0.2240   -18.4770    82.2550     5.0830     6.0100     7.0410     2.0850 
   62.7500    62.6610     2.1080     0.2240   -19.0150    76.9520     5.0820     6.0060     6.8600     2.0800 
   62.8750    62.7850     2.1240     0.2240   -19.4560    71.6650     5.1070     6.0250     6.6580     2.0710 
   63.0000    62.9090     2.1400     0.2230   -19.8480    70.7970     5.1360     6.0450     6.6380     2.0700 
   63.1250    63.0330     2.1560     0.2220   -20.2240    71.8090     5.1510     6.0510     6.8880     2.0760 
   63.2500    63.1560     2.1720     0.2220   -20.5960    70.6480     5.1420     6.0100     7.1430     2.0750 
   63.3750    63.2800     2.1890     0.2210   -20.9480    68.4070     5.0930     5.9220     7.2060     2.0660 
   63.5000    63.4040     2.2050     0.2200   -21.2300    66.3400     5.0330     5.8210     7.1140     2.0570 
   63.6250    63.5280     2.2210     0.2190   -21.3670    64.2690     5.0020     5.7700     6.8530     2.0470 
   63.7500    63.6520     2.2370     0.2190   -21.3210    63.9450     5.0120     5.7820     6.5610     2.0350 
   63.8750    63.7760     2.2540     0.2180   -21.0470    67.6390     5.0610     5.8380     6.8390     2.0260 
   64.0000    63.9000     2.2700     0.2170   -20.5830    70.3850     5.1480     5.9360     8.6540     2.0210 
   64.1250    64.0240     2.2870     0.2160   -20.0020    69.6700     5.2570     6.0520    10.5730     2.0230 
   64.2500    64.1480     2.3030     0.2140   -19.4110    68.4800     5.3690     6.1600     9.8980     2.0320 
   64.3750    64.2720     2.3200     0.2130   -18.8600    70.5420     5.4510     6.2370     7.9930     2.0530 
   64.5000    64.3960     2.3370     0.2120   -18.3030    72.4040     5.4580     6.2300     7.1450     2.1010 
   64.6250    64.5190     2.3530     0.2100   -17.6420    72.0630     5.3740     6.1180     6.8730     2.1780 
   64.7500    64.6430     2.3700     0.2090   -16.8210    70.8200     5.1490     5.8390     6.6600     2.2350 
   64.8750    64.7670     2.3870     0.2070   -15.8140    71.6170     4.8250     5.4480     6.3930     2.2210 
   65.0000    64.8910     2.4040     0.2060   -14.6740    73.7440     4.5010     5.0670     5.9030     2.1690 
   65.1250    65.0150     2.4210     0.2040   -13.5140    76.4910     4.2730     4.8240     5.4460     2.1430 
   65.2500    65.1390     2.4380     0.2030   -12.5160    79.5350     4.2130     4.7960     5.4780     2.1500 
   65.3750    65.2620     2.4550     0.2010   -11.8690    81.6790     4.2850     4.9180     6.0710     2.1480 
   65.5000    65.3860     2.4730     0.2000   -11.5630    79.6500     4.4280     5.1200     6.5340     2.1180 
   65.6250    65.5100     2.4900     0.1980   -11.4180    75.4340     4.5690     5.2650     6.3820     2.0850 
   65.7500    65.6340     2.5070     0.1960   -11.1160    74.0660     4.6280     5.2800     5.9700     2.0710 
   65.8750    65.7580     2.5250     0.1940   -10.3670    76.0990     4.6460     5.2280     5.9340     2.0730 
   66.0000    65.8810     2.5420     0.1920    -9.1210    78.3730     4.7720     5.3270     6.1570     2.0850 
   66.1250    66.0050     2.5600     0.1900    -7.4640    80.2290     5.1500     5.7640     5.9460     2.1270 
   66.2500    66.1290     2.5780     0.1880    -5.6430    83.3110     5.6730     6.3910     6.9060     2.2090 
   66.3750    66.2520     2.5950     0.1860    -3.8740    85.2020     6.1300     6.9290    10.1370     2.3170 
