~V
VERS. 2.00: Ver 2.00
~W
STRT.M 11.0000:
STOP.M 273.0000:
STEP.M 0.1250:
NULL. -999.2500:
UWI. FD11023:
~C
DEPT.M :
TVD. :
DX. :
DY. :
GR.API :
RML.OHMM :
RI. :
RXO.OHMM :
CALI.CM :
DEN.GM/CC :
SP.MV :
~A
# ...
  217.2500   213.8710   -26.2640     8.8660    55.8440    26.1910    24.2100    13.6320    22.8640     2.1660   -21.0100 
  217.3750   213.9900   -26.3010     8.8790    60.7110    26.5840    24.5810    13.1350    22.8640     2.1600   -21.2610 
  217.5000   214.1080   -26.3390     8.8920    60.7520    27.4570    25.3700    13.0590    22.8640     2.1500   -21.4830 
  217.6250   214.2270   -26.3760     8.9050    56.6620    28.8180    26.6560    13.5660    22.8640     2.1400   -21.6670 
  217.7500   214.3450   -26.4140     8.9180    54.8140    30.4530    28.2660    14.2300    22.8640     2.1320   -21.8390 
  217.8750   214.4640   -26.4510     8.9310    56.5250    32.2740    30.1020    14.6880    22.8640     2.1280   -22.0030 
  218.0000   214.5820   -26.4890     8.9450    58.2280    34.2880    32.1330    14.9040    22.8640     2.1240   -22.1640 
  218.1250   214.7010   -26.5260     8.9580    57.0250    36.6960    34.5030    15.0150    22.8640     2.1170   -22.3520 
  218.2500   214.8190   -26.5640     8.9710    55.7780    39.6440    37.3530    15.2350    22.8640     2.1120   -22.5770 
  218.3750   214.9380   -26.6010     8.9840    57.0330    43.2210    40.8140    15.7070    22.8640     2.1090   -22.8270 
  218.5000   215.0560   -26.6390     8.9970    60.3240    47.3350    44.8720    16.3380    22.8640     2.1060   -23.0720 
  218.6250   215.1750   -26.6760     9.0100    61.5410    51.6870    49.3280    16.8640    22.8640     2.1010   -23.2820 
  218.7500   215.2930   -26.7140     9.0240    59.9530    55.7890    53.6930    17.2340    22.8640     2.0970   -23.4440 
  218.8750   215.4120   -26.7510     9.0370    57.2250    59.2680    57.5480    17.3450    22.8640     2.0970   -23.5720 
  219.0000   215.5300   -26.7890     9.0500    54.8080    61.8920    60.5830    17.1880    22.8640     2.1010   -23.6980 
  219.1250   215.6490   -26.8260     9.0630    53.7760    63.4870    62.5470    16.8910    22.8640     2.1050   -23.8600 
  219.2500   215.7670   -26.8640     9.0760    54.6360    64.3420    63.7610    16.7270    22.8640     2.1060   -24.0490 
  219.3750   215.8860   -26.9010     9.0890    56.3720    64.7220    64.4570    16.6550    22.8640     2.1040   -24.2360 
  219.5000   216.0040   -26.9390     9.1030    56.3500    64.9140    64.9090    16.6520    22.8640     2.1030   -24.4050 
  219.6250   216.1230   -26.9760     9.1160    54.0130    65.1550    65.4470    16.7780    22.8630     2.1060   -24.5480 
  219.7500   216.2410   -27.0140     9.1290    53.2060    65.8690    66.0250    16.9380    22.8620     2.1100   -24.6500 
  219.8750   216.3600   -27.0510     9.1420    55.2540    67.0100    67.0180    17.0400    22.8630     2.1100   -24.7100 
  220.0000   216.4790   -27.0890     9.1550    57.1750    68.7800    68.6340    17.1300    22.8640     2.1070   -24.7560 
  220.1250   216.5970   -27.1260     9.1690    55.7860    71.5970    71.2440    17.2370    22.8640     2.1060   -24.8420 
  220.2500   216.7160   -27.1640     9.1820    53.9490    75.5280    74.8240    17.2890    22.8640     2.1070   -24.9750 
  220.3750   216.8340   -27.2010     9.1950    54.6070    80.5920    79.2900    17.2870    22.8640     2.1160   -25.1270 
  220.5000   216.9530   -27.2390     9.2080    55.9710    86.5380    84.3070    17.2540    22.8640     2.1340   -25.2740 
  220.6250   217.0710   -27.2760     9.2210    55.8140    92.6430    89.0930    17.2000    22.8640     2.1490   -25.3660 
  220.7500   217.1900   -27.3140     9.2340    55.1100    97.8270    92.7380    16.8480    22.8640     2.1430   -25.3770 
  220.8750   217.3080   -27.3520     9.2480    53.9680   101.2690    94.6020    16.2690    22.8640     2.1190   -25.3460 
  221.0000   217.4260   -27.3900     9.2610    51.1750   102.6110    94.5140    15.6770    22.8640     2.0960   -25.3540 
  221.1250   217.5450   -27.4280     9.2740    48.4830   101.8160    92.6260    15.1940    22.8640     2.0900   -25.4760 
  221.2500   217.6630   -27.4660     9.2880    47.5390    99.7040    89.6910    14.8890    22.8620     2.0990   -25.6670 
  221.3750   217.7810   -27.5030     9.3010    47.1120    96.3050    85.6210    15.0000    22.8530     2.1180   -25.8430 
  221.5000   217.9000   -27.5410     9.3140    47.2490    90.9720    79.7510    15.4030    22.8180     2.1450   -25.9440 
  221.6250   218.0180   -27.5790     9.3270    49.7150    82.4310    71.1180    15.8120    22.7440     2.1860   -25.9530 
  221.7500   218.1370   -27.6170     9.3410    52.2190    71.5850    60.9090    15.9630    22.6320     2.2480   -25.9420 
  221.8750   218.2550   -27.6550     9.3540    53.1130    60.3740    51.1230    15.7810    22.5440     2.3180   -25.9530 
  222.0000   218.3730   -27.6930     9.3670    53.9090    51.2620    43.8260    15.2470    22.5000     2.3440   -25.9880 
  222.1250   218.4920   -27.7310     9.3800    56.4620    46.8270    40.8980    14.1190    22.4920     2.2750   -26.0510 
  222.2500   218.6100   -27.7690     9.3940    57.8120    47.0320    41.9540    13.0690    22.4910     2.1780   -26.1450 
  222.3750   218.7280   -27.8070     9.4070    55.3450    51.7050    46.7420    12.7660    22.4970     2.1150   -26.2730 
  222.5000   218.8470   -27.8450     9.4200    52.7650    60.2510    54.7050    13.0230    22.5120     2.0940   -26.4240 
  222.6250   218.9650   -27.8820     9.4340    55.0400    71.7350    64.9480    13.3150    22.5520     2.0960   -26.5480 
  222.7500   219.0840   -27.9200     9.4470    57.6070    83.5930    75.2850    13.6150    22.6430     2.1000   -26.6020 
  222.8750   219.2020   -27.9580     9.4600    55.7000    93.6260    83.8700    14.3220    22.8380     2.1040   -26.5960 
  223.0000   219.3200   -27.9960     9.4730    52.5250   100.1440    89.3190    15.5900    23.1310     2.1100   -26.5910 
  223.1250   219.4390   -28.0340     9.4870    53.6580   102.0820    90.8590    17.4930    23.3470     2.1200   -26.6460 
  223.2500   219.5570   -28.0720     9.5000    54.8960   100.9630    89.9630    19.5980    23.4270     2.1310   -26.7350 
  223.3750   219.6750   -28.1100     9.5130    53.0980    97.8680    87.6220    21.5890    23.4400     2.1400   -26.8140 
  223.5000   219.7940   -28.1480     9.5260    49.8140    93.7840    84.6600    23.5110    23.4400     2.1470   -26.8520 
  223.6250   219.9120   -28.1860     9.5400    47.3150    89.6560    81.8580    25.0770    23.4400     2.1480   -26.8490 
  223.7500   220.0310   -28.2240     9.5530    46.7250    86.2560    79.7820    26.2380    23.4400     2.1430   -26.8290 
  223.8750   220.1490   -28.2610     9.5660    48.2650    84.0240    78.7600    26.8540    23.4400     2.1320   -26.7860 
  224.0000   220.2670   -28.2990     9.5800    50.6980    83.2070    78.9720    26.4660    23.4420     2.1210   -26.6660 
  224.1250   220.3860   -28.3370     9.5930    52.3070    84.2030    80.7610    24.3920    23.4450     2.1150   -26.4050 
  224.2500   220.5040   -28.3750     9.6060    53.2430    86.8030    83.9550    22.2360    23.4410     2.1150   -26.0690 
  224.3750   220.6220   -28.4130     9.6190    53.4550    90.9180    88.4880    21.0350    23.4240     2.1160   -25.7610 
  224.5000   220.7410   -28.4510     9.6330    51.5620    96.2800    94.1210    20.9180    23.4070     2.1170   -25.5530 
  224.6250   220.8590   -28.4890     9.6460    49.7990   102.3720   100.3640    21.4690    23.4000     2.1200   -25.4640 
  224.7500   220.9780   -28.5270     9.6590    49.1350   108.1290   106.2140    22.1950    23.3990     2.1230   -25.4560 
  224.8750   221.0960   -28.5650     9.6720    47.4530   112.5710   110.7150    22.7220    23.3990     2.1260   -25.5420 
  225.0000   221.2140   -28.6030     9.6860    44.7040   114.9350   113.1070    23.0500    23.3990     2.1290   -25.7260 
  225.1250   221.3330   -28.6400     9.6990    44.5990   114.7080   112.8590    23.2120    23.3990     2.1340   -25.9580 
  225.2500   221.4510   -28.6780     9.7120    47.6820   113.0420   111.1320    23.0790    23.3950     2.1430   -26.1200 
  225.3750   221.5690   -28.7160     9.7260    49.7070   111.2700   109.2570    22.2100    23.3640     2.1610   -26.1090 
