~V
VERS. 2.00: Ver 2.00
~W
STRT.M 56.0000:
STOP.M 276.0000:
STEP.M 0.1250:
NULL. -999.2500:
UWI. FD11178:
~C
DEPT.M :
TVD. :
DX. :
DY. :
SP.MV :
GR.API :
RI. :
RML.OHMM :
DEN.GM/CC :
RXO.OHMM :
~A
# ...
  265.8750   255.9750    -9.1790   -58.1830    -8.1160    56.9220     1.3020     1.8150     2.1440     1.7750 
  266.0000   256.0910    -9.1850   -58.2300    -8.1160    57.1410     1.3060     1.7920     2.1870     1.6840 
  266.1250   256.2070    -9.1920   -58.2770    -8.1160    56.7690     1.3190     1.8140     2.1430     1.6670 
  266.2500   256.3220    -9.1980   -58.3240    -8.1160    55.0740     1.3310     1.8430     2.0650     1.7240 
  266.3750   256.4380    -9.2050   -58.3710    -8.1160    55.5690     1.3410     1.8740     2.0130     1.7840 
  266.5000   256.5540    -9.2110   -58.4170    -8.1160    58.3980     1.3490     1.8880     2.0020     1.8120 
  266.6250   256.6690    -9.2180   -58.4640    -8.1160    59.4270     1.3530     1.8860     1.9970     1.8070 
  266.7500   256.7850    -9.2250   -58.5110    -8.1160    58.5310     1.3580     1.9030     1.9650     1.8060 
  266.8750   256.9010    -9.2310   -58.5580    -8.1160    57.9910     1.3630     1.9270     1.9380     1.8780 
  267.0000   257.0160    -9.2380   -58.6050    -8.1160    57.3100     1.3710     1.9610     1.9460     1.9290 
  267.1250   257.1320    -9.2440   -58.6520    -8.1160    55.3430     1.3860     1.9890     1.9810     1.8550 
  267.2500   257.2480    -9.2510   -58.6990    -8.1160    53.8640     1.3980     2.0090     2.0330     1.8000 
  267.3750   257.3630    -9.2570   -58.7460    -8.1160    53.8790     1.4120     2.0270     2.0840     1.7860 
  267.5000   257.4790    -9.2640   -58.7930    -8.1160    53.4920     1.4290     2.0530     2.0780     1.7870 
  267.6250   257.5950    -9.2710   -58.8400    -8.1160    53.3590     1.4460     2.0730     2.0040     1.9440 
  267.7500   257.7100    -9.2770   -58.8870    -8.1160    54.1320     1.4620     2.0920     1.9600     2.0950 
  267.8750   257.8260    -9.2840   -58.9340    -8.1160    55.0550     1.4710     2.1070     2.0240     1.9610 
  268.0000   257.9420    -9.2900   -58.9810    -8.1160    55.2870     1.4720     2.1070     2.1300     1.7920 
  268.1250   258.0570    -9.2970   -59.0280    -8.1160    55.3720     1.4720     2.1050     2.1860     1.8070 
  268.2500   258.1730    -9.3030   -59.0750    -8.1160    55.7340     1.4720     2.1020     2.1770     1.8670 
  268.3750   258.2890    -9.3100   -59.1220    -8.1160    56.5300     1.4720     2.1000     2.1340     1.9240 
  268.5000   258.4040    -9.3170   -59.1690    -8.1160    57.6860     1.4720     2.1000     2.0750     2.0680 
  268.6250   258.5200    -9.3230   -59.2160    -8.1160    58.6970     1.4720     2.0980     1.9680     2.2740 
  268.7500   258.6360    -9.3300   -59.2630    -8.1160    58.9430     1.4720     2.0970     1.8300     2.4320 
  268.8750   258.7510    -9.3360   -59.3100    -8.1160    58.8320     1.4720     2.0960     1.7670     2.5360 
  269.0000   258.8670    -9.3430   -59.3570    -8.1160    58.8350     1.4720     2.0960     1.8470     2.5860 
  269.1250   258.9830    -9.3490   -59.4040    -8.1160    58.8350     1.4720     2.0960     2.0360     2.5070 
  269.2500   259.0980    -9.3560   -59.4510    -8.1160    58.8350     1.4720     2.0950     2.2130     2.2980 
  269.3750   259.2140    -9.3630   -59.4970    -8.1160    58.8350     1.4720     2.0950     2.3010     2.1740 
  269.5000   259.3300    -9.3690   -59.5440    -8.1160    58.8350     1.4720     2.0940     2.3170     2.2150 
  269.6250   259.4450    -9.3760   -59.5910    -8.1160    58.8350     1.4720     2.0950     2.3150     2.2590 
  269.7500   259.5610    -9.3820   -59.6380    -8.1160    58.8350     1.4720     2.0930     2.3200     2.2250 
  269.8750   259.6770    -9.3890   -59.6850    -8.1160    58.8350     1.4710     2.0870     2.3130     2.1940 
  270.0000   259.7920    -9.3950   -59.7320    -8.1160    58.8350     1.4710     2.0860     2.2850     2.2880 
  270.1250   259.9080    -9.4020   -59.7790    -8.1160    58.8350     1.4710     2.0870     2.2640     2.4710 
  270.2500   260.0230    -9.4090   -59.8260    -8.1160    58.8350     1.4710     2.0900     2.2590     2.5710 
  270.3750   260.1390    -9.4150   -59.8730    -8.1160    58.8350     1.4710     2.0940     2.2600     2.6370 
  270.5000   260.2550    -9.4220   -59.9200    -8.1160    58.8350     1.4710     2.0920     2.2600     2.8240 
  270.6250   260.3700    -9.4280   -59.9670    -8.1160    58.8350     1.4710     2.0910     2.2680     3.1610 
  270.7500   260.4860    -9.4350   -60.0140    -8.1160    58.8350     1.4720     2.0900     2.2810     3.5880 
  270.8750   260.6020    -9.4410   -60.0610    -8.1160    58.8350     1.4720     2.0890     2.2860     3.7450 
  271.0000   260.7170    -9.4480   -60.1080    -8.1160    58.8350     1.4720     2.0890     2.2840     3.4570 
  271.1250   260.8330    -9.4550   -60.1550    -8.1160    58.8350     1.4720     2.0890     2.2810     3.3770 
  271.2500   260.9490    -9.4610   -60.2020    -8.1160    58.8350     1.4720     2.0890     2.2730     3.9230 
  271.3750   261.0640    -9.4680   -60.2490    -8.1160    58.8350     1.4720     2.0890     2.2670     4.2460 
  271.5000   261.1800    -9.4740   -60.2960    -8.1160    58.8350     1.4720     2.0890     2.2760     3.8310 
  271.6250   261.2960    -9.4810   -60.3430    -8.1160    58.8350     1.4720     2.0890     2.2950     3.5480 
  271.7500   261.4110    -9.4870   -60.3900    -8.1160    58.8350     1.4720     2.0890     2.3070     3.6150 
  271.8750   261.5270    -9.4940   -60.4370    -8.1160    58.8350     1.4720     2.0890     2.3070     3.3560 
  272.0000   261.6430    -9.5010   -60.4840    -8.1160    58.8350     1.4720     2.0890     2.3000     2.9390 
  272.1250   261.7580    -9.5070   -60.5310    -8.1160    58.8350     1.4720     2.0890     2.2890     2.7880 
  272.2500   261.8740    -9.5140   -60.5770    -8.1160    58.8350     1.4720     2.0890     2.2730     2.9020 
  272.3750   261.9900    -9.5200   -60.6240    -8.1160    58.8350     1.4720     2.0890     2.2510     3.0890 
  272.5000   262.1050    -9.5270   -60.6710    -8.1160    58.8350     1.4720     2.0890     2.2270     3.3130 
  272.6250   262.2210    -9.5330   -60.7180    -8.1160    58.8350     1.4720     2.0890     2.2110     3.7860 
  272.7500   262.3370    -9.5400   -60.7650    -8.1160    58.8350     1.4720     2.0890     2.1900     4.1590 
  272.8750   262.4520    -9.5470   -60.8120    -8.1160    58.8350     1.4720     2.0890     2.1330     4.0640 
  273.0000   262.5680    -9.5530   -60.8590    -8.1160    58.8350     1.4720     2.0890     2.0560     4.0210 
  273.1250   262.6840    -9.5600   -60.9060    -8.1160    58.8350     1.4720     2.0890     2.0060     4.1900 
  273.2500   262.7990    -9.5660   -60.9530    -8.1160    58.8350     1.4720     2.0890     1.9960     4.1580 
  273.3750   262.9150    -9.5730   -61.0000    -8.1160    58.8350     1.4720     2.0890     1.9980     4.0940 
  273.5000   263.0310    -9.5790   -61.0470    -8.1160    58.8350     1.4720     2.0890     1.9950     4.1290 
  273.6250   263.1460    -9.5860   -61.0940    -8.1160    58.8350     1.4720     2.0890     1.9950     4.1370 
  273.7500   263.2620    -9.5930   -61.1410    -8.1160    58.8350     1.4720     2.0890     1.9940     4.1370 
  273.8750   263.3780    -9.5990   -61.1880    -8.1160    58.8350     1.4720     2.0890     1.9900     4.1370 
  274.0000   263.4930    -9.6060   -61.2350    -8.1160    58.8350     1.4720     2.0890     1.9820     4.1360 
  274.1250   263.6090    -9.6120   -61.2820    -8.1160    58.8350     1.4720     2.0890     1.9750     4.1350 
  274.2500   263.7250    -9.6190   -61.3290    -8.1160    58.8350     1.4720     2.0890     1.9700     4.1350 
  274.3750   263.8400    -9.6250   -61.3760    -8.1160    58.8350     1.4720     2.0890     1.9620     4.1350 
  274.5000   263.9560    -9.6320   -61.4230    -8.1160    58.8350     1.4720     2.0890     1.9560     4.1350 
  274.6250   264.0720    -9.6390   -61.4700    -8.1160    58.8350     1.4720     2.0890     1.9570     4.1340 
  274.7500   264.1870    -9.6450   -61.5170    -8.1160    58.8350     1.4720     2.0890     1.9600     4.1330 
  274.8750   264.3030    -9.6520   -61.5640    -8.1160    58.8350     1.4720     2.0890     1.9590     4.1330 
