~V
VERS. 2.00: Ver 2.00
~W
STRT.M 25.0000:
STOP.M 287.0000:
STEP.M 0.1250:
NULL. -999.2500:
UWI. FD11174:
~C
DEPT.M :
TVD. :
DX. :
DY. :
SP.MV :
GR.API :
RI. :
RML.OHMM :
RXO.OHMM :
DEN.GM/CC :
~A
# ...
   43.2500    43.2480     0.0130    -0.1950   -23.8200    67.6960     6.5030     8.3400     8.0040     2.2180 
   43.3750    43.3730     0.0130    -0.1990   -24.1550    71.8020     5.7720     7.5020     6.6670     2.1810 
   43.5000    43.4980     0.0120    -0.2020   -24.9200    71.6630     5.4960     7.2540     7.2480     2.1520 
   43.6250    43.6230     0.0110    -0.2060   -25.9770    70.5500     5.5870     7.4420     7.3590     2.1300 
   43.7500    43.7480     0.0100    -0.2090   -26.9870    69.8820     5.7800     7.6600     7.0450     2.1190 
   43.8750    43.8730     0.0090    -0.2130   -27.7370    69.8410     5.8300     7.6210     6.7740     2.1170 
   44.0000    43.9980     0.0080    -0.2170   -28.2090    68.4880     5.6770     7.3770     6.8350     2.1180 
   44.1250    44.1230     0.0080    -0.2200   -28.4900    64.7380     5.5300     7.1380     7.1180     2.1160 
   44.2500    44.2480     0.0070    -0.2240   -28.7260    61.6430     5.4500     7.0230     7.2120     2.1140 
   44.3750    44.3730     0.0060    -0.2280   -29.0450    61.9190     5.4280     7.0350     7.0910     2.1130 
   44.5000    44.4980     0.0050    -0.2320   -29.3620    64.6230     5.4970     7.1360     7.0860     2.1160 
   44.6250    44.6230     0.0040    -0.2350   -29.5030    66.4380     5.6510     7.3470     7.3640     2.1200 
   44.7500    44.7480     0.0030    -0.2390   -29.3900    66.0410     5.8800     7.6700     8.0880     2.1210 
   44.8750    44.8730     0.0020    -0.2430   -29.1170    64.5960     6.1620     8.0180     9.8240     2.1210 
   45.0000    44.9980     0.0010    -0.2470   -28.7950    62.5390     6.3360     8.2300    12.2410     2.1200 
   45.1250    45.1230     0.0000    -0.2510   -28.4030    60.8510     6.3250     8.1550    13.2040     2.1240 
   45.2500    45.2480    -0.0010    -0.2540   -27.9630    60.4560     6.0950     7.7890    11.5990     2.1280 
   45.3750    45.3720    -0.0020    -0.2580   -27.4240    60.5030     5.7200     7.2650     9.1920     2.1280 
   45.5000    45.4970    -0.0030    -0.2620   -26.8250    60.3190     5.4120     6.8850     7.9380     2.1270 
   45.6250    45.6220    -0.0040    -0.2660   -26.1610    59.9300     5.4290     7.0720     7.7840     2.1470 
   45.7500    45.7470    -0.0050    -0.2700   -25.2900    61.1630     6.0970     8.0080     8.4710     2.2090 
   45.8750    45.8720    -0.0070    -0.2740   -24.0210    63.9250     7.2100     9.4520    12.0520     2.3070 
   46.0000    45.9970    -0.0080    -0.2780   -22.2870    65.7400     8.2520    10.6340    21.3370     2.4020 
   46.1250    46.1220    -0.0090    -0.2820   -20.1210    64.4980     8.4480    10.7200    30.9400     2.4580 
   46.2500    46.2470    -0.0100    -0.2860   -17.7280    62.9470     7.5910     9.5870    28.1390     2.4720 
   46.3750    46.3720    -0.0110    -0.2900   -15.2500    67.8800     6.0570     7.7200    14.8120     2.4450 
   46.5000    46.4970    -0.0120    -0.2940   -12.9250    78.7980     4.6510     5.9740     5.8130     2.3850 
   46.6250    46.6220    -0.0140    -0.2980   -11.0250    89.4900     3.7440     4.8970     3.9880     2.3170 
   46.7500    46.7470    -0.0150    -0.3020    -9.5870    96.6740     3.4080     4.4670     3.9120     2.2820 
   46.8750    46.8720    -0.0160    -0.3070    -8.7230    99.1910     3.3590     4.4320     3.8460     2.2830 
   47.0000    46.9970    -0.0170    -0.3110    -8.2390    97.3970     3.3890     4.4790     3.7970     2.2890 
   47.1250    47.1210    -0.0190    -0.3150    -8.0220    93.8730     3.3850     4.4500     3.8340     2.2820 
   47.2500    47.2460    -0.0200    -0.3190    -7.9620    94.1150     3.3090     4.3170     3.8530     2.2710 
   47.3750    47.3710    -0.0210    -0.3240    -8.0390    98.0060     3.1920     4.1420     3.7820     2.2640 
   47.5000    47.4960    -0.0230    -0.3280    -8.3400   100.2080     3.1140     4.0590     3.6220     2.2540 
   47.6250    47.6210    -0.0240    -0.3320    -8.8970   101.7350     3.2490     4.2470     3.5950     2.2390 
   47.7500    47.7460    -0.0250    -0.3370    -9.7180   104.4000     3.6930     4.7780     4.1410     2.2300 
   47.8750    47.8710    -0.0270    -0.3410   -10.8770   103.6510     4.3660     5.6430     6.3590     2.2490 
   48.0000    47.9960    -0.0280    -0.3450   -12.3750    97.7670     5.1920     6.6520    10.4610     2.2980 
   48.1250    48.1210    -0.0300    -0.3500   -14.1300    89.6600     5.9090     7.4920    13.1850     2.3340 
   48.2500    48.2460    -0.0310    -0.3540   -16.0010    80.9790     6.2480     7.8930    11.8040     2.3090 
   48.3750    48.3710    -0.0330    -0.3590   -17.7940    71.8830     6.1440     7.7690     8.7890     2.2290 
   48.5000    48.4960    -0.0340    -0.3630   -19.2950    67.3310     5.7980     7.3560     7.1440     2.1530 
   48.6250    48.6200    -0.0360    -0.3680   -20.3740    70.4190     5.4200     6.9560     6.4640     2.1170 
   48.7500    48.7450    -0.0370    -0.3720   -21.0330    72.6480     5.2630     6.7700     6.1050     2.1090 
   48.8750    48.8700    -0.0390    -0.3770   -21.4490    68.7850     5.2630     6.7920     6.1750     2.1120 
   49.0000    48.9950    -0.0400    -0.3810   -21.7190    65.8310     5.3160     6.8970     6.3920     2.1130 
   49.1250    49.1200    -0.0420    -0.3860   -21.8760    68.3420     5.3980     7.0170     6.6120     2.1110 
   49.2500    49.2450    -0.0440    -0.3900   -22.0400    70.9420     5.4830     7.1250     6.9760     2.1100 
   49.3750    49.3700    -0.0450    -0.3950   -22.2810    69.8460     5.5610     7.2200     7.5080     2.1140 
   49.5000    49.4950    -0.0470    -0.4000   -22.5770    68.4410     5.6010     7.3030     7.9360     2.1220 
   49.6250    49.6200    -0.0490    -0.4040   -22.8850    69.0060     5.5940     7.3570     8.0300     2.1310 
   49.7500    49.7450    -0.0500    -0.4090   -23.1040    69.9310     5.5370     7.3640     7.9490     2.1370 
   49.8750    49.8690    -0.0520    -0.4140   -23.1690    71.0810     5.4410     7.3200     7.9000     2.1350 
   50.0000    49.9940    -0.0540    -0.4180   -23.1190    74.1980     5.3560     7.2470     7.9750     2.1270 
   50.1250    50.1190    -0.0560    -0.4230   -23.1230    76.6530     5.3210     7.1700     8.2010     2.1160 
   50.2500    50.2440    -0.0570    -0.4280   -23.1780    76.9130     5.3510     7.1260     8.3840     2.1060 
   50.3750    50.3690    -0.0590    -0.4330   -23.1740    75.2880     5.4140     7.1600     8.4140     2.1050 
   50.5000    50.4940    -0.0610    -0.4380   -23.2070    75.2390     5.4770     7.2570     8.3740     2.1180 
   50.6250    50.6190    -0.0630    -0.4420   -23.2420    78.0360     5.5040     7.3400     8.1560     2.1370 
   50.7500    50.7440    -0.0650    -0.4470   -23.2320    80.6520     5.4870     7.3250     7.7710     2.1470 
   50.8750    50.8690    -0.0660    -0.4520   -23.2550    80.3070     5.4760     7.2110     7.5060     2.1420 
   51.0000    50.9940    -0.0680    -0.4570   -23.3490    76.1250     5.5880     7.1220     7.5060     2.1360 
   51.1250    51.1180    -0.0700    -0.4620   -23.4280    70.0810     5.8100     7.1440     7.6510     2.1480 
   51.2500    51.2430    -0.0720    -0.4670   -23.4760    65.5330     6.0760     7.2490     7.9250     2.1770 
   51.3750    51.3680    -0.0740    -0.4720   -23.5260    64.1080     6.2720     7.3480     8.2240     2.2040 
   51.5000    51.4930    -0.0760    -0.4770   -23.5730    64.7480     6.3150     7.3490     8.1550     2.2020 
   51.6250    51.6180    -0.0780    -0.4820   -23.6310    66.3480     6.1550     7.2070     8.0110     2.1690 
   51.7500    51.7430    -0.0800    -0.4870   -23.6900    68.1470     5.8540     6.9360     8.1390     2.1320 
   51.8750    51.8680    -0.0820    -0.4920   -23.7190    69.2150     5.5350     6.6050     8.1630     2.1160 
   52.0000    51.9930    -0.0830    -0.4970   -23.7620    70.0550     5.2980     6.3470     8.0840     2.1160 
   52.1250    52.1180    -0.0850    -0.5020   -23.8700    72.2560     5.2620     6.2690     8.1170     2.1160 
   52.2500    52.2420    -0.0870    -0.5070   -23.9940    74.4680     5.3310     6.3500     8.1890     2.1120 
