~V
VERS. 2.00: Ver 2.00
~W
STRT.M 20.0000:
STOP.M 292.0000:
STEP.M 0.1250:
NULL. -999.2500:
UWI. FD11146:
~C
DEPT.M :
TVD. :
DX. :
DY. :
GR.API :
RML.OHMM :
RI. :
RXO.OHMM :
CALI.CM :
SP.MV :
DEN.GM/CC :
~A
# ...
   69.5000    69.3790     1.8170    -1.4260    55.2730    11.4860     7.2720     9.6290    24.4300   -26.7510     2.1530 
   69.6250    69.5020     1.8300    -1.4360    56.6880    11.1790     7.1730     9.4890    24.4320   -26.7330     2.1520 
   69.7500    69.6260     1.8420    -1.4470    56.9230    11.2990     7.2530     9.5850    24.4450   -26.7850     2.1570 
   69.8750    69.7500     1.8550    -1.4580    55.2470    12.0100     7.6120     9.6780    24.4730   -26.8960     2.1700 
   70.0000    69.8740     1.8700    -1.4700    52.0360    13.2660     8.2650     9.9480    24.4950   -27.0500     2.1910 
   70.1250    69.9970     1.8860    -1.4830    50.2510    14.7290     9.0970    10.8170    24.4860   -27.2360     2.2230 
   70.2500    70.1200     1.9020    -1.4960    52.5200    15.7260     9.7740    12.3520    24.4350   -27.4270     2.2560 
   70.3750    70.2440     1.9180    -1.5100    55.6750    15.7530     9.9930    13.4810    24.3530   -27.6000     2.2670 
   70.5000    70.3670     1.9340    -1.5230    56.4070    14.7690     9.6530    12.9100    24.3000   -27.7460     2.2390 
   70.6250    70.4900     1.9500    -1.5360    55.7600    13.2720     8.9210    11.9610    24.2860   -27.8400     2.1860 
   70.7500    70.6130     1.9660    -1.5500    54.9820    11.9910     8.1850    11.3960    24.2860   -27.8820     2.1480 
   70.8750    70.7360     1.9820    -1.5630    53.5260    11.2330     7.6400    11.0110    24.2860   -27.8850     2.1370 
   71.0000    70.8600     1.9980    -1.5760    52.8200    11.0540     7.3690    10.5120    24.2860   -27.8650     2.1450 
   71.1250    70.9830     2.0140    -1.5900    54.4210    11.3610     7.3840    10.2850    24.2860   -27.8340     2.1590 
   71.2500    71.1060     2.0300    -1.6030    55.6810    11.8270     7.5440    10.3670    24.2790   -27.7990     2.1680 
   71.3750    71.2290     2.0460    -1.6160    54.6270    12.2580     7.7510    10.6520    24.2590   -27.7670     2.1700 
   71.5000    71.3530     2.0620    -1.6300    53.3460    12.5380     7.9320    10.9420    24.2290   -27.7340     2.1750 
   71.6250    71.4760     2.0780    -1.6430    53.5370    12.6080     8.0380    11.1000    24.2150   -27.7060     2.1860 
   71.7500    71.5990     2.0940    -1.6560    54.0890    12.5420     8.0820    10.9710    24.2110   -27.6900     2.1910 
   71.8750    71.7220     2.1100    -1.6700    53.9860    12.4310     8.0910    10.6300    24.2110   -27.6800     2.1870 
   72.0000    71.8460     2.1260    -1.6830    53.4280    12.3730     8.1010    10.4180    24.2110   -27.6640     2.1790 
   72.1250    71.9690     2.1420    -1.6960    54.6840    12.4400     8.1460    10.4440    24.2110   -27.6160     2.1790 
   72.2500    72.0920     2.1580    -1.7100    56.4620    12.5720     8.2130    10.6630    24.2110   -27.5370     2.1860 
   72.3750    72.2150     2.1740    -1.7230    55.8630    12.6670     8.2690    10.8690    24.2110   -27.4300     2.1890 
   72.5000    72.3390     2.1900    -1.7370    54.0340    12.6190     8.2670    11.0270    24.2110   -27.3040     2.1850 
   72.6250    72.4620     2.2060    -1.7500    54.0170    12.3630     8.1640    10.9270    24.2110   -27.1610     2.1760 
   72.7500    72.5850     2.2220    -1.7630    55.4560    12.0040     7.9930    10.5790    24.2120   -27.0120     2.1710 
   72.8750    72.7080     2.2380    -1.7770    56.7130    11.6570     7.8030    10.1640    24.2130   -26.8680     2.1740 
   73.0000    72.8320     2.2540    -1.7900    58.1600    11.4160     7.6420     9.8230    24.2120   -26.7450     2.1800 
   73.1250    72.9550     2.2700    -1.8030    59.7150    11.3430     7.5590     9.9660    24.2120   -26.6680     2.1800 
   73.2500    73.0780     2.2860    -1.8170    59.5880    11.3920     7.5510    10.2850    24.2110   -26.6340     2.1690 
   73.3750    73.2010     2.3020    -1.8300    58.6240    11.5100     7.6040    10.5470    24.2180   -26.6450     2.1550 
   73.5000    73.3250     2.3180    -1.8430    60.1130    11.6430     7.6960    10.6900    24.2430   -26.7050     2.1440 
   73.6250    73.4480     2.3340    -1.8570    63.4650    11.7690     7.8150    10.7260    24.3040   -26.8060     2.1430 
   73.7500    73.5710     2.3500    -1.8700    64.2970    11.8970     7.9460    10.8010    24.3690   -26.9070     2.1470 
   73.8750    73.6940     2.3660    -1.8830    60.4940    12.0350     8.0770    10.8640    24.4120   -26.9780     2.1570 
   74.0000    73.8180     2.3820    -1.8970    55.2180    12.1630     8.1840    10.9480    24.4270   -27.0040     2.1720 
   74.1250    73.9410     2.3980    -1.9100    54.7780    12.2250     8.2270    11.4690    24.4180   -26.9910     2.1880 
   74.2500    74.0640     2.4140    -1.9230    57.5880    12.1870     8.2050    12.2360    24.3710   -26.9680     2.2000 
   74.3750    74.1870     2.4300    -1.9370    59.9840    12.0630     8.1350    11.9990    24.2870   -26.9500     2.2050 
   74.5000    74.3110     2.4460    -1.9500    60.5260    11.9180     8.0570    11.2680    24.2280   -26.9460     2.2030 
   74.6250    74.4340     2.4620    -1.9630    61.6000    11.8330     8.0180    10.9210    24.2110   -26.9660     2.1960 
   74.7500    74.5570     2.4780    -1.9770    62.8410    11.8160     8.0180    10.9780    24.2070   -27.0110     2.1890 
   74.8750    74.6800     2.4940    -1.9900    61.9090    11.8320     8.0400    11.0410    24.1920   -27.0940     2.1850 
   75.0000    74.8040     2.5100    -2.0040    59.1210    11.8230     8.0570    11.0350    24.1590   -27.2210     2.1880 
   75.1250    74.9270     2.5260    -2.0170    57.5940    11.7410     8.0410    11.0860    24.1420   -27.3760     2.1950 
   75.2500    75.0500     2.5430    -2.0300    57.7900    11.6200     7.9950    11.2470    24.1360   -27.5430     2.1970 
   75.3750    75.1730     2.5590    -2.0440    57.6880    11.5290     7.9460    11.5390    24.1360   -27.7150     2.1910 
   75.5000    75.2970     2.5750    -2.0570    57.9380    11.5270     7.9210    11.8740    24.1360   -27.8800     2.1810 
   75.6250    75.4200     2.5910    -2.0700    59.8740    11.6360     7.9410    12.0720    24.1360   -28.0420     2.1740 
   75.7500    75.5430     2.6070    -2.0840    61.9150    11.7860     7.9830    12.0740    24.1360   -28.2130     2.1690 
   75.8750    75.6660     2.6230    -2.0970    63.9960    11.9020     8.0160    12.1860    24.1360   -28.3840     2.1640 
   76.0000    75.7900     2.6390    -2.1100    65.9550    11.9200     8.0120    12.3070    24.1360   -28.5430     2.1610 
   76.1250    75.9130     2.6550    -2.1240    66.1710    11.8010     7.9530    12.5010    24.1360   -28.6800     2.1630 
   76.2500    76.0360     2.6710    -2.1370    61.7960    11.6120     7.8660    12.4020    24.1360   -28.7940     2.1640 
   76.3750    76.1590     2.6870    -2.1500    55.8330    11.4220     7.7790    12.0020    24.1360   -28.8880     2.1600 
   76.5000    76.2820     2.7030    -2.1640    52.7020    11.2880     7.7130    11.7260    24.1360   -28.9700     2.1520 
   76.6250    76.4060     2.7190    -2.1770    53.4870    11.2380     7.6810    11.6560    24.1360   -29.0450     2.1430 
   76.7500    76.5290     2.7350    -2.1900    55.2190    11.2390     7.6680    11.7780    24.1360   -29.1100     2.1370 
   76.8750    76.6520     2.7510    -2.2040    56.0800    11.2560     7.6570    11.9870    24.1360   -29.1670     2.1390 
   77.0000    76.7750     2.7670    -2.2170    55.9640    11.2570     7.6330    12.2520    24.1360   -29.2110     2.1470 
   77.1250    76.8990     2.7830    -2.2310    56.2840    11.2260     7.5900    12.5180    24.1360   -29.2470     2.1590 
   77.2500    77.0220     2.7990    -2.2440    56.9250    11.1760     7.5400    12.6470    24.1360   -29.2660     2.1660 
   77.3750    77.1450     2.8150    -2.2570    56.4290    11.1200     7.4970    12.4620    24.1360   -29.2640     2.1690 
   77.5000    77.2680     2.8310    -2.2710    53.4840    11.0720     7.4660    12.2590    24.1360   -29.2470     2.1740 
   77.6250    77.3920     2.8470    -2.2840    49.9390    11.0530     7.4490    12.2560    24.1360   -29.2040     2.1790 
