~V
VERS. 2.00: Ver 2.00
~W
STRT.M 20.0000:
STOP.M 292.0000:
STEP.M 0.1250:
NULL. -999.2500:
UWI. FD11146:
~C
DEPT.M :
TVD. :
DX. :
DY. :
GR.API :
RML.OHMM :
RI. :
RXO.OHMM :
CALI.CM :
SP.MV :
DEN.GM/CC :
~A
# ...
  193.2500   188.0890    26.2840   -24.9560    55.8450   147.3870   137.2990    10.1340    23.5070   -28.8130     2.2430 
  193.3750   188.2060    26.3170   -24.9860    57.2620   145.7530   135.6410    10.1400    23.5070   -29.2110     2.2340 
  193.5000   188.3230    26.3490   -25.0150    59.7710   144.2290   133.9930     9.9180    23.5070   -29.7010     2.2290 
  193.6250   188.4400    26.3820   -25.0450    60.4650   144.3200   133.5600     9.5100    23.5070   -30.2320     2.2270 
  193.7500   188.5570    26.4150   -25.0750    58.5480   147.2510   135.4580     9.2130    23.5070   -30.7290     2.2250 
  193.8750   188.6740    26.4480   -25.1040    55.6870   153.9850   140.6010     9.1200    23.5070   -31.1400     2.2230 
  194.0000   188.7910    26.4800   -25.1340    53.0380   164.9700   149.4540     9.2800    23.5070   -31.4220     2.2230 
  194.1250   188.9080    26.5130   -25.1630    50.8150   180.3240   162.1860     9.5580    23.5070   -31.5700     2.2260 
  194.2500   189.0240    26.5460   -25.1930    49.4570   197.5880   176.6730     9.6900    23.5070   -31.6480     2.2300 
  194.3750   189.1410    26.5780   -25.2220    50.0850   214.1100   190.6500     9.7480    23.5070   -31.6570     2.2320 
  194.5000   189.2580    26.6110   -25.2520    52.4610   226.9970   201.6650     9.8380    23.5070   -31.5930     2.2350 
  194.6250   189.3750    26.6440   -25.2810    53.1030   233.1380   207.0970     9.8720    23.5070   -31.4890     2.2360 
  194.7500   189.4920    26.6760   -25.3110    51.7950   234.0340   208.0810     9.8680    23.5070   -31.4010     2.2320 
  194.8750   189.6090    26.7090   -25.3400    50.1530   232.8540   207.1060    10.0030    23.5070   -31.3210     2.2230 
  195.0000   189.7260    26.7420   -25.3700    49.8110   233.9450   207.7880    10.2350    23.5070   -31.2690     2.2110 
  195.1250   189.8430    26.7750   -25.4000    49.4180   242.9640   215.1230    10.4080    23.5000   -31.2450     2.1960 
  195.2500   189.9600    26.8070   -25.4290    47.8320   262.2670   231.4860    10.6310    23.4800   -31.2080     2.1780 
  195.3750   190.0770    26.8400   -25.4590    46.3510   293.1290   258.2910    10.8370    23.4540   -31.1670     2.1620 
  195.5000   190.1940    26.8730   -25.4880    45.0420   332.1440   292.9830    11.0740    23.4400   -31.1530     2.1500 
  195.6250   190.3110    26.9050   -25.5180    43.3830   364.4410   324.4190    11.4520    23.4380   -31.1520     2.1490 
  195.7500   190.4280    26.9380   -25.5470    42.2050   375.4240   340.3830    12.0040    23.4370   -31.1560     2.1550 
  195.8750   190.5450    26.9710   -25.5770    42.2390   362.5530   337.6590    12.5890    23.4360   -31.1840     2.1690 
  196.0000   190.6620    27.0030   -25.6060    43.2750   325.6190   316.3280    13.0090    23.4370   -31.1960     2.1900 
  196.1250   190.7790    27.0360   -25.6360    44.8100   260.8430   270.6730    13.0050    23.4370   -31.1750     2.2140 
  196.2500   190.8960    27.0690   -25.6650    46.4400   188.2090   209.7480    12.9150    23.4350   -31.1170     2.2360 
  196.3750   191.0130    27.1020   -25.6950    48.7440   127.1600   148.5870    13.3530    23.4350   -31.0220     2.2560 
  196.5000   191.1300    27.1340   -25.7250    53.0120    85.8910   100.4880    14.0510    23.4360   -30.8910     2.2750 
  196.6250   191.2470    27.1670   -25.7540    59.4890    64.6380    72.6590    13.5940    23.4370   -30.7480     2.2940 
  196.7500   191.3640    27.2000   -25.7840    63.5220    55.0530    59.0620    12.0570    23.4370   -30.6070     2.3020 
  196.8750   191.4810    27.2320   -25.8130    61.4950    53.2420    55.1880    11.3070    23.4350   -30.4710     2.2920 
  197.0000   191.5980    27.2650   -25.8430    56.0620    56.6480    57.4160    12.3520    23.4340   -30.3720     2.2700 
  197.1250   191.7150    27.2980   -25.8720    54.1900    63.9420    64.0700    13.2430    23.4340   -30.3360     2.2580 
  197.2500   191.8320    27.3300   -25.9020    56.4920    72.5710    72.6020    13.4400    23.4330   -30.3510     2.2590 
  197.3750   191.9490    27.3630   -25.9310    59.3130    80.5190    80.9000    13.6800    23.4320   -30.4070     2.2620 
  197.5000   192.0660    27.3960   -25.9610    58.0990    86.4510    87.3300    14.3140    23.4320   -30.5190     2.2630 
  197.6250   192.1830    27.4290   -25.9900    54.0080    90.1080    91.3270    15.0090    23.4320   -30.7050     2.2630 
  197.7500   192.3000    27.4610   -26.0200    51.9490    92.4600    93.8730    15.7210    23.4320   -30.9060     2.2610 
  197.8750   192.4170    27.4940   -26.0500    51.9430    93.6560    95.2300    16.2100    23.4320   -31.1170     2.2540 
  198.0000   192.5340    27.5270   -26.0790    51.6510    93.8740    95.5890    16.5340    23.4320   -31.3300     2.2440 
  198.1250   192.6510    27.5590   -26.1090    51.0790    93.8160    95.4460    17.1130    23.4320   -31.5150     2.2380 
  198.2500   192.7680    27.5920   -26.1380    53.3010    94.5470    95.7100    18.0310    23.4320   -31.6660     2.2370 
  198.3750   192.8850    27.6250   -26.1670    57.1010    96.7040    97.0040    18.2160    23.4320   -31.7810     2.2360 
  198.5000   193.0020    27.6570   -26.1960    58.2410   100.2530    99.4820    17.6880    23.4320   -31.8130     2.2350 
  198.6250   193.1190    27.6900   -26.2250    56.3210   103.8810   102.3070    17.3420    23.4320   -31.7450     2.2350 
  198.7500   193.2360    27.7220   -26.2540    55.9840   104.8010   103.1800    17.3010    23.4320   -31.6450     2.2380 
  198.8750   193.3540    27.7550   -26.2830    57.7560   100.3670    99.6580    17.8330    23.4320   -31.5210     2.2450 
  199.0000   193.4710    27.7880   -26.3120    58.1940    89.8980    90.6400    18.8320    23.4320   -31.3850     2.2620 
  199.1250   193.5880    27.8200   -26.3400    56.7280    75.6830    77.4890    19.2740    23.4320   -31.2850     2.2880 
  199.2500   193.7050    27.8530   -26.3690    58.7810    62.4870    64.6460    18.4770    23.4320   -31.2690     2.3100 
  199.3750   193.8220    27.8850   -26.3980    64.5320    52.8390    54.7980    17.2470    23.4320   -31.3500     2.3180 
  199.5000   193.9390    27.9180   -26.4270    68.3620    47.6670    49.0710    16.6200    23.4320   -31.5440     2.3150 
  199.6250   194.0560    27.9500   -26.4560    66.3610    47.6790    48.2600    16.6820    23.4320   -31.8430     2.3100 
  199.7500   194.1740    27.9830   -26.4850    61.8260    51.8070    51.5160    16.7910    23.4320   -32.1880     2.3000 
  199.8750   194.2910    28.0160   -26.5140    57.6530    59.6130    58.6800    16.9710    23.4320   -32.5600     2.2820 
  200.0000   194.4080    28.0480   -26.5430    55.9690    70.2140    69.1630    17.3920    23.4320   -32.9600     2.2590 
  200.1250   194.5250    28.0810   -26.5720    54.9760    81.5850    81.2030    17.4090    23.4320   -33.3340     2.2390 
  200.2500   194.6420    28.1130   -26.6010    52.7250    90.4900    91.3480    17.2520    23.4320   -33.6190     2.2240 
  200.3750   194.7590    28.1460   -26.6300    50.4590    94.6430    97.0280    17.1670    23.4330   -33.8360     2.2140 
  200.5000   194.8770    28.1790   -26.6590    51.2630    93.5030    97.2910    18.1330    23.4500   -33.9980     2.2130 
  200.6250   194.9940    28.2110   -26.6880    55.5640    87.6480    92.2710    19.7250    23.5080   -34.1040     2.2230 
  200.7500   195.1110    28.2440   -26.7160    58.2310    79.3620    84.2730    20.5290    23.5940   -34.1720     2.2380 
  200.8750   195.2280    28.2760   -26.7450    58.0060    69.8920    74.6420    20.6070    23.6440   -34.2110     2.2520 
  201.0000   195.3450    28.3090   -26.7740    56.2700    60.4850    64.7350    20.9820    23.6570   -34.2170     2.2630 
  201.1250   195.4620    28.3410   -26.8030    55.3830    52.7740    56.2770    20.1620    23.6570   -34.2250     2.2750 
  201.2500   195.5800    28.3740   -26.8320    56.0750    47.6410    50.2770    18.8300    23.6570   -34.2690     2.2880 
  201.3750   195.6970    28.4070   -26.8610    56.1670    45.6640    47.3500    18.8320    23.6570   -34.3140     2.2950 
