~V
VERS. 2.00: Ver 2.00
~W
STRT.M 45.0000:
STOP.M 272.0000:
STEP.M 0.1250:
NULL. -999.2500:
UWI. FD11191:
~C
DEPT.M :
TVD. :
DX. :
DY. :
SP.MV :
GR.API :
RI. :
RML.OHMM :
RXO.OHMM :
DEN.GM/CC :
~A
# ...
  264.0000   254.4630   -53.1320     2.7530   -27.1810    71.0080     2.9310     3.5560     3.2110     2.2940 
  264.1250   254.5780   -53.1830     2.7570   -27.1810    71.0080     2.9260     3.5400     3.2270     2.2870 
  264.2500   254.6920   -53.2330     2.7610   -27.1810    71.0080     2.9400     3.5170     3.2450     2.2880 
  264.3750   254.8060   -53.2830     2.7660   -27.1810    71.0080     2.9400     3.5290     3.2630     2.2920 
  264.5000   254.9210   -53.3340     2.7700   -27.1810    71.0080     2.9370     3.5470     3.3240     2.2920 
  264.6250   255.0350   -53.3840     2.7740   -27.1810    71.0080     2.9370     3.5470     3.3890     2.2870 
  264.7500   255.1490   -53.4340     2.7780   -27.1810    71.0080     2.9370     3.5470     3.3570     2.2780 
  264.8750   255.2640   -53.4850     2.7830   -27.1810    71.0080     2.9370     3.5470     3.2780     2.2720 
  265.0000   255.3780   -53.5350     2.7870   -27.1810    71.0080     2.9370     3.5470     3.2700     2.2640 
  265.1250   255.4920   -53.5860     2.7910   -27.1810    71.0080     2.9370     3.5470     3.3200     2.2490 
  265.2500   255.6070   -53.6360     2.7950   -27.1810    71.0080     2.9370     3.5470     3.3570     2.2270 
  265.3750   255.7210   -53.6860     2.8000   -27.1810    71.0080     2.9370     3.5470     3.3630     2.2080 
  265.5000   255.8350   -53.7370     2.8040   -27.1810    71.0080     2.9370     3.5470     3.3500     2.2020 
  265.6250   255.9500   -53.7870     2.8080   -27.1810    71.0080     2.9370     3.5470     3.3550     2.2000 
  265.7500   256.0640   -53.8370     2.8120   -27.1810    71.0080     2.9370     3.5470     3.4050     2.1900 
  265.8750   256.1780   -53.8880     2.8170   -27.1810    71.0080     2.9370     3.5470     3.5050     2.1730 
  266.0000   256.2920   -53.9380     2.8210   -27.1810    71.0080     2.9370     3.5470     3.5870     2.1570 
  266.1250   256.4070   -53.9890     2.8250   -27.1810    71.0080     2.9370     3.5470     3.6110     2.1530 
  266.2500   256.5210   -54.0390     2.8290   -27.1810    71.0080     2.9370     3.5470     3.6160     2.1570 
  266.3750   256.6350   -54.0890     2.8340   -27.1810    71.0080     2.9370     3.5470     3.6200     2.1650 
  266.5000   256.7500   -54.1400     2.8380   -27.1810    71.0080     2.9370     3.5470     3.6180     2.1720 
  266.6250   256.8640   -54.1900     2.8420   -27.1810    71.0080     2.9370     3.5470     3.6170     2.1750 
  266.7500   256.9780   -54.2400     2.8460   -27.1810    71.0080     2.9370     3.5470     3.6170     2.1740 
  266.8750   257.0930   -54.2910     2.8510   -27.1810    71.0080     2.9370     3.5470     3.6170     2.1650 
  267.0000   257.2070   -54.3410     2.8550   -27.1810    71.0080     2.9370     3.5470     3.6160     2.1560 
  267.1250   257.3210   -54.3910     2.8590   -27.1810    71.0080     2.9370     3.5470     3.6150     2.1530 
  267.2500   257.4360   -54.4420     2.8630   -27.1810    71.0080     2.9370     3.5470     3.6140     2.1570 
  267.3750   257.5500   -54.4920     2.8680   -27.1810    71.0080     2.9370     3.5470     3.6140     2.1620 
  267.5000   257.6640   -54.5430     2.8720   -27.1810    71.0080     2.9370     3.5470     3.6130     2.1600 
  267.6250   257.7790   -54.5930     2.8760   -27.1810    71.0080     2.9370     3.5470     3.6230     2.1570 
  267.7500   257.8930   -54.6430     2.8800   -27.1810    71.0080     2.9370     3.5470     3.6580     2.1590 
  267.8750   258.0070   -54.6940     2.8850   -27.1810    71.0080     2.9370     3.5470     3.6820     2.1640 
  268.0000   258.1220   -54.7440     2.8890   -27.1810    71.0080     2.9370     3.5470     3.6460     2.1600 
  268.1250   258.2360   -54.7940     2.8930   -27.1810    71.0080     2.9370     3.5470     3.6290     2.1690 
  268.2500   258.3500   -54.8450     2.8970   -27.1810    71.0080     2.9370     3.5470     3.6300     2.2030 
  268.3750   258.4650   -54.8950     2.9020   -27.1810    71.0080     2.9370     3.5470     3.5130     2.2220 
  268.5000   258.5790   -54.9460     2.9060   -27.1810    71.0080     2.9370     3.5470     3.5110     2.2040 
  268.6250   258.6930   -54.9960     2.9100   -27.1810    71.0080     2.9370     3.5470     3.8710     2.1780 
  268.7500   258.8080   -55.0460     2.9140   -27.1810    71.0080     2.9370     3.5470     4.1170     2.1750 
  268.8750   258.9220   -55.0970     2.9190   -27.1810    71.0080     2.9370     3.5470     3.9030     2.1290 
  269.0000   259.0360   -55.1470     2.9230   -27.1810    71.0080     2.9370     3.5470     3.6360     1.9890 
  269.1250   259.1510   -55.1970     2.9270   -27.1810    71.0080     2.9370     3.5470     3.6510     1.8200 
  269.2500   259.2650   -55.2480     2.9310   -27.1810    71.0080     2.9370     3.5470     3.7480     1.7190 
  269.3750   259.3790   -55.2980     2.9360   -27.1810    71.0080     2.9370     3.5470     3.6010     1.7010 
  269.5000   259.4930   -55.3490     2.9400   -27.1810    71.0080     2.9370     3.5470     3.4050     1.7050 
  269.6250   259.6080   -55.3990     2.9440   -27.1810    71.0080     2.9370     3.5470     3.3470     1.7070 
  269.7500   259.7220   -55.4490     2.9480   -27.1810    71.0080     2.9370     3.5470     3.4290     1.7130 
  269.8750   259.8360   -55.5000     2.9530   -27.1810    71.0080     2.9370     3.5470     3.8610     1.7160 
  270.0000   259.9510   -55.5500     2.9570   -27.1810    71.0080     2.9370     3.5470     4.1260     1.7160 
  270.1250   260.0650   -55.6000     2.9610   -27.1810    71.0080     2.9370     3.5470     3.8120     1.7160 
  270.2500   260.1790   -55.6510     2.9650   -27.1810    71.0080     2.9370     3.5470     3.5760     1.7160 
  270.3750   260.2940   -55.7010     2.9700   -27.1810    71.0080     2.9370     3.5470     3.7080     1.7160 
  270.5000   260.4080   -55.7520     2.9740   -27.1810    71.0080     2.9370     3.5470     3.9680     1.7160 
  270.6250   260.5220   -55.8020     2.9780   -27.1810    71.0080     2.9370     3.5470     4.1060     1.7160 
  270.7500   260.6370   -55.8520     2.9820   -27.1810    71.0080     2.9370     3.5470     3.9200     1.7160 
  270.8750   260.7510   -55.9030     2.9870   -27.1810    71.0080     2.9370     3.5470     3.7420     1.7160 
  271.0000   260.8650   -55.9530     2.9910   -27.1810    71.0080     2.9370     3.5470     3.8640     1.7160 
  271.1250   260.9800   -56.0030     2.9950   -27.1810    71.0080     2.9370     3.5470     3.8790     1.7160 
  271.2500   261.0940   -56.0540     2.9990   -27.1810    71.0080     2.9370     3.5470     3.7410     1.7160 
  271.3750   261.2080   -56.1040     3.0040   -27.1810    71.0080     2.9370     3.5470     3.7350     1.7160 
  271.5000   261.3230   -56.1550     3.0080   -27.1810    71.0080     2.9370     3.5470     3.8570     1.7160 
  271.6250   261.4370   -56.2050     3.0120   -27.1810    71.0080     2.9370     3.5470     3.9430     1.7160 
  271.7500   261.5510   -56.2550     3.0160   -27.1810    71.0080     2.9370     3.5470     3.7800     1.7160 
  271.8750   261.6660   -56.3060     3.0210   -27.1810    71.0080     2.9370     3.5470     3.5970     1.7160 
  272.0000   261.7800   -56.3560     3.0250   -27.1810    71.0080     2.9370     3.5470     3.5790     1.7160 
