~V
VERS. 2.00: Ver 2.00
~W
STRT.M 50.0000:
STOP.M 268.0000:
STEP.M 0.1250:
NULL. -999.2500:
UWI. FD11187:
~C
DEPT.M :
TVD. :
DX. :
DY. :
SP.MV :
GR.API :
RI. :
RML.OHMM :
RXO.OHMM :
DEN.GM/CC :
~A
# ...
  104.7500   104.6070     2.6030    -1.1750   -28.7570    54.4510     5.1980     6.0310     1.9650     2.1100 
  104.8750   104.7310     2.6200    -1.1800   -28.8400    54.9760     5.2400     6.0690     2.1230     2.1180 
  105.0000   104.8550     2.6360    -1.1850   -28.8930    56.0600     5.2670     6.0900     2.2670     2.1220 
  105.1250   104.9790     2.6520    -1.1900   -28.9490    55.7310     5.3230     6.1300     2.3610     2.1270 
  105.2500   105.1020     2.6690    -1.1960   -28.9590    54.7730     5.3540     6.1490     2.3820     2.1300 
  105.3750   105.2260     2.6850    -1.2010   -28.9160    54.3510     5.3870     6.1620     2.3420     2.1290 
  105.5000   105.3500     2.7010    -1.2060   -28.8480    54.4470     5.4010     6.1640     2.1640     2.1240 
  105.6250   105.4740     2.7180    -1.2120   -28.6920    53.7880     5.3930     6.1210     1.9190     2.1130 
  105.7500   105.5980     2.7340    -1.2170   -28.5590    53.6550     5.3710     6.0780     2.0230     2.1110 
  105.8750   105.7210     2.7500    -1.2220   -28.3170    54.6650     5.3430     6.0360     2.1280     2.1200 
  106.0000   105.8450     2.7660    -1.2280   -28.1270    55.6100     5.3410     6.0330     2.0530     2.1250 
  106.1250   105.9690     2.7830    -1.2330   -27.8020    57.6910     5.5100     6.2960     1.9920     2.1380 
  106.2500   106.0930     2.7990    -1.2390   -27.5580    60.6200     5.8260     6.7520     1.9750     2.1730 
  106.3750   106.2170     2.8160    -1.2440   -27.1570    64.8220     6.2670     7.3460     1.9550     2.2880 
  106.5000   106.3400     2.8320    -1.2490   -26.8720    65.3160     6.2770     7.3630     1.9480     2.3810 
  106.6250   106.4640     2.8480    -1.2550   -26.4410    64.4950     5.7770     6.6800     1.8030     2.4340 
  106.7500   106.5880     2.8650    -1.2600   -26.1710    65.4730     5.1200     5.7890     1.5280     2.3830 
  106.8750   106.7120     2.8820    -1.2650   -25.8300    70.5740     4.0600     4.4290     1.1550     2.2670 
  107.0000   106.8360     2.8980    -1.2710   -25.6690    73.4770     3.5060     3.7550     1.0860     2.2260 
  107.1250   106.9590     2.9150    -1.2760   -25.5560    75.6990     2.9470     3.1230     1.0670     2.2310 
  107.2500   107.0830     2.9310    -1.2810   -25.5770    75.6640     2.8010     2.9940     1.0460     2.2420 
  107.3750   107.2070     2.9480    -1.2870   -25.7510    74.5000     2.8620     3.1070     1.2070     2.2280 
  107.5000   107.3310     2.9650    -1.2920   -25.9480    74.3790     2.9640     3.2380     1.6300     2.2070 
  107.6250   107.4540     2.9810    -1.2980   -26.3260    74.5090     3.1720     3.4770     2.7840     2.1870 
  107.7500   107.5780     2.9980    -1.3030   -26.6070    74.1880     3.3480     3.6730     3.2680     2.1840 
  107.8750   107.7020     3.0140    -1.3080   -27.0340    72.8720     3.6970     4.0590     3.2180     2.1700 
  108.0000   107.8260     3.0310    -1.3140   -27.3060    70.7130     3.9620     4.3580     3.7410     2.1500 
  108.1250   107.9500     3.0480    -1.3190   -27.6780    66.6400     4.3590     4.8110     5.2630     2.1230 
  108.2500   108.0730     3.0640    -1.3240   -27.8950    63.5450     4.6220     5.1040     5.7240     2.1160 
  108.3750   108.1970     3.0810    -1.3300   -28.1730    61.7390     5.1620     5.7230     5.6270     2.1620 
  108.5000   108.3210     3.0980    -1.3350   -28.3240    61.5130     5.5920     6.2250     6.1220     2.2460 
  108.6250   108.4450     3.1140    -1.3410   -28.5010    59.8700     6.2850     7.0940    11.6800     2.3840 
  108.7500   108.5680     3.1310    -1.3460   -28.5820    57.7320     6.8910     7.8870    17.8620     2.4230 
  108.8750   108.6920     3.1480    -1.3520   -28.6410    56.7100     7.5920     8.7740    22.6490     2.4030 
  109.0000   108.8160     3.1640    -1.3570   -28.6300    58.1690     7.7410     8.9380    21.5200     2.3710 
  109.1250   108.9400     3.1810    -1.3620   -28.5340    60.1720     7.3700     8.4610    17.4580     2.3060 
  109.2500   109.0630     3.1970    -1.3680   -28.4220    60.8580     6.8060     7.7830    13.9220     2.2430 
  109.3750   109.1870     3.2140    -1.3730   -28.2110    62.4670     5.9920     6.8570     8.5010     2.1560 
  109.5000   109.3110     3.2310    -1.3790   -28.0610    64.2090     5.6330     6.4750     6.8870     2.1200 
  109.6250   109.4350     3.2470    -1.3840   -27.8610    64.4220     5.2670     6.0650     6.8260     2.0970 
  109.7500   109.5590     3.2640    -1.3890   -27.7570    62.2410     5.0790     5.8570     6.8220     2.0980 
  109.8750   109.6820     3.2800    -1.3950   -27.6540    57.2680     4.9250     5.6870     6.2450     2.1210 
  110.0000   109.8060     3.2970    -1.4000   -27.6170    55.2900     4.8880     5.6320     5.6730     2.1310 
  110.1250   109.9300     3.3140    -1.4060   -27.5920    56.0990     4.9700     5.7270     5.4310     2.1530 
  110.2500   110.0540     3.3300    -1.4110   -27.5890    57.7700     5.1480     5.9390     5.5910     2.2090 
  110.3750   110.1770     3.3470    -1.4170   -27.5950    58.1610     5.5290     6.3920     5.8220     2.3460 
  110.5000   110.3010     3.3640    -1.4220   -27.6030    57.6470     5.8000     6.7060     6.0400     2.3930 
  110.6250   110.4250     3.3810    -1.4280   -27.6200    56.8570     6.1200     7.0400     6.5430     2.3260 
  110.7500   110.5490     3.3980    -1.4330   -27.6400    57.1960     6.2000     7.0670     7.2050     2.2430 
  110.8750   110.6720     3.4140    -1.4390   -27.6530    57.6350     6.1380     6.9650     7.0960     2.1710 
  111.0000   110.7960     3.4310    -1.4440   -27.6520    58.1320     6.0610     6.8760     6.6990     2.1630 
  111.1250   110.9200     3.4480    -1.4500   -27.6280    59.5900     5.8860     6.6990     6.5070     2.1560 
  111.2500   111.0440     3.4650    -1.4550   -27.5950    60.8500     5.7180     6.5220     6.7270     2.1490 
  111.3750   111.1670     3.4820    -1.4610   -27.5190    63.2320     5.3770     6.1320     6.7900     2.1420 
  111.5000   111.2910     3.4990    -1.4660   -27.4530    65.3550     5.1140     5.8260     6.1470     2.1320 
  111.6250   111.4150     3.5160    -1.4720   -27.3420    66.9750     4.7920     5.4760     4.8610     2.1040 
  111.7500   111.5380     3.5330    -1.4780   -27.2730    65.6390     4.6770     5.3640     4.7330     2.0890 
  111.8750   111.6620     3.5510    -1.4830   -27.2060    60.2170     4.6230     5.3320     5.4460     2.0910 
  112.0000   111.7860     3.5680    -1.4890   -27.1970    57.0640     4.6480     5.3690     5.5440     2.1000 
  112.1250   111.9090     3.5850    -1.4940   -27.2320    55.4840     4.7530     5.4770     4.9580     2.0970 
  112.2500   112.0330     3.6020    -1.5000   -27.2770    56.7120     4.8580     5.5750     4.8140     2.0920 
  112.3750   112.1570     3.6190    -1.5050   -27.3530    58.7880     4.9940     5.7050     5.2520     2.1080 
  112.5000   112.2810     3.6360    -1.5110   -27.4000    60.2090     5.0760     5.7920     5.6590     2.1290 
  112.6250   112.4040     3.6530    -1.5160   -27.4580    63.0270     5.1530     5.8850     6.1470     2.1410 
  112.7500   112.5280     3.6710    -1.5220   -27.4870    64.7630     5.1490     5.8750     6.2320     2.1310 
  112.8750   112.6520     3.6880    -1.5270   -27.5090    63.5670     5.0280     5.7220     6.1980     2.1080 
  113.0000   112.7750     3.7050    -1.5330   -27.5060    61.7770     4.8760     5.5560     6.2740     2.1010 
  113.1250   112.8990     3.7220    -1.5380   -27.4760    61.3010     4.6170     5.2690     5.8670     2.1000 
  113.2500   113.0230     3.7390    -1.5440   -27.4440    62.3860     4.4660     5.1090     5.2300     2.0990 
  113.3750   113.1460     3.7570    -1.5490   -27.3890    61.5740     4.3260     4.9670     4.7900     2.0920 
  113.5000   113.2700     3.7740    -1.5550   -27.3530    60.6940     4.2810     4.9240     4.8060     2.0870 
  113.6250   113.3940     3.7910    -1.5600   -27.3090    61.2270     4.2740     4.9470     5.0820     2.0880 
  113.7500   113.5170     3.8080    -1.5660   -27.2970    61.7710     4.3150     5.0150     5.4340     2.0910 
