~V
VERS. 2.00: Ver 2.00
~W
STRT.M 50.0000:
STOP.M 286.0000:
STEP.M 0.1250:
NULL. -999.2500:
UWI. FD11181:
~C
DEPT.M :
TVD. :
DX. :
DY. :
SP.MV :
GR.API :
RI. :
RML.OHMM :
RXO.OHMM :
DEN.GM/CC :
~A
# ...
   68.2500    68.2470    -0.3340     0.0870   -25.3130    50.0170     5.5160     6.7250     6.5390     2.1220 
   68.3750    68.3720    -0.3370     0.0880   -25.3040    50.0020     5.6690     6.9360     6.9490     2.1780 
   68.5000    68.4970    -0.3400     0.0890   -25.3730    50.2780     5.8390     7.1770     6.9740     2.2820 
   68.6250    68.6210    -0.3440     0.0900   -25.5290    50.0960     5.9750     7.3670     6.5830     2.3680 
   68.7500    68.7460    -0.3470     0.0920   -25.6540    50.4410     6.0410     7.4550     6.3470     2.3600 
   68.8750    68.8710    -0.3500     0.0930   -25.5520    51.1530     6.0360     7.4260     6.3330     2.2610 
   69.0000    68.9960    -0.3530     0.0940   -25.2870    50.6730     5.9600     7.3170     6.4110     2.1620 
   69.1250    69.1210    -0.3560     0.0950   -25.0080    50.1390     5.8570     7.1870     6.5700     2.1200 
   69.2500    69.2460    -0.3590     0.0960   -24.7500    50.1650     5.7550     7.0680     6.7090     2.1140 
   69.3750    69.3710    -0.3620     0.0970   -24.5070    49.2140     5.6360     6.9390     6.7000     2.1090 
   69.5000    69.4960    -0.3650     0.0980   -24.2880    46.9950     5.4970     6.7790     6.4290     2.1030 
   69.6250    69.6210    -0.3690     0.0990   -24.1650    45.3590     5.3560     6.6080     5.9830     2.1070 
   69.7500    69.7460    -0.3720     0.1000   -24.1340    47.1420     5.2480     6.4840     5.7870     2.1190 
   69.8750    69.8710    -0.3750     0.1010   -24.1170    49.9660     5.2150     6.4610     6.0060     2.1270 
   70.0000    69.9960    -0.3780     0.1020   -24.0760    51.6580     5.2580     6.5430     6.2550     2.1230 
   70.1250    70.1210    -0.3810     0.1040   -24.0360    52.7320     5.3630     6.6970     6.3170     2.1110 
   70.2500    70.2460    -0.3850     0.1050   -23.9660    53.6430     5.4570     6.8310     6.3740     2.0980 
   70.3750    70.3710    -0.3880     0.1060   -23.9160    53.7320     5.4580     6.8320     6.5650     2.0890 
   70.5000    70.4960    -0.3910     0.1070   -23.8470    52.9790     5.3360     6.6720     6.7630     2.0950 
   70.6250    70.6210    -0.3950     0.1080   -23.7050    53.8060     5.1370     6.4190     6.7390     2.1250 
   70.7500    70.7460    -0.3980     0.1090   -23.5670    56.1890     4.9670     6.2140     6.4660     2.1670 
   70.8750    70.8710    -0.4010     0.1100   -23.4380    59.6110     4.9150     6.1590     6.1810     2.1960 
   71.0000    70.9960    -0.4050     0.1120   -23.3390    63.6500     4.9550     6.2250     6.0500     2.1950 
   71.1250    71.1210    -0.4080     0.1130   -23.2930    66.6710     5.0280     6.3340     6.1800     2.1680 
   71.2500    71.2450    -0.4120     0.1140   -23.2430    65.8690     5.0960     6.4130     6.5650     2.1410 
   71.3750    71.3700    -0.4150     0.1150   -23.1970    61.5440     5.1360     6.4310     6.6390     2.1360 
   71.5000    71.4950    -0.4190     0.1160   -23.2080    58.2300     5.1940     6.4700     6.3020     2.1470 
   71.6250    71.6200    -0.4220     0.1180   -23.3010    59.7440     5.3570     6.6310     6.2150     2.1520 
   71.7500    71.7450    -0.4260     0.1190   -23.3940    64.3290     5.5850     6.9240     6.3110     2.1400 
   71.8750    71.8700    -0.4290     0.1200   -23.4290    68.1860     5.9020     7.3280     6.9140     2.1240 
   72.0000    71.9950    -0.4330     0.1210   -23.3790    67.7900     6.1890     7.6900     7.7140     2.1080 
   72.1250    72.1200    -0.4360     0.1230   -23.2430    63.9900     6.2790     7.7770     7.1770     2.0880 
   72.2500    72.2450    -0.4400     0.1240   -22.8830    59.1320     6.0790     7.5000     6.2230     2.0720 
   72.3750    72.3700    -0.4430     0.1250   -22.2230    55.9050     5.6270     6.9000     6.1000     2.0790 
   72.5000    72.4950    -0.4470     0.1260   -21.3060    56.1200     5.0530     6.1600     5.9380     2.1180 
   72.6250    72.6200    -0.4510     0.1280   -20.0790    60.9480     4.5060     5.4820     5.2030     2.1750 
   72.7500    72.7450    -0.4540     0.1290   -18.6160    69.0920     4.1530     5.0190     4.5960     2.2210 
   72.8750    72.8700    -0.4580     0.1300   -16.9280    77.4200     3.9810     4.8130     4.3950     2.2410 
   73.0000    72.9950    -0.4620     0.1310   -15.1730    83.7880     4.0020     4.8460     4.3110     2.2500 
   73.1250    73.1200    -0.4660     0.1330   -13.7430    87.4610     4.2280     5.0970     4.6550     2.2600 
   73.2500    73.2450    -0.4690     0.1340   -13.0770    88.6800     4.5380     5.4560     5.2540     2.2590 
   73.3750    73.3700    -0.4730     0.1350   -13.2070    86.2350     4.9050     5.8270     5.3590     2.2400 
   73.5000    73.4940    -0.4770     0.1370   -13.6720    82.4080     5.1810     6.0860     5.4100     2.2180 
   73.6250    73.6190    -0.4810     0.1380   -14.1800    80.9090     5.2870     6.1390     5.8100     2.2090 
   73.7500    73.7440    -0.4850     0.1390   -14.4110    80.2020     5.2120     5.9550     5.7070     2.2090 
   73.8750    73.8690    -0.4890     0.1410   -14.2000    78.7950     4.9180     5.5810     5.2020     2.2100 
   74.0000    73.9940    -0.4920     0.1420   -13.7990    76.7860     4.5520     5.1160     4.8160     2.2180 
   74.1250    74.1190    -0.4960     0.1430   -13.3140    77.7960     4.1290     4.5630     4.2720     2.2430 
   74.2500    74.2440    -0.5000     0.1450   -12.6860    81.3300     3.7440     4.0590     3.8970     2.2740 
   74.3750    74.3690    -0.5040     0.1460   -12.0460    86.6780     3.4620     3.7030     3.8510     2.2950 
   74.5000    74.4940    -0.5080     0.1470   -11.3190    91.9140     3.2450     3.4300     3.7540     2.3060 
   74.6250    74.6190    -0.5120     0.1490   -10.8200    94.0510     3.0900     3.2030     3.6220     2.3150 
   74.7500    74.7440    -0.5160     0.1500   -10.7280    92.6930     2.9990     3.0620     3.5740     2.3210 
   74.8750    74.8690    -0.5210     0.1520   -10.9780    90.8590     3.1330     3.1650     3.7780     2.3220 
   75.0000    74.9940    -0.5250     0.1530   -11.5060    90.4470     3.6540     3.7140     4.0950     2.3260 
   75.1250    75.1190    -0.5290     0.1550   -12.1590    90.4060     4.8290     5.4910     7.1220     2.3590 
   75.2500    75.2430    -0.5330     0.1560   -12.8920    87.2990     6.3810     7.8390    16.2010     2.4330 
   75.3750    75.3680    -0.5370     0.1570   -13.8680    81.4890     7.9190     9.5770    29.6470     2.5130 
   75.5000    75.4930    -0.5410     0.1590   -14.9630    75.2030     8.7190    10.3280    32.7200     2.5230 
   75.6250    75.6180    -0.5450     0.1610   -16.2330    71.1380     8.2980     9.6980    18.9850     2.4250 
   75.7500    75.7430    -0.5500     0.1620   -17.5290    68.2190     7.2200     8.2730     7.9240     2.2850 
   75.8750    75.8680    -0.5540     0.1640   -18.8030    64.8630     6.0430     6.8890     6.1160     2.1890 
   76.0000    75.9930    -0.5580     0.1650   -20.0810    62.0630     5.4140     6.1770     5.7670     2.1540 
   76.1250    76.1180    -0.5620     0.1670   -21.1470    61.0160     5.3180     6.1240     5.6950     2.1480 
   76.2500    76.2430    -0.5670     0.1680   -21.9080    60.0370     5.4220     6.2620     5.7100     2.1420 
   76.3750    76.3680    -0.5710     0.1700   -22.2190    58.3280     5.4610     6.2980     5.7360     2.1310 
   76.5000    76.4930    -0.5750     0.1710   -22.2050    59.7340     5.4030     6.1950     5.7900     2.1260 
   76.6250    76.6180    -0.5800     0.1730   -21.9660    64.5130     5.3240     6.0590     5.8770     2.1360 
   76.7500    76.7420    -0.5840     0.1750   -21.6380    69.0220     5.3170     5.9940     5.7990     2.1580 
   76.8750    76.8670    -0.5890     0.1760   -21.3530    71.5450     5.3620     6.0060     5.7970     2.1720 
   77.0000    76.9920    -0.5930     0.1780   -20.9790    73.3440     5.4230     6.0490     6.2360     2.1640 
   77.1250    77.1170    -0.5980     0.1790   -20.5920    72.7460     5.5030     6.0960     6.6430     2.1470 
   77.2500    77.2420    -0.6020     0.1810   -20.3440    69.5730     5.5670     6.1240     6.4070     2.1410 
