~V
VERS. 2.00: Ver 2.00
~W
STRT.M 10.0000:
STOP.M 230.0000:
STEP.M 0.1250:
NULL. -999.2500:
UWI. FD11119:
~C
DEPT.M :
TVD. :
DX. :
DY. :
SP.MV :
DEN.GM/CC :
GR.API :
RML.OHMM :
RI. :
RXO.OHMM :
CALI.CM :
~A
# ...
  183.2500   178.7590   -29.0140   -11.6740   -30.7450     2.1800    67.7640   230.9420   197.1300    22.8950    21.2700 
  183.3750   178.8760   -29.0540   -11.6910   -30.5690     2.1830    67.9970   226.8870   191.4810    22.6650    21.0840 
  183.5000   178.9930   -29.0940   -11.7080   -30.4060     2.1850    66.5130   226.3130   189.0490    20.2720    21.0260 
  183.6250   179.1110   -29.1330   -11.7260   -30.2820     2.1840    64.4530   232.0200   192.4490    17.8650    21.0200 
  183.7500   179.2280   -29.1730   -11.7430   -30.1580     2.1800    61.8400   243.5850   201.5080    17.4800    21.0200 
  183.8750   179.3450   -29.2130   -11.7600   -30.0210     2.1720    57.5930   258.7120   214.6490    18.6030    21.0200 
  184.0000   179.4620   -29.2530   -11.7770   -29.9110     2.1650    53.4190   272.2200   227.8960    20.8100    21.0170 
  184.1250   179.5790   -29.2930   -11.7950   -29.7960     2.1600    53.7730   275.1800   234.1420    22.0050    20.9820 
  184.2500   179.6970   -29.3320   -11.8120   -29.6850     2.1600    57.9800   265.2870   230.3330    21.2200    20.8440 
  184.3750   179.8140   -29.3720   -11.8290   -29.5960     2.1650    61.6840   245.4520   217.4400    18.8370    20.7320 
  184.5000   179.9310   -29.4120   -11.8460   -29.5190     2.1740    63.3010   221.8770   199.8110    16.8340    20.7120 
  184.6250   180.0480   -29.4520   -11.8640   -29.4430     2.1850    64.4240   196.6620   182.2760    16.0210    20.7120 
  184.7500   180.1660   -29.4910   -11.8810   -29.3880     2.1950    65.8980   183.4000   166.8800    15.6720    20.7120 
  184.8750   180.2830   -29.5310   -11.8980   -29.3880     2.2020    66.9370   173.7880   153.3170    15.7860    20.7120 
  185.0000   180.4000   -29.5710   -11.9150   -29.4090     2.2050    66.9740   159.8890   140.5310    16.6720    20.7120 
  185.1250   180.5170   -29.6110   -11.9330   -29.4420     2.2050    66.4290   146.9940   127.7280    17.1940    20.7120 
  185.2500   180.6350   -29.6510   -11.9500   -29.4820     2.2050    66.0180   136.8240   115.3020    16.7210    20.7120 
  185.3750   180.7520   -29.6900   -11.9670   -29.5210     2.2070    66.3680   123.6630   104.4780    15.9240    20.7120 
  185.5000   180.8690   -29.7300   -11.9840   -29.5420     2.2120    68.3110   114.5220    96.5950    15.2190    20.7120 
  185.6250   180.9860   -29.7700   -12.0020   -29.5680     2.2220    69.4410   110.9310    93.2370    14.4960    20.7120 
  185.7500   181.1030   -29.8110   -12.0200   -29.6210     2.2310    67.9640   111.7390    93.7800    13.7090    20.7120 
  185.8750   181.2200   -29.8520   -12.0370   -29.6790     2.2360    64.7990   115.7640    97.4020    13.5090    20.7120 
  186.0000   181.3370   -29.8920   -12.0550   -29.7430     2.2330    62.2280   121.4140   102.8830    14.2910    20.7120 
  186.1250   181.4530   -29.9330   -12.0730   -29.8130     2.2240    60.9960   126.9450   108.9150    15.0740    20.7120 
  186.2500   181.5700   -29.9740   -12.0910   -29.9260     2.2120    60.4060   130.9220   114.1620    15.2540    20.7120 
  186.3750   181.6870   -30.0150   -12.1080   -30.0850     2.2020    60.9550   132.3040   117.5410    14.7540    20.7120 
  186.5000   181.8040   -30.0550   -12.1260   -30.2800     2.1950    62.5380   130.3560   118.1000    14.1240    20.7120 
  186.6250   181.9210   -30.0960   -12.1440   -30.5420     2.1920    63.2860   124.0920   114.5900    13.4090    20.7120 
  186.7500   182.0380   -30.1370   -12.1620   -30.8190     2.1910    64.5590   114.3320   107.4980    12.8320    20.7120 
  186.8750   182.1540   -30.1780   -12.1800   -31.1290     2.1940    67.4690   102.1650    97.5280    12.9090    20.7140 
  187.0000   182.2710   -30.2180   -12.1970   -31.4630     2.2020    71.3010    89.7680    86.3940    13.6010    20.7240 
  187.1250   182.3880   -30.2590   -12.2150   -31.8400     2.2120    73.3560    80.1900    76.7620    14.3620    20.7790 
  187.2500   182.5050   -30.3000   -12.2330   -32.2260     2.2220    73.9710    74.4130    70.0520    14.6380    20.7870 
  187.3750   182.6220   -30.3410   -12.2510   -32.6020     2.2280    72.8530    72.4730    66.6870    14.2090    20.7890 
  187.5000   182.7390   -30.3810   -12.2680   -32.9940     2.2300    68.7110    73.9540    66.6110    13.7700    20.7890 
  187.6250   182.8550   -30.4220   -12.2860   -33.3800     2.2300    64.2610    78.7460    69.9280    13.9200    20.7890 
  187.7500   182.9720   -30.4630   -12.3040   -33.7510     2.2330    63.3680    85.9250    75.5750    14.3750    20.7890 
  187.8750   183.0890   -30.5040   -12.3220   -34.1170     2.2380    65.7110    95.4400    83.2220    14.6260    20.7890 
  188.0000   183.2060   -30.5440   -12.3390   -34.5200     2.2430    67.4440   107.5610    92.9570    14.9420    20.7890 
  188.1250   183.3230   -30.5850   -12.3570   -34.9160     2.2450    65.9870   122.7990   105.2060    15.5480    20.7890 
  188.2500   183.4400   -30.6260   -12.3750   -35.3100     2.2400    62.7460   140.0620   119.0820    15.8400    20.7890 
  188.3750   183.5560   -30.6670   -12.3930   -35.7170     2.2300    59.6550   158.4110   133.7800    15.4110    20.7900 
  188.5000   183.6730   -30.7070   -12.4100   -36.1300     2.2170    58.5930   177.0040   148.5470    14.8070    20.7980 
  188.6250   183.7900   -30.7480   -12.4280   -36.5360     2.2070    60.3380   195.5850   163.0890    14.3470    20.7990 
  188.7500   183.9070   -30.7890   -12.4460   -36.9360     2.2000    63.1710   215.6530   178.5820    13.8600    20.7950 
  188.8750   184.0240   -30.8300   -12.4640   -37.3440     2.1950    63.1570   239.6010   196.9650    13.7990    20.7970 
  189.0000   184.1400   -30.8710   -12.4820   -37.7230     2.1900    59.4260   268.6280   219.3830    14.4530    20.7990 
  189.1250   184.2570   -30.9110   -12.4990   -38.1010     2.1810    55.0960   300.5130   244.6840    15.0170    20.7980 
  189.2500   184.3740   -30.9520   -12.5170   -38.4880     2.1680    53.8620   328.2200   268.0380    14.9600    20.8040 
  189.3750   184.4910   -30.9930   -12.5350   -38.8480     2.1530    55.2670   344.3250   283.9300    14.5510    20.8530 
  189.5000   184.6080   -31.0340   -12.5530   -39.1500     2.1410    56.5810   343.6910   287.5650    14.1720    20.9270 
  189.6250   184.7250   -31.0740   -12.5700   -39.3960     2.1360    56.7500   326.8570   277.0680    14.0880    20.9410 
  189.7500   184.8410   -31.1150   -12.5880   -39.5650     2.1390    56.2380   305.6730   260.6740    14.4590    20.9470 
  189.8750   184.9580   -31.1560   -12.6060   -39.6560     2.1470    54.8090   287.4710   244.7980    15.6540    20.9470 
  190.0000   185.0750   -31.1970   -12.6240   -39.6740     2.1580    52.2930   275.8720   233.5820    17.2300    20.9510 
  190.1250   185.1920   -31.2370   -12.6410   -39.5960     2.1680    51.0500   272.3390   229.3630    17.8580    20.9450 
  190.2500   185.3090   -31.2780   -12.6590   -39.4120     2.1730    52.4720   273.6690   229.8740    17.1470    20.9400 
  190.3750   185.4260   -31.3190   -12.6770   -39.1400     2.1750    55.3320   277.2720   233.0040    16.1230    20.9480 
  190.5000   185.5420   -31.3600   -12.6950   -38.8130     2.1750    57.1520   281.0120   236.8470    15.1090    20.9630 
  190.6250   185.6590   -31.4000   -12.7130   -38.3670     2.1740    58.5810   284.2610   240.4090    14.4860    21.0110 
  190.7500   185.7760   -31.4410   -12.7300   -37.8790     2.1740    60.6610   288.6700   244.4600    14.5290    21.0180 
  190.8750   185.8930   -31.4820   -12.7480   -37.3360     2.1730    60.0950   296.4000   250.6750    15.3510    21.0200 
  191.0000   186.0100   -31.5230   -12.7660   -36.7430     2.1720    56.3860   308.4980   260.2520    16.4730    21.0210 
  191.1250   186.1270   -31.5630   -12.7840   -36.1010     2.1710    53.3730   324.4740   273.4360    16.9730    21.0480 
  191.2500   186.2430   -31.6040   -12.8010   -35.4710     2.1700    52.9770   341.2110   288.0340    16.9560    21.1670 
  191.3750   186.3600   -31.6450   -12.8190   -34.8360     2.1670    53.8490   356.2430   302.0540    17.4610    21.3260 
