~V
VERS. 2.00: Ver 2.00
~W
STRT.M 44.0000:
STOP.M 275.0000:
STEP.M 0.1250:
NULL. -999.2500:
UWI. FD11190:
~C
DEPT.M :
TVD. :
DX. :
DY. :
SP.MV :
GR.API :
RI. :
RML.OHMM :
RXO.OHMM :
DEN.GM/CC :
~A
# ...
  135.2500   132.5490   -16.0220    -8.4450   -11.8740    59.9350     5.9770     6.7190     6.4240     2.1830 
  135.3750   132.6640   -16.0640    -8.4710   -11.7780    61.4390     5.7860     6.4390     6.3600     2.1820 
  135.5000   132.7780   -16.1070    -8.4960   -11.5660    65.2070     5.4390     5.9580     6.2540     2.1870 
  135.6250   132.8930   -16.1500    -8.5220   -11.2890    70.4250     4.8550     5.2700     5.8060     2.2060 
  135.7500   133.0080   -16.1930    -8.5480   -10.9370    75.0960     4.1950     4.5160     4.8130     2.2320 
  135.8750   133.1220   -16.2350    -8.5730   -10.4560    78.9040     3.5370     3.8690     3.7060     2.2530 
  136.0000   133.2370   -16.2780    -8.5990    -9.8700    82.2550     3.0740     3.4320     3.2540     2.2610 
  136.1250   133.3520   -16.3210    -8.6240    -9.2980    83.5790     2.8560     3.2710     3.4130     2.2600 
  136.2500   133.4660   -16.3640    -8.6500    -8.8440    84.2760     2.8380     3.3200     3.4750     2.2590 
  136.3750   133.5810   -16.4070    -8.6750    -8.5770    85.5260     2.9900     3.5150     3.4980     2.2510 
  136.5000   133.6960   -16.4500    -8.7000    -8.4720    87.4110     3.2060     3.7350     3.8530     2.2360 
  136.6250   133.8100   -16.4930    -8.7260    -8.4510    86.9170     3.3930     3.8840     4.2120     2.2300 
  136.7500   133.9250   -16.5360    -8.7510    -8.4740    83.5150     3.4870     3.9220     4.0320     2.2410 
  136.8750   134.0390   -16.5780    -8.7760    -8.5200    78.2590     3.4600     3.8400     3.4910     2.2490 
  137.0000   134.1540   -16.6210    -8.8020    -8.5090    75.9350     3.3570     3.6680     3.1810     2.2440 
  137.1250   134.2690   -16.6640    -8.8270    -8.2820    77.7720     3.1740     3.4420     3.1260     2.2360 
  137.2500   134.3830   -16.7070    -8.8520    -7.9950    80.8070     2.9590     3.2050     3.0930     2.2380 
  137.3750   134.4980   -16.7500    -8.8770    -7.7920    84.3470     2.7610     3.0040     3.0440     2.2500 
  137.5000   134.6130   -16.7930    -8.9020    -7.6360    88.1910     2.5930     2.8720     2.9240     2.2660 
  137.6250   134.7270   -16.8360    -8.9280    -7.5540    90.3560     2.5090     2.8570     2.7170     2.2790 
  137.7500   134.8420   -16.8790    -8.9530    -7.5840    91.4710     2.5400     2.9910     2.7230     2.2740 
  137.8750   134.9570   -16.9220    -8.9780    -7.8330    94.7170     2.7210     3.2910     3.2700     2.2450 
  138.0000   135.0710   -16.9650    -9.0040    -8.2660    97.6460     3.0320     3.6940     3.9530     2.2060 
  138.1250   135.1860   -17.0080    -9.0290    -8.9450    93.2760     3.3780     4.0870     4.2300     2.1800 
  138.2500   135.3000   -17.0510    -9.0550    -9.8210    82.2990     3.6690     4.3650     4.2360     2.1740 
  138.3750   135.4150   -17.0930    -9.0810   -10.6980    73.9620     3.8310     4.4990     4.2060     2.1830 
  138.5000   135.5300   -17.1360    -9.1060   -11.4090    74.5190     3.9180     4.5690     4.1830     2.1910 
  138.6250   135.6440   -17.1790    -9.1320   -11.8860    80.1110     4.0020     4.6940     4.3820     2.1870 
  138.7500   135.7590   -17.2220    -9.1580   -12.2610    81.0770     4.1770     4.9220     4.8150     2.1740 
  138.8750   135.8730   -17.2640    -9.1840   -12.6430    76.1690     4.4370     5.2420     5.1250     2.1550 
  139.0000   135.9880   -17.3070    -9.2100   -13.0290    71.0260     4.7340     5.5760     5.2640     2.1350 
  139.1250   136.1030   -17.3500    -9.2360   -13.4450    68.2250     5.0260     5.8490     5.4750     2.1250 
  139.2500   136.2170   -17.3920    -9.2620   -13.8580    66.2280     5.2260     6.0140     5.7360     2.1260 
  139.3750   136.3320   -17.4350    -9.2870   -14.3130    67.3460     5.3140     6.0480     5.8710     2.1320 
  139.5000   136.4460   -17.4780    -9.3130   -14.7340    69.8450     5.2870     5.9950     5.8690     2.1330 
  139.6250   136.5610   -17.5210    -9.3390   -14.9890    69.4960     5.2130     5.9020     5.7840     2.1310 
  139.7500   136.6760   -17.5630    -9.3650   -15.0500    67.2190     5.1310     5.8210     5.6200     2.1330 
  139.8750   136.7900   -17.6060    -9.3910   -14.9710    66.3280     5.0760     5.7790     5.4680     2.1370 
  140.0000   136.9050   -17.6490    -9.4160   -14.8480    66.9840     5.0590     5.7810     5.5070     2.1380 
  140.1250   137.0190   -17.6920    -9.4420   -14.6860    66.3350     5.0970     5.8200     5.7380     2.1360 
  140.2500   137.1340   -17.7350    -9.4670   -14.4730    64.2500     5.1630     5.8840     5.9870     2.1340 
  140.3750   137.2480   -17.7780    -9.4930   -14.2450    61.2850     5.2590     6.0070     6.1610     2.1320 
  140.5000   137.3630   -17.8210    -9.5180   -14.0710    59.7830     5.4290     6.3250     6.2090     2.1300 
  140.6250   137.4770   -17.8640    -9.5440   -13.9120    60.3860     5.8190     7.0300     6.1550     2.1520 
  140.7500   137.5920   -17.9070    -9.5690   -13.7330    60.5520     6.6500     7.9270     6.6340     2.2260 
  140.8750   137.7070   -17.9500    -9.5950   -13.4050    58.1420     7.4590     8.5040     9.0010     2.3470 
  141.0000   137.8210   -17.9930    -9.6210   -12.8770    57.0320     7.6190     8.2620    12.8070     2.4510 
  141.1250   137.9360   -18.0370    -9.6460   -12.1840    60.4510     6.8850     7.1290    14.7100     2.4720 
  141.2500   138.0500   -18.0800    -9.6710   -11.4330    66.8960     5.5280     5.6480    12.2910     2.4150 
  141.3750   138.1650   -18.1230    -9.6970   -10.8080    73.5380     4.2710     4.4460     7.3490     2.3260 
  141.5000   138.2790   -18.1660    -9.7220   -10.4140    76.8150     3.5070     3.8310     4.0930     2.2540 
  141.6250   138.3940   -18.2090    -9.7480   -10.3670    76.9230     3.2540     3.8350     3.9570     2.2120 
  141.7500   138.5080   -18.2520    -9.7740   -10.6120    76.1310     3.4170     4.2550     5.1680     2.1840 
  141.8750   138.6230   -18.2950    -9.7990   -11.1840    75.9030     3.9580     4.8540     6.0380     2.1610 
  142.0000   138.7370   -18.3380    -9.8250   -11.9590    73.2770     4.5640     5.3070     6.0990     2.1470 
  142.1250   138.8520   -18.3810    -9.8510   -12.6280    66.4870     4.9300     5.3740     5.7890     2.1460 
  142.2500   138.9660   -18.4240    -9.8760   -12.9440    61.1490     4.9000     5.0880     5.4890     2.1610 
  142.3750   139.0810   -18.4670    -9.9020   -12.8580    61.8230     4.5160     4.6220     5.0140     2.1940 
  142.5000   139.1950   -18.5100    -9.9280   -12.4670    68.2210     4.0900     4.2000     4.2950     2.2370 
  142.6250   139.3100   -18.5530    -9.9530   -11.8800    76.5230     3.7850     3.9220     3.9250     2.2930 
  142.7500   139.4240   -18.5960    -9.9790   -11.1360    82.5790     3.5820     3.7350     4.5610     2.3560 
  142.8750   139.5390   -18.6390   -10.0050   -10.3140    83.1480     3.4350     3.5450     5.5910     2.4010 
  143.0000   139.6530   -18.6820   -10.0310    -9.5470    80.6200     3.2160     3.2820     5.3690     2.4000 
  143.1250   139.7680   -18.7250   -10.0570    -8.9490    81.8760     2.9100     2.9380     3.8820     2.3640 
  143.2500   139.8820   -18.7680   -10.0820    -8.5000    88.5300     2.5620     2.5760     2.7360     2.3330 
  143.3750   139.9970   -18.8110   -10.1080    -8.2430    95.6210     2.2190     2.2830     2.3710     2.3300 
  143.5000   140.1110   -18.8540   -10.1340    -8.0640    98.4740     1.9770     2.1220     2.2460     2.3360 
  143.6250   140.2260   -18.8970   -10.1600    -8.0180    99.8140     1.9100     2.1260     2.1740     2.3280 
  143.7500   140.3400   -18.9400   -10.1860    -8.0690    99.7780     1.9780     2.2490     2.2530     2.3070 
  143.8750   140.4550   -18.9830   -10.2120    -8.2160    97.9150     2.1440     2.4550     2.6530     2.2920 
  144.0000   140.5690   -19.0260   -10.2380    -8.4400    93.4290     2.3700     2.6880     3.1850     2.2940 
  144.1250   140.6840   -19.0690   -10.2640    -8.8490    88.5710     2.6010     2.9040     3.4540     2.3000 
  144.2500   140.7980   -19.1120   -10.2900    -9.3910    85.5620     2.7910     3.0730     3.4020     2.2860 
