~V
VERS. 2.00: Ver 2.00
~W
STRT.M 56.0000:
STOP.M 276.0000:
STEP.M 0.1250:
NULL. -999.2500:
UWI. FD11178:
~C
DEPT.M :
TVD. :
DX. :
DY. :
SP.MV :
GR.API :
RI. :
RML.OHMM :
DEN.GM/CC :
RXO.OHMM :
~A
# ...
  138.1250   136.6850    -1.4700   -13.1730    -6.7700    97.7650     2.9100     3.2770     2.2440     3.0290 
  138.2500   136.8030    -1.4770   -13.2140    -6.8330   100.6360     2.6970     3.0400     2.2560     2.7670 
  138.3750   136.9210    -1.4840   -13.2540    -6.6240   100.6400     2.5870     2.9320     2.2640     2.6290 
  138.5000   137.0390    -1.4910   -13.2950    -6.5570    97.5370     2.6600     3.0440     2.2680     2.5140 
  138.6250   137.1570    -1.4980   -13.3350    -6.8980    94.6690     2.9540     3.4270     2.2510     2.4810 
  138.7500   137.2750    -1.5050   -13.3760    -7.5480    92.6250     3.4890     4.1140     2.2070     2.8190 
  138.8750   137.3930    -1.5120   -13.4160    -8.4920    88.9610     4.1960     4.9980     2.1510     3.7770 
  139.0000   137.5110    -1.5190   -13.4570    -9.6730    83.2100     4.9970     5.9480     2.1170     4.7250 
  139.1250   137.6290    -1.5260   -13.4980   -11.0500    78.3250     5.8000     6.8500     2.1170     5.2640 
  139.2500   137.7470    -1.5330   -13.5390   -12.3230    76.6860     6.6690     7.8020     2.1520     5.7110 
  139.3750   137.8650    -1.5400   -13.5790   -12.9030    77.0510     7.5260     8.7440     2.2380     6.0960 
  139.5000   137.9830    -1.5470   -13.6200   -13.0060    77.4140     8.3610     9.7130     2.3720     8.0000 
  139.6250   138.1000    -1.5540   -13.6610   -12.9470    76.3660     9.0320    10.5170     2.4770    17.2690 
  139.7500   138.2180    -1.5620   -13.7020   -12.8110    72.7790     9.3710    10.8970     2.4510    27.9340 
  139.8750   138.3360    -1.5690   -13.7430   -12.7560    67.8100     9.2210    10.6890     2.3030    27.5900 
  140.0000   138.4540    -1.5760   -13.7840   -12.8090    64.9390     8.6870    10.0400     2.1720    22.4040 
  140.1250   138.5720    -1.5830   -13.8240   -13.1110    66.0290     8.0040     9.2530     2.1400    17.2880 
  140.2500   138.6900    -1.5910   -13.8650   -13.4890    70.4110     7.3900     8.5890     2.1520    10.7330 
  140.3750   138.8080    -1.5980   -13.9060   -13.9130    75.4520     7.0830     8.2680     2.1490     6.9520 
  140.5000   138.9260    -1.6060   -13.9470   -14.3010    75.7610     6.9940     8.1900     2.1400     6.2810 
  140.6250   139.0440    -1.6130   -13.9880   -14.6490    70.4110     7.0340     8.2560     2.1340     5.9880 
  140.7500   139.1610    -1.6210   -14.0290   -14.9300    64.1140     7.1580     8.4190     2.1310     5.5380 
  140.8750   139.2790    -1.6280   -14.0700   -15.2290    61.2810     7.3450     8.6330     2.1230     5.6780 
  141.0000   139.3970    -1.6360   -14.1110   -15.5310    61.9940     7.4900     8.7430     2.1180     6.4300 
  141.1250   139.5150    -1.6430   -14.1520   -15.7460    63.8020     7.5620     8.7460     2.1310     7.0150 
  141.2500   139.6330    -1.6500   -14.1940   -15.8580    64.9710     7.5750     8.6590     2.1640     6.8690 
  141.3750   139.7510    -1.6570   -14.2350   -15.8610    66.2910     7.5490     8.5120     2.1960     6.5430 
  141.5000   139.8680    -1.6640   -14.2760   -15.6770    67.5740     7.5310     8.4200     2.1950     6.8700 
  141.6250   139.9860    -1.6720   -14.3170   -15.3710    67.0370     7.5490     8.4190     2.1650     7.2030 
  141.7500   140.1040    -1.6790   -14.3580   -15.0310    65.0240     7.6130     8.5360     2.1380     7.1170 
  141.8750   140.2220    -1.6860   -14.4000   -14.6470    64.1870     7.8280     8.9140     2.1290     7.1170 
  142.0000   140.3390    -1.6930   -14.4410   -14.2320    66.1640     8.0290     9.2230     2.1440     7.2250 
  142.1250   140.4570    -1.7000   -14.4820   -13.6740    66.2260     7.7030     8.8450     2.2020     7.3300 
  142.2500   140.5750    -1.7080   -14.5230   -13.0230    64.4890     6.9220     7.8650     2.3010     8.0720 
  142.3750   140.6930    -1.7150   -14.5650   -12.3460    64.9890     5.7840     6.4210     2.3830    10.0580 
  142.5000   140.8110    -1.7220   -14.6060   -11.6140    67.6550     4.7010     5.1140     2.3920     9.6420 
  142.6250   140.9280    -1.7290   -14.6470   -10.9000    71.7290     4.0530     4.3910     2.3310     5.4880 
  142.7500   141.0460    -1.7370   -14.6880   -10.2900    77.9010     3.8040     4.2230     2.2540     3.3890 
  142.8750   141.1640    -1.7450   -14.7290    -9.9040    84.5990     3.9660     4.5500     2.1900     3.8760 
  143.0000   141.2820    -1.7520   -14.7700    -9.8880    85.9120     4.3610     5.0750     2.1430     4.3030 
  143.1250   141.4000    -1.7600   -14.8110   -10.2110    81.4180     4.7030     5.4500     2.1290     4.9360 
  143.2500   141.5180    -1.7680   -14.8520   -10.6050    79.7420     4.8030     5.4540     2.1600     5.4560 
  143.3750   141.6350    -1.7750   -14.8930   -10.9540    82.8050     4.6090     5.1400     2.2090     5.3750 
  143.5000   141.7530    -1.7820   -14.9340   -11.2480    87.0570     4.3800     4.8370     2.2390     4.5130 
  143.6250   141.8710    -1.7900   -14.9750   -11.3260    89.3340     4.2800     4.7530     2.2330     3.8040 
  143.7500   141.9890    -1.7970   -15.0160   -11.3440    88.5580     4.4110     5.0030     2.2000     4.0260 
  143.8750   142.1070    -1.8050   -15.0570   -11.6770    83.9120     4.6910     5.4240     2.1590     4.6900 
  144.0000   142.2250    -1.8120   -15.0980   -12.3090    78.3940     4.8890     5.6990     2.1330     5.2670 
  144.1250   142.3420    -1.8200   -15.1390   -13.1150    74.1000     4.8620     5.6340     2.1390     5.3720 
  144.2500   142.4600    -1.8270   -15.1800   -13.7680    70.7390     4.5990     5.2480     2.1690     5.1160 
  144.3750   142.5780    -1.8340   -15.2210   -14.0660    70.3980     4.2980     4.8410     2.1980     4.7260 
  144.5000   142.6960    -1.8410   -15.2620   -14.0280    73.7750     4.1590     4.6990     2.2070     4.1220 
  144.6250   142.8140    -1.8490   -15.3030   -13.7760    78.2080     4.2420     4.8870     2.1970     3.8300 
  144.7500   142.9320    -1.8560   -15.3450   -13.6630    79.6940     4.5700     5.4090     2.2020     4.2760 
  144.8750   143.0490    -1.8630   -15.3860   -14.0000    77.4930     5.0510     6.0810     2.2590     4.7760 
  145.0000   143.1670    -1.8700   -15.4270   -14.6960    73.6610     5.5650     6.7550     2.3330     4.9010 
  145.1250   143.2850    -1.8780   -15.4680   -15.4860    69.2230     5.9340     7.1520     2.3310     5.2210 
  145.2500   143.4030    -1.8850   -15.5090   -16.1550    64.9120     6.0450     7.1760     2.2410     5.9800 
  145.3750   143.5210    -1.8920   -15.5500   -16.6820    63.2760     5.9460     6.9620     2.1390     6.5430 
  145.5000   143.6380    -1.9000   -15.5910   -17.2280    66.2660     5.7280     6.6740     2.0950     6.5170 
  145.6250   143.7560    -1.9070   -15.6330   -17.6990    71.5750     5.5390     6.4970     2.1010     6.2640 
  145.7500   143.8740    -1.9150   -15.6740   -17.9250    73.4340     5.4370     6.4230     2.1150     6.1140 
  145.8750   143.9920    -1.9230   -15.7150   -17.8720    71.7490     5.3890     6.3930     2.1190     6.0350 
  146.0000   144.1100    -1.9300   -15.7560   -17.5670    71.7700     5.3720     6.4150     2.1160     6.0130 
  146.1250   144.2270    -1.9380   -15.7970   -17.1700    73.9210     5.3560     6.4710     2.1150     6.0280 
  146.2500   144.3450    -1.9460   -15.8390   -16.7720    75.3750     5.2880     6.4540     2.1260     5.8920 
  146.3750   144.4630    -1.9530   -15.8800   -16.2980    75.6590     5.0940     6.1970     2.1360     5.4690 
  146.5000   144.5810    -1.9610   -15.9210   -15.6510    75.5980     4.7940     5.7780     2.1370     4.9730 
  146.6250   144.6980    -1.9690   -15.9620   -14.8400    77.8500     4.4260     5.2750     2.1400     4.5030 
  146.7500   144.8160    -1.9770   -16.0040   -13.9170    83.5650     4.0810     4.8420     2.1710     4.7130 
  146.8750   144.9340    -1.9850   -16.0450   -12.9730    91.3740     3.8160     4.5400     2.2280     5.7040 
  147.0000   145.0510    -1.9940   -16.0870   -12.1310    98.4920     3.6220     4.3360     2.2730     5.3410 
  147.1250   145.1690    -2.0020   -16.1280   -11.3170   100.8310     3.5240     4.2480     2.2710     3.6200 
