~V
VERS. 2.00: Ver 2.00
~W
STRT.M 20.0000:
STOP.M 277.0000:
STEP.M 0.1250:
NULL. -999.2500:
UWI. FD11024:
~C
DEPT.M :
TVD. :
DX. :
DY. :
DEN.GM/CC :
GR.API :
RML.OHMM :
RI. :
RXO.OHMM :
CALI.CM :
SP.MV :
~A
# ...
  201.5000   197.9180    17.7820    25.4050     2.4430    79.8610    11.6090    10.3420     7.9630    21.6470   -11.2450 
  201.6250   198.0380    17.8040    25.4340     2.4710    82.2530    11.8720    10.7220     8.1610    21.7010   -10.7680 
  201.7500   198.1580    17.8260    25.4630     2.5000    81.8260    11.8830    10.9540     9.0650    21.5110   -10.2200 
  201.8750   198.2770    17.8480    25.4920     2.5140    75.0870    11.4820    10.7630    10.9820    21.2450    -9.6360 
  202.0000   198.3970    17.8690    25.5210     2.5060    65.3960    10.6780    10.0910    12.0540    21.1560    -9.0860 
  202.1250   198.5160    17.8910    25.5500     2.4800    60.6140     9.6560     9.1210     9.2260    21.1960    -8.6000 
  202.2500   198.6360    17.9130    25.5790     2.4510    60.6340     8.7320     8.2080     6.7300    21.2050    -8.1810 
  202.3750   198.7560    17.9350    25.6080     2.4290    60.8940     8.0630     7.5180     5.9110    21.2200    -7.8440 
  202.5000   198.8750    17.9570    25.6370     2.4190    59.5930     7.6880     7.0960     6.1610    21.2800    -7.5810 
  202.6250   198.9950    17.9780    25.6660     2.4210    56.9010     7.5720     6.9180     6.4930    21.4100    -7.3980 
  202.7500   199.1150    18.0000    25.6950     2.4340    52.4370     7.5400     6.8300     6.0890    21.4310    -7.2220 
  202.8750   199.2340    18.0220    25.7240     2.4610    48.9950     7.4760     6.7180     5.4750    21.4350    -7.0730 
  203.0000   199.3540    18.0440    25.7530     2.5050    48.8800     7.3060     6.5070     5.3000    21.4370    -6.8930 
  203.1250   199.4740    18.0650    25.7820     2.5650    52.2190     6.9730     6.1580     5.3860    21.4710    -6.6680 
  203.2500   199.5930    18.0870    25.8110     2.6180    53.6950     6.5490     5.7380     5.2570    21.6130    -6.4120 
  203.3750   199.7130    18.1090    25.8400     2.6410    52.2460     6.1560     5.3370     5.0170    21.7450    -6.1430 
  203.5000   199.8320    18.1310    25.8690     2.6220    48.6640     5.9460     5.0590     4.7690    21.8040    -5.8820 
  203.6250   199.9520    18.1530    25.8980     2.5670    43.9870     6.0510     5.0000     4.4690    21.7230    -5.6810 
  203.7500   200.0720    18.1740    25.9270     2.5080    41.8010     6.3480     5.1020     4.5680    21.4810    -5.5420 
  203.8750   200.1910    18.1960    25.9560     2.4640    42.9170     6.6510     5.2580     5.0230    21.1300    -5.4520 
  204.0000   200.3110    18.2180    25.9850     2.4380    46.0570     6.7550     5.3350     5.4870    20.8640    -5.4210 
  204.1250   200.4310    18.2400    26.0140     2.4210    49.5130     6.5080     5.2040     5.4300    20.8200    -5.4520 
  204.2500   200.5500    18.2610    26.0420     2.4000    53.0970     6.0730     4.9250     4.8880    20.8130    -5.5220 
  204.3750   200.6700    18.2830    26.0710     2.3720    55.3550     5.6720     4.6240     4.2020    20.8130    -5.6250 
  204.5000   200.7890    18.3050    26.1000     2.3440    56.3830     5.4950     4.4390     3.8800    20.8130    -5.7220 
  204.6250   200.9090    18.3270    26.1290     2.3260    57.2540     5.6690     4.4910     4.1040    20.8130    -5.8340 
  204.7500   201.0290    18.3490    26.1580     2.3220    57.8410     6.1050     4.7560     4.4740    20.8110    -5.9640 
  204.8750   201.1480    18.3700    26.1870     2.3300    58.2300     6.6980     5.1790     4.9100    20.8030    -6.1310 
  205.0000   201.2680    18.3920    26.2160     2.3460    58.4080     7.3050     5.6610     5.3190    20.7440    -6.3280 
  205.1250   201.3880    18.4140    26.2450     2.3640    57.9510     7.7700     6.0520     5.4730    20.7080    -6.6020 
  205.2500   201.5070    18.4360    26.2740     2.3810    57.4200     8.0720     6.2900     5.4480    20.6620    -6.9370 
  205.3750   201.6270    18.4580    26.3030     2.3960    58.4750     8.2460     6.3920     5.4600    20.6520    -7.3630 
  205.5000   201.7470    18.4790    26.3320     2.4070    60.6030     8.3380     6.4140     5.6850    20.6510    -7.9240 
  205.6250   201.8660    18.5010    26.3610     2.4120    64.1870     8.3800     6.4220     5.8680    20.6580    -8.6260 
  205.7500   201.9860    18.5230    26.3900     2.4130    70.1960     8.4240     6.4540     5.8240    20.6540    -9.4350 
  205.8750   202.1050    18.5450    26.4190     2.4110    77.8140     8.5010     6.5150     5.8150    20.6490   -10.3220 
  206.0000   202.2250    18.5660    26.4480     2.4100    84.6160     8.6120     6.5840     6.0390    20.6420   -11.2950 
  206.1250   202.3450    18.5880    26.4770     2.4090    87.9840     8.7240     6.6330     6.2250    20.6490   -12.3410 
  206.2500   202.4640    18.6100    26.5060     2.4080    89.6810     8.8070     6.6530     6.1870    20.6530   -13.4570 
  206.3750   202.5840    18.6320    26.5350     2.4030    93.1860     8.8780     6.6570     5.8420    20.6800   -14.6090 
  206.5000   202.7040    18.6540    26.5640     2.3950    98.5170     8.9860     6.6820     5.6080    20.8340   -15.7770 
  206.6250   202.8230    18.6750    26.5930     2.3860    98.5220     9.1860     6.7720     5.7810    21.1080   -16.8580 
  206.7500   202.9430    18.6970    26.6220     2.3800    92.8320     9.4560     6.9240     6.1500    21.4280   -17.8230 
  206.8750   203.0630    18.7190    26.6510     2.3760    88.0610     9.7400     7.1130     6.4300    21.6170   -18.6600 
  207.0000   203.1820    18.7410    26.6800     2.3760    86.6010     9.9720     7.2990     6.5200    21.6400   -19.3190 
  207.1250   203.3020    18.7620    26.7080     2.3770    84.3130    10.0720     7.4270     6.5680    21.5780   -19.7500 
  207.2500   203.4210    18.7840    26.7370     2.3800    82.9810    10.0300     7.4780     6.6040    21.5730   -20.0070 
  207.3750   203.5410    18.8060    26.7660     2.3840    85.5380     9.8560     7.4480     6.6010    21.5710   -20.0900 
  207.5000   203.6610    18.8280    26.7950     2.3890    88.3260     9.5950     7.3480     6.5910    21.5820   -20.0540 
  207.6250   203.7800    18.8500    26.8240     2.3940    88.3690     9.3570     7.2020     6.5370    21.5710   -19.9720 
  207.7500   203.9000    18.8710    26.8530     2.3990    88.3980     9.2450     7.0710     6.4570    21.5730   -19.9540 
  207.8750   204.0200    18.8930    26.8820     2.4020    91.5330     9.3020     7.0050     6.3080    21.5790   -20.0240 
  208.0000   204.1390    18.9150    26.9110     2.4020    96.0690     9.5140     7.0320     6.1920    21.5810   -20.2330 
  208.1250   204.2590    18.9370    26.9400     2.3950    95.8220     9.8350     7.1590     6.2480    21.6530   -20.6010 
  208.2500   204.3780    18.9580    26.9690     2.3820    89.7760    10.1980     7.3390     6.4870    21.8260   -21.0090 
  208.3750   204.4980    18.9800    26.9980     2.3660    81.6980    10.5710     7.5430     6.7340    22.0390   -21.4130 
  208.5000   204.6180    19.0020    27.0270     2.3500    76.3690    10.9410     7.7660     6.8440    22.1950   -21.7490 
  208.6250   204.7370    19.0240    27.0560     2.3400    76.4360    11.3360     8.0540     6.8080    22.2840   -21.9270 
  208.7500   204.8570    19.0460    27.0850     2.3370    78.8980    11.8390     8.4610     6.9420    22.3460   -21.9120 
  208.8750   204.9770    19.0670    27.1140     2.3430    79.7370    12.5890     9.0510     7.3440    22.4790   -21.6680 
  209.0000   205.0960    19.0890    27.1430     2.3580    75.2510    13.7570     9.8980     8.1220    22.5730   -21.1650 
  209.1250   205.2160    19.1110    27.1720     2.3850    68.4110    15.6360    11.1660     9.5170    22.4710   -20.3530 
  209.2500   205.3360    19.1330    27.2010     2.4230    65.4000    18.1770    12.9030    10.9320    21.9450   -19.3290 
  209.3750   205.4550    19.1540    27.2300     2.4720    66.4330    21.0740    15.0410    12.4150    21.2800   -18.1140 
  209.5000   205.5750    19.1760    27.2590     2.5230    67.4220    23.4940    17.1120    13.6570    20.7170   -16.7360 
  209.6250   205.6940    19.1980    27.2880     2.5590    67.8690    23.6810    17.8330    15.0230    20.3620   -15.2060 
