~V
VERS. 2.00: Ver 2.00
~W
STRT.M 56.0000:
STOP.M 276.0000:
STEP.M 0.1250:
NULL. -999.2500:
UWI. FD11178:
~C
DEPT.M :
TVD. :
DX. :
DY. :
SP.MV :
GR.API :
RI. :
RML.OHMM :
DEN.GM/CC :
RXO.OHMM :
~A
# ...
  192.8750   188.1100    -4.8860   -31.6420    -1.3480    75.5330    80.6330    81.2760     2.1970    83.2580 
  193.0000   188.2270    -4.8940   -31.6860    -1.4560    75.3660    87.1030    88.3520     2.1900    81.5990 
  193.1250   188.3430    -4.9020   -31.7300    -1.6260    72.0080    98.4720   100.7700     2.1800    78.9990 
  193.2500   188.4600    -4.9100   -31.7740    -1.7010    67.1470   121.6560   125.7450     2.1670    85.7710 
  193.3750   188.5770    -4.9180   -31.8170    -1.7360    63.3070   149.7270   154.6460     2.1560    94.4570 
  193.5000   188.6940    -4.9260   -31.8610    -1.7840    60.3800   174.9350   180.1160     2.1470   104.8730 
  193.6250   188.8110    -4.9330   -31.9050    -1.7880    57.1680   189.7010   193.8810     2.1420   150.5660 
  193.7500   188.9270    -4.9410   -31.9490    -1.7380    54.1240   187.4100   190.5840     2.1430   195.6500 
  193.8750   189.0440    -4.9490   -31.9930    -1.6360    53.8730   179.8770   183.2240     2.1480   210.6650 
  194.0000   189.1610    -4.9560   -32.0360    -1.4380    56.8700   173.0080   177.3310     2.1530   210.6150 
  194.1250   189.2780    -4.9640   -32.0800    -1.2070    59.7530   170.9730   176.9410     2.1540   211.9060 
  194.2500   189.3950    -4.9710   -32.1240    -0.9010    60.2220   175.6580   183.9980     2.1540   199.9110 
  194.3750   189.5120    -4.9790   -32.1670    -0.4640    58.7380   187.0420   197.8970     2.1570   181.5330 
  194.5000   189.6290    -4.9860   -32.2110    -0.1190    57.4190   205.7620   219.3590     2.1550   190.0640 
  194.6250   189.7460    -4.9940   -32.2550     0.0360    57.1060   229.4980   245.8530     2.1460   215.3680 
  194.7500   189.8620    -5.0010   -32.2980    -0.0430    57.2340   255.5240   274.8520     2.1340   245.1210 
  194.8750   189.9790    -5.0090   -32.3420    -0.3210    57.0470   281.5860   300.2860     2.1270   293.2090 
  195.0000   190.0960    -5.0160   -32.3860    -0.6140    56.1390   300.3430   318.4120     2.1260   337.1870 
  195.1250   190.2130    -5.0240   -32.4290    -0.7280    55.3680   309.0210   325.4370     2.1280   327.2500 
  195.2500   190.3300    -5.0320   -32.4730    -0.7880    56.1380   304.3190   327.1060     2.1330   295.2510 
  195.3750   190.4470    -5.0390   -32.5170    -0.8940    58.8720   289.0640   313.8580     2.1330   273.0300 
  195.5000   190.5630    -5.0460   -32.5610    -1.0540    61.1970   272.1170   295.0940     2.1290   251.2780 
  195.6250   190.6800    -5.0540   -32.6050    -1.2400    60.7650   257.4730   279.0440     2.1280   240.8060 
  195.7500   190.7970    -5.0610   -32.6490    -1.5000    59.1070   246.6110   266.8600     2.1310   229.0310 
  195.8750   190.9140    -5.0680   -32.6930    -1.8080    57.8030   235.4840   253.8690     2.1350   207.3150 
  196.0000   191.0310    -5.0760   -32.7370    -2.1600    57.0760   219.5560   235.4920     2.1360   201.9260 
  196.1250   191.1470    -5.0830   -32.7810    -2.4760    55.1330   199.5650   213.0840     2.1400   199.7890 
  196.2500   191.2640    -5.0910   -32.8240    -2.7510    54.7120   181.3350   193.0000     2.1480   172.9720 
  196.3750   191.3810    -5.0980   -32.8680    -3.0570    56.9860   168.8650   179.6310     2.1550   139.7480 
  196.5000   191.4980    -5.1060   -32.9130    -3.4750    59.4430   164.8690   176.2010     2.1530   126.0910 
  196.6250   191.6140    -5.1140   -32.9570    -3.9180    59.1060   168.0770   179.9900     2.1470   139.6860 
  196.7500   191.7310    -5.1210   -33.0010    -4.2870    58.1000   174.7200   187.3310     2.1420   170.7110 
  196.8750   191.8480    -5.1290   -33.0450    -4.6170    59.5390   183.0990   195.8580     2.1370   192.6800 
  197.0000   191.9650    -5.1370   -33.0890    -4.9090    60.6980   189.4560   205.4780     2.1320   194.8510 
  197.1250   192.0810    -5.1450   -33.1330    -5.1580    60.6410   188.8690   211.7450     2.1330   184.0810 
  197.2500   192.1980    -5.1530   -33.1770    -5.3520    60.5740   180.4180   200.1030     2.1360   158.5650 
  197.3750   192.3150    -5.1600   -33.2210    -5.5250    60.7130   165.9170   181.2540     2.1380   147.1670 
  197.5000   192.4310    -5.1680   -33.2650    -5.7470    61.0910   147.9920   158.4940     2.1370   156.5820 
  197.6250   192.5480    -5.1760   -33.3100    -5.9240    62.5990   128.3080   134.9230     2.1420   141.8450 
  197.7500   192.6650    -5.1840   -33.3540    -6.0700    64.8540   110.8760   114.6450     2.1550   106.4220 
  197.8750   192.7810    -5.1910   -33.3980    -6.2560    67.8600    96.6670    98.9350     2.1720    81.6940 
  198.0000   192.8980    -5.1990   -33.4430    -6.4480    71.4940    88.5910    90.3860     2.1860    73.0380 
  198.1250   193.0140    -5.2070   -33.4870    -6.5680    73.0960    83.2730    84.7490     2.1910    65.8720 
  198.2500   193.1310    -5.2150   -33.5320    -6.5990    70.5110    78.2780    79.4780     2.1900    57.4030 
  198.3750   193.2480    -5.2230   -33.5760    -6.5980    68.4690    71.8980    72.9690     2.1880    62.1580 
  198.5000   193.3640    -5.2300   -33.6210    -6.6280    69.4340    65.6130    66.7250     2.1980    65.0840 
  198.6250   193.4810    -5.2380   -33.6650    -6.6390    69.0200    59.6230    61.0130     2.2140    50.6230 
  198.7500   193.5970    -5.2460   -33.7100    -6.5410    67.2500    55.3200    57.2750     2.2210    37.6840 
  198.8750   193.7140    -5.2540   -33.7540    -6.3420    65.4070    54.2130    57.0220     2.2120    35.9660 
  199.0000   193.8300    -5.2620   -33.7990    -6.1330    65.5830    58.1000    62.1200     2.1970    39.1870 
  199.1250   193.9470    -5.2690   -33.8430    -6.0380    68.1300    67.4500    73.3360     2.1810    46.4190 
  199.2500   194.0630    -5.2770   -33.8880    -5.9980    71.0440    83.2600    92.5140     2.1620    53.8560 
  199.3750   194.1800    -5.2850   -33.9320    -5.9870    70.0830   107.2090   121.9640     2.1420    65.1490 
  199.5000   194.2960    -5.2930   -33.9770    -5.9560    65.3340   135.8500   157.9300     2.1300   100.5870 
  199.6250   194.4130    -5.3010   -34.0210    -5.9640    61.6440   173.2190   205.2290     2.1260   169.4530 
  199.7500   194.5290    -5.3080   -34.0660    -6.0020    60.0330   210.2750   250.5070     2.1260   216.6940 
  199.8750   194.6460    -5.3160   -34.1110    -6.0110    58.8470   241.9420   288.8570     2.1260   181.4050 
  200.0000   194.7620    -5.3230   -34.1550    -5.9250    57.0850   263.0050   291.3870     2.1190   131.3110 
  200.1250   194.8790    -5.3310   -34.2000    -5.7600    54.8690   255.7260   273.6980     2.1100   139.5950 
  200.2500   194.9960    -5.3380   -34.2440    -5.6220    54.2960   228.9600   243.5800     2.1080   192.6070 
  200.3750   195.1120    -5.3460   -34.2890    -5.4700    56.9640   188.1710   199.0880     2.1190   351.8530 
  200.5000   195.2290    -5.3530   -34.3330    -5.3210    60.6410   147.6060   156.2250     2.1360   458.4520 
  200.6250   195.3450    -5.3610   -34.3770    -5.1970    62.4840   121.0970   128.8400     2.1460   302.1450 
  200.7500   195.4620    -5.3690   -34.4220    -5.0720    62.9550   102.6480   106.8240     2.1520   123.4620 
  200.8750   195.5790    -5.3760   -34.4660    -5.0190    64.2810    91.7190    95.6620     2.1580    78.5940 
  201.0000   195.6950    -5.3840   -34.5110    -5.0700    65.1810    85.7430    89.4460     2.1620    73.2970 
  201.1250   195.8120    -5.3920   -34.5550    -5.1190    66.3020    83.2730    86.4900     2.1640    68.8810 
  201.2500   195.9280    -5.3990   -34.5990    -5.0790    68.7110    81.7060    84.3010     2.1620    71.9390 
  201.3750   196.0450    -5.4070   -34.6440    -4.9540    70.7550    79.3070    81.2090     2.1580    79.0960 
  201.5000   196.1620    -5.4150   -34.6880    -4.8160    70.9670    75.0330    76.1830     2.1530    79.3000 
  201.6250   196.2780    -5.4230   -34.7320    -4.7220    67.2530    69.9390    70.4940     2.1530    64.1020 
  201.7500   196.3950    -5.4310   -34.7770    -4.6110    64.7880    65.0540    65.2880     2.1620    49.6300 
  201.8750   196.5110    -5.4380   -34.8210    -4.4760    65.2300    61.8900    62.2710     2.1730    49.0160 
