~V
VERS. 2.00: Ver 2.00
~W
STRT.M 45.0000:
STOP.M 272.0000:
STEP.M 0.1250:
NULL. -999.2500:
UWI. FD11191:
~C
DEPT.M :
TVD. :
DX. :
DY. :
SP.MV :
GR.API :
RI. :
RML.OHMM :
RXO.OHMM :
DEN.GM/CC :
~A
# ...
  209.2500   204.7180   -30.3220     1.2160   -32.9190    62.6470    57.5420    58.7640    52.9100     2.1300 
  209.3750   204.8320   -30.3730     1.2200   -32.6680    63.0730    58.7840    59.5870    60.1190     2.1360 
  209.5000   204.9460   -30.4250     1.2230   -32.4080    62.0850    55.9560    55.6450    59.4560     2.1730 
  209.6250   205.0600   -30.4760     1.2260   -32.1330    59.7570    49.5660    48.5150    56.1370     2.2650 
  209.7500   205.1740   -30.5280     1.2290   -31.8390    58.1800    41.1010    39.2960    61.4710     2.3840 
  209.8750   205.2870   -30.5790     1.2320   -31.5190    59.4250    34.2320    33.0500    67.2790     2.4700 
  210.0000   205.4010   -30.6310     1.2350   -31.1780    61.8630    31.6830    31.1350    58.7370     2.5080 
  210.1250   205.5150   -30.6820     1.2380   -30.8210    63.7230    32.1800    32.5390    47.6210     2.5300 
  210.2500   205.6290   -30.7330     1.2410   -30.4610    63.4810    34.8420    36.2690    52.4680     2.5610 
  210.3750   205.7430   -30.7850     1.2440   -30.1100    61.4630    33.6610    35.1210    66.4960     2.5940 
  210.5000   205.8570   -30.8360     1.2470   -29.7850    59.6620    28.3450    29.5820    74.9310     2.6110 
  210.6250   205.9710   -30.8880     1.2500   -29.5100    60.6630    19.8380    20.0470    63.1050     2.5780 
  210.7500   206.0850   -30.9390     1.2530   -29.2960    66.4340    10.2810    10.1180    34.4910     2.4990 
  210.8750   206.1990   -30.9910     1.2570   -29.1540    77.6390     6.0310     5.9600    12.1580     2.4230 
  211.0000   206.3120   -31.0420     1.2600   -29.0800    90.4320     4.3020     4.3050     4.7590     2.3860 
  211.1250   206.4260   -31.0940     1.2630   -29.0790    98.6990     3.7390     3.8220     4.5370     2.3780 
  211.2500   206.5400   -31.1450     1.2660   -29.1450   101.8980     3.6460     3.8150     4.8740     2.3680 
  211.3750   206.6540   -31.1970     1.2690   -29.2790   101.2420     3.8970     4.1260     4.8880     2.3510 
  211.5000   206.7680   -31.2480     1.2720   -29.4610    99.1260     4.2870     4.5530     4.9030     2.3360 
  211.6250   206.8820   -31.3000     1.2750   -29.6660    97.3570     4.6750     4.9480     5.2550     2.3300 
  211.7500   206.9950   -31.3520     1.2780   -29.8650    96.6900     4.9850     5.2500     5.7100     2.3370 
  211.8750   207.1090   -31.4030     1.2810   -30.0360    96.1620     5.1380     5.3820     5.9670     2.3440 
  212.0000   207.2230   -31.4550     1.2840   -30.1750    94.9840     5.1370     5.3550     5.9950     2.3400 
  212.1250   207.3370   -31.5070     1.2870   -30.2860    95.3090     5.0170     5.2270     5.7450     2.3370 
  212.2500   207.4510   -31.5580     1.2900   -30.3810    96.3630     4.8520     5.0880     5.3890     2.3430 
  212.3750   207.5640   -31.6100     1.2930   -30.4670    96.9530     4.6940     4.9920     5.3480     2.3480 
  212.5000   207.6780   -31.6620     1.2960   -30.5470    99.8480     4.5630     4.9450     5.5390     2.3460 
  212.6250   207.7920   -31.7130     1.2990   -30.6170   102.5880     4.4700     4.9480     5.5080     2.3460 
  212.7500   207.9050   -31.7650     1.3020   -30.6760   101.6510     4.4000     4.9580     5.1940     2.3540 
  212.8750   208.0190   -31.8170     1.3050   -30.7280    99.1470     4.3080     4.9200     5.0540     2.3430 
  213.0000   208.1330   -31.8690     1.3070   -30.7850    99.5510     4.1880     4.8270     5.2110     2.3190 
  213.1250   208.2470   -31.9210     1.3100   -30.8680   101.8830     4.0750     4.7160     4.9820     2.3080 
  213.2500   208.3600   -31.9730     1.3130   -30.9990   102.2580     4.0140     4.6610     4.4970     2.3260 
  213.3750   208.4740   -32.0240     1.3160   -31.2040   100.0240     4.0760     4.7580     4.2640     2.3610 
  213.5000   208.5880   -32.0760     1.3180   -31.4890    96.0280     4.2580     5.0150     4.2760     2.3750 
  213.6250   208.7010   -32.1280     1.3210   -31.8550    93.0670     4.6150     5.5010     4.9150     2.3520 
  213.7500   208.8150   -32.1800     1.3240   -32.2680    92.1940     5.0770     6.1180     5.9540     2.3130 
  213.8750   208.9290   -32.2320     1.3270   -32.6910    89.7040     5.5640     6.7380     6.3640     2.2830 
  214.0000   209.0420   -32.2840     1.3300   -33.0780    83.2450     5.9390     7.2020     6.2410     2.2680 
  214.1250   209.1560   -32.3360     1.3330   -33.3920    76.6610     6.0820     7.3530     6.6560     2.2580 
  214.2500   209.2700   -32.3880     1.3350   -33.6190    74.6280     6.0530     7.2890     7.6590     2.2540 
  214.3750   209.3830   -32.4400     1.3380   -33.7420    76.4430     5.9580     7.1410     8.1450     2.2550 
  214.5000   209.4970   -32.4920     1.3410   -33.7620    76.8520     5.9170     7.0780     7.5900     2.2500 
  214.6250   209.6110   -32.5440     1.3440   -33.6610    73.9290     6.0580     7.2480     7.2000     2.2460 
  214.7500   209.7240   -32.5960     1.3470   -33.4420    70.8600     6.5410     7.8520     8.0360     2.2630 
  214.8750   209.8380   -32.6480     1.3500   -33.0940    68.4310     7.5490     9.1190     9.1610     2.3150 
  215.0000   209.9520   -32.7000     1.3530   -32.6380    66.0950     9.0000    10.9480    10.0960     2.3880 
  215.1250   210.0650   -32.7520     1.3560   -32.0880    63.8230    11.0400    13.5670    14.1960     2.4540 
  215.2500   210.1790   -32.8040     1.3590   -31.4780    64.1780    13.3510    16.5610    20.7600     2.4950 
  215.3750   210.2930   -32.8560     1.3620   -30.8400    65.7680    15.8760    20.0170    24.1350     2.5150 
  215.5000   210.4060   -32.9080     1.3650   -30.2080    66.0000    17.3470    21.9150    24.9550     2.5310 
  215.6250   210.5200   -32.9600     1.3670   -29.6120    65.3740    15.8960    19.8520    25.8200     2.5370 
  215.7500   210.6330   -33.0120     1.3700   -29.0700    66.3620    12.5110    15.3660    26.9550     2.5140 
  215.8750   210.7470   -33.0640     1.3730   -28.6010    69.8860     7.8660     9.2130    27.8370     2.4520 
  216.0000   210.8610   -33.1160     1.3760   -28.2100    72.5760     4.3710     4.9280    22.9630     2.3810 
  216.1250   210.9740   -33.1680     1.3790   -27.9110    72.5360     2.7620     3.0790    11.5440     2.3430 
  216.2500   211.0880   -33.2200     1.3820   -27.7020    72.0600     2.0130     2.2570     3.7930     2.3420 
  216.3750   211.2020   -33.2720     1.3850   -27.5920    74.7890     1.8120     2.1010     2.3750     2.3450 
  216.5000   211.3150   -33.3240     1.3880   -27.5680    80.4280     1.8450     2.1960     2.3870     2.3310 
  216.6250   211.4290   -33.3760     1.3910   -27.6250    87.0250     2.0030     2.3950     2.3950     2.3240 
  216.7500   211.5420   -33.4280     1.3930   -27.7380    92.2170     2.1820     2.5720     2.3030     2.3380 
  216.8750   211.6560   -33.4810     1.3960   -27.8780    94.5750     2.3330     2.6800     2.3580     2.3520 
  217.0000   211.7690   -33.5330     1.3990   -28.0090    94.4720     2.4340     2.7230     2.5770     2.3450 
  217.1250   211.8830   -33.5850     1.4020   -28.0940    96.9110     2.4710     2.7020     2.7280     2.3230 
  217.2500   211.9960   -33.6370     1.4050   -28.1240   101.9830     2.4540     2.6300     2.8660     2.3040 
  217.3750   212.1100   -33.6900     1.4080   -28.1030   103.4200     2.3980     2.5370     2.9570     2.2930 
  217.5000   212.2230   -33.7420     1.4110   -28.0660    98.8590     2.3350     2.4520     2.8700     2.2880 
  217.6250   212.3370   -33.7950     1.4140   -28.0490    93.6180     2.2840     2.4050     2.8050     2.2910 
  217.7500   212.4500   -33.8470     1.4170   -28.0800    93.8590     2.2420     2.3880     2.8030     2.2920 
  217.8750   212.5640   -33.8990     1.4200   -28.1700    99.0370     2.2200     2.4140     2.8710     2.2820 
  218.0000   212.6770   -33.9520     1.4230   -28.3100   103.4010     2.2440     2.5030     2.9720     2.2850 
  218.1250   212.7900   -34.0040     1.4260   -28.4960   103.3790     2.3380     2.6640     2.8730     2.3150 
  218.2500   212.9040   -34.0570     1.4290   -28.7260    99.2660     2.5090     2.9130     2.8090     2.3380 
