~V
VERS. 2.00: Ver 2.00
~W
STRT.M 30.0000:
STOP.M 272.0000:
STEP.M 0.1250:
NULL. -999.2500:
UWI. FD11176:
~C
DEPT.M :
TVD. :
DX. :
DY. :
SP.MV :
GR.API :
RI. :
RML.OHMM :
RXO.OHMM :
DEN.GM/CC :
~A
# ...
   93.8750    93.1990     7.5120    -1.9330    -3.7510    80.0900     4.7290     5.4140    12.3010     2.2240 
   94.0000    93.3190     7.5410    -1.9510    -3.7470    76.9980     4.7930     5.4350    16.2430     2.3230 
   94.1250    93.4400     7.5690    -1.9680    -3.9320    75.5850     4.6390     5.2100    11.0240     2.3530 
   94.2500    93.5600     7.5980    -1.9850    -4.3360    77.3400     4.4150     4.9260     5.6300     2.2930 
   94.3750    93.6800     7.6270    -2.0020    -4.8720    77.6880     4.1840     4.6660     4.6380     2.2160 
   94.5000    93.8010     7.6550    -2.0200    -5.3300    74.2530     4.0500     4.5540     4.2930     2.1810 
   94.6250    93.9210     7.6840    -2.0370    -5.4960    70.9950     4.0640     4.6060     4.3200     2.1820 
   94.7500    94.0420     7.7130    -2.0550    -5.3420    72.1760     4.1130     4.6870     4.5890     2.1990 
   94.8750    94.1620     7.7420    -2.0730    -4.9870    75.3240     4.1190     4.7110     4.5340     2.2240 
   95.0000    94.2820     7.7710    -2.0900    -4.6560    77.2690     4.0840     4.6960     4.3710     2.2330 
   95.1250    94.4030     7.8000    -2.1080    -4.5210    77.5890     3.9810     4.5810     4.6280     2.2140 
   95.2500    94.5230     7.8290    -2.1260    -4.6100    79.9200     3.8470     4.4110     4.8570     2.1940 
   95.3750    94.6430     7.8580    -2.1440    -4.8670    83.4780     3.7620     4.2950     4.4990     2.1930 
   95.5000    94.7630     7.8870    -2.1620    -5.1930    85.4390     3.7860     4.3230     4.1300     2.2080 
   95.6250    94.8830     7.9170    -2.1800    -5.5860    85.8040     3.9700     4.5720     4.0340     2.2360 
   95.7500    95.0030     7.9460    -2.1980    -6.1060    85.5680     4.3320     5.0650     4.5560     2.2650 
   95.8750    95.1240     7.9760    -2.2160    -6.8150    81.7940     4.7570     5.6330     5.7840     2.2600 
   96.0000    95.2440     8.0050    -2.2340    -7.6740    74.7560     5.1210     6.0690     6.4590     2.2110 
   96.1250    95.3640     8.0350    -2.2520    -8.5730    70.4170     5.2830     6.2290     6.3390     2.1490 
   96.2500    95.4840     8.0640    -2.2710    -9.3590    72.2190     5.2790     6.1610     6.1660     2.1080 
   96.3750    95.6040     8.0940    -2.2890    -9.9270    74.3990     5.2000     6.0170     5.9790     2.0960 
   96.5000    95.7240     8.1240    -2.3070   -10.3270    73.9140     5.1570     5.9590     5.8560     2.0950 
   96.6250    95.8440     8.1540    -2.3260   -10.6360    71.2370     5.1990     6.0200     6.0310     2.0950 
   96.7500    95.9640     8.1840    -2.3440   -10.9040    68.3450     5.2880     6.1570     6.2870     2.0990 
   96.8750    96.0840     8.2140    -2.3620   -11.1310    67.0700     5.4070     6.3380     8.2890     2.1130 
   97.0000    96.2040     8.2440    -2.3810   -11.3370    69.4030     5.5350     6.5250    12.6110     2.1270 
   97.1250    96.3240     8.2740    -2.3990   -11.5580    71.7200     5.6470     6.6720    13.3840     2.1290 
   97.2500    96.4430     8.3040    -2.4180   -11.8300    69.7610     5.7240     6.7570     9.4650     2.1260 
   97.3750    96.5630     8.3340    -2.4370   -12.1760    67.4550     5.7730     6.8050     7.1670     2.1300 
   97.5000    96.6830     8.3650    -2.4550   -12.5790    70.1570     5.8110     6.8440     7.2420     2.1430 
   97.6250    96.8030     8.3950    -2.4740   -13.0010    73.7540     5.8490     6.8910     7.3760     2.1480 
   97.7500    96.9230     8.4260    -2.4930   -13.3880    72.8340     5.9020     6.9610     7.4040     2.1350 
   97.8750    97.0420     8.4570    -2.5120   -13.6750    67.3860     5.9480     7.0240     7.4950     2.1100 
   98.0000    97.1620     8.4870    -2.5300   -13.8430    63.0780     5.9700     7.0530     7.8160     2.0940 
   98.1250    97.2820     8.5180    -2.5490   -13.9020    62.0280     5.9630     7.0490     8.2540     2.0930 
   98.2500    97.4010     8.5490    -2.5680   -13.9190    61.2080     5.9370     7.0180     8.4970     2.0980 
   98.3750    97.5210     8.5800    -2.5870   -13.9550    59.3750     5.8950     6.9650     8.1980     2.0990 
   98.5000    97.6400     8.6110    -2.6060   -14.0280    58.8940     5.8620     6.9180     7.5890     2.0980 
   98.6250    97.7600     8.6420    -2.6250   -14.1030    60.4380     5.8480     6.8970     7.3460     2.0980 
   98.7500    97.8790     8.6730    -2.6450   -14.1330    60.6960     5.8470     6.8780     7.4980     2.0980 
   98.8750    97.9990     8.7050    -2.6640   -14.0990    60.8080     5.8230     6.8220     7.6990     2.0990 
   99.0000    98.1180     8.7360    -2.6820   -14.0150    61.8090     5.7640     6.7050     7.9410     2.0990 
   99.1250    98.2380     8.7680    -2.7010   -13.8700    62.9280     5.6750     6.5330     8.1050     2.0940 
   99.2500    98.3570     8.8000    -2.7200   -13.6450    62.1570     5.5760     6.3590     7.9090     2.0880 
   99.3750    98.4770     8.8320    -2.7390   -13.3110    61.1090     5.5460     6.2740     7.4210     2.0800 
   99.5000    98.5960     8.8640    -2.7580   -12.8690    62.5830     5.6090     6.3330     6.9700     2.0770 
   99.6250    98.7150     8.8960    -2.7770   -12.3050    65.6070     5.7450     6.4890     6.9230     2.0770 
   99.7500    98.8350     8.9280    -2.7970   -11.6230    67.3750     5.8200     6.5700     9.4090     2.0820 
   99.8750    98.9540     8.9600    -2.8160   -10.7770    65.1300     5.6620     6.3830    12.3530     2.0920 
  100.0000    99.0730     8.9920    -2.8350    -9.7370    63.2700     5.2490     5.8860    10.8620     2.1020 
  100.1250    99.1920     9.0250    -2.8540    -8.4870    66.6400     4.6340     5.1550     7.6740     2.1170 
  100.2500    99.3110     9.0570    -2.8740    -7.1190    76.9690     3.9490     4.3580     5.6100     2.1360 
  100.3750    99.4300     9.0890    -2.8930    -5.8020    88.2900     3.3700     3.7060     4.3750     2.1570 
  100.5000    99.5500     9.1220    -2.9130    -4.7470    94.4700     2.9470     3.2550     3.8710     2.1770 
  100.6250    99.6690     9.1550    -2.9320    -4.1180    92.7540     2.7480     3.0650     3.3410     2.1980 
  100.7500    99.7880     9.1870    -2.9520    -3.8660    89.1700     2.7390     3.0840     2.9790     2.2220 
  100.8750    99.9070     9.2200    -2.9720    -3.9480    86.0310     2.8750     3.2560     2.9470     2.2470 
  101.0000   100.0260     9.2530    -2.9910    -4.3060    83.3220     3.1460     3.5810     3.1470     2.2640 
  101.1250   100.1450     9.2860    -3.0110    -4.9370    81.7050     3.5290     4.0270     3.5090     2.2630 
  101.2500   100.2630     9.3190    -3.0310    -5.7990    81.5190     3.9910     4.5380     3.8600     2.2460 
  101.3750   100.3820     9.3530    -3.0510    -6.8850    82.7040     4.4390     5.0090     4.4810     2.2170 
  101.5000   100.5010     9.3860    -3.0710    -8.1190    81.0660     4.7920     5.3570     5.3520     2.1780 
  101.6250   100.6200     9.4190    -3.0910    -9.3510    76.5680     5.0430     5.5880     6.0490     2.1410 
  101.7500   100.7390     9.4530    -3.1110   -10.3820    72.7770     5.2250     5.7580     6.1950     2.1210 
  101.8750   100.8570     9.4870    -3.1310   -11.0850    72.0310     5.3840     5.9100     5.8240     2.1260 
  102.0000   100.9760     9.5200    -3.1510   -11.5420    71.5620     5.5370     6.0860     5.8740     2.1360 
  102.1250   101.0950     9.5540    -3.1710   -11.8580    69.1320     5.7820     6.3970     6.7900     2.1350 
  102.2500   101.2130     9.5880    -3.1920   -12.0890    66.9910     6.0450     6.7590     7.6340     2.1210 
  102.3750   101.3320     9.6220    -3.2120   -12.1880    67.5340     6.2950     7.1360     7.5660     2.1070 
  102.5000   101.4500     9.6550    -3.2320   -12.1190    70.3880     6.4270     7.3790     7.3820     2.1130 
  102.6250   101.5690     9.6890    -3.2530   -11.8870    73.1410     6.2530     7.2170     7.6790     2.1410 
  102.7500   101.6880     9.7240    -3.2730   -11.5840    72.6940     5.7540     6.6270     7.4850     2.1620 
  102.8750   101.8060     9.7580    -3.2930   -11.2710    70.1940     5.1330     5.8700     6.6840     2.1520 
