~V
VERS. 2.00: Ver 2.00
~W
STRT.M 20.0000:
STOP.M 285.0000:
STEP.M 0.1250:
NULL. -999.2500:
UWI. FD11157:
~C
DEPT.M :
TVD. :
DX. :
DY. :
GR.API :
RML.OHMM :
RI. :
RXO.OHMM :
CALI.CM :
SP.MV :
DEN.GM/CC :
~A
# ...
  209.7500   206.4170   -11.9820   -25.7510    83.5110     9.3580     8.5070     8.6820    20.5540   -31.0280     2.3960 
  209.8750   206.5340   -11.9980   -25.7920    79.4140     9.5160     8.6510     9.1500    20.4770   -30.7140     2.3970 
  210.0000   206.6510   -12.0140   -25.8320    78.7000     9.7100     8.8270     9.2910    20.3510   -30.4390     2.3960 
  210.1250   206.7690   -12.0300   -25.8730    78.1760     9.7820     8.8930     9.0910    20.2620   -30.2090     2.3900 
  210.2500   206.8860   -12.0460   -25.9140    75.6960     9.6810     8.8010     8.6730    20.2560   -30.0220     2.3800 
  210.3750   207.0030   -12.0620   -25.9540    73.9140     9.4770     8.6160     8.2580    20.2410   -29.8660     2.3670 
  210.5000   207.1200   -12.0780   -25.9950    74.2260     9.3300     8.4810     7.9150    20.2230   -29.7260     2.3570 
  210.6250   207.2370   -12.0940   -26.0360    76.6600     9.4450     8.5870     7.6050    20.1220   -29.5220     2.3570 
  210.7500   207.3540   -12.1100   -26.0760    79.0940     9.8580     8.9620     7.5070    19.8690   -29.2320     2.3680 
  210.8750   207.4710   -12.1260   -26.1170    80.0860    10.5240     9.5670     7.4900    19.5600   -28.8510     2.3890 
  211.0000   207.5880   -12.1420   -26.1580    79.9810    11.2830    10.2580     7.5440    19.3340   -28.4270     2.4180 
  211.1250   207.7050   -12.1580   -26.1980    78.6490    11.7410    10.6740     7.6400    19.2160   -27.9770     2.4530 
  211.2500   207.8230   -12.1740   -26.2390    76.0360    11.5510    10.5010     7.7220    19.0570   -27.4810     2.4790 
  211.3750   207.9400   -12.1900   -26.2800    71.9360    10.6090     9.6450     7.5970    18.6810   -26.9350     2.4810 
  211.5000   208.0570   -12.2070   -26.3200    67.2940     9.1640     8.3310     6.9540    18.4520   -26.3220     2.4570 
  211.6250   208.1740   -12.2230   -26.3610    63.4280     7.6870     6.9880     5.6620    18.4440   -25.6720     2.4120 
  211.7500   208.2910   -12.2390   -26.4020    59.6450     6.5290     5.9360     4.9700    18.4370   -25.0280     2.3640 
  211.8750   208.4080   -12.2550   -26.4420    54.9650     5.7880     5.2620     4.8280    18.4410   -24.4260     2.3260 
  212.0000   208.5250   -12.2710   -26.4830    51.4330     5.4320     4.9380     4.9190    18.4460   -23.8630     2.3090 
  212.1250   208.6420   -12.2870   -26.5240    54.5970     5.3930     4.9030     5.0600    18.4420   -23.3730     2.3190 
  212.2500   208.7590   -12.3030   -26.5640    62.0750     5.4780     4.9800     5.1460    18.4090   -22.9870     2.3410 
  212.3750   208.8770   -12.3190   -26.6050    66.8310     5.5900     5.0820     5.2010    18.3030   -22.7300     2.3640 
  212.5000   208.9940   -12.3350   -26.6460    66.4610     5.7030     5.1850     5.2580    18.2220   -22.5880     2.3770 
  212.6250   209.1110   -12.3510   -26.6860    67.0380     5.8530     5.3210     5.4120    18.1260   -22.5770     2.3770 
  212.7500   209.2280   -12.3670   -26.7270    73.4670     6.0400     5.4910     5.8070    18.1120   -22.6000     2.3730 
  212.8750   209.3450   -12.3830   -26.7680    80.2160     6.2290     5.6630     6.2530    18.1110   -22.6370     2.3710 
  213.0000   209.4620   -12.3990   -26.8080    81.6800     6.3930     5.8120     6.4480    18.1140   -22.6620     2.3720 
  213.1250   209.5790   -12.4150   -26.8490    79.5330     6.5280     5.9340     6.3300    18.1380   -22.6800     2.3780 
  213.2500   209.6960   -12.4310   -26.8900    78.2390     6.6440     6.0400     6.0570    18.1130   -22.6840     2.3850 
  213.3750   209.8130   -12.4470   -26.9300    77.6880     6.7200     6.1090     5.8180    18.1050   -22.6820     2.3950 
  213.5000   209.9300   -12.4630   -26.9710    77.4090     6.7090     6.0990     5.7080    18.0870   -22.6870     2.4050 
  213.6250   210.0480   -12.4790   -27.0120    78.8960     6.5670     5.9700     5.9330    18.0320   -22.6670     2.4090 
  213.7500   210.1650   -12.4950   -27.0520    78.6710     6.3570     5.7790     6.3090    18.0250   -22.6200     2.4060 
  213.8750   210.2820   -12.5110   -27.0930    75.4010     6.1450     5.5870     6.8100    18.0390   -22.5270     2.3960 
  214.0000   210.3990   -12.5270   -27.1340    72.9030     5.9740     5.4310     7.1380    18.1340   -22.4070     2.3780 
  214.1250   210.5160   -12.5430   -27.1740    73.6260     5.8710     5.3380     6.8310    18.3370   -22.2030     2.3590 
  214.2500   210.6330   -12.5590   -27.2150    75.4420     5.8290     5.2990     6.1400    18.5270   -21.9280     2.3470 
  214.3750   210.7500   -12.5750   -27.2560    77.5790     5.8270     5.2970     5.8470    18.6140   -21.5620     2.3490 
  214.5000   210.8670   -12.5910   -27.2960    79.3710     5.8290     5.2990     5.9350    18.6880   -21.1080     2.3590 
  214.6250   210.9840   -12.6070   -27.3370    80.5480     5.7770     5.2520     6.0520    18.7210   -20.5600     2.3680 
  214.7500   211.1020   -12.6230   -27.3780    80.4820     5.6520     5.1380     5.7230    18.7600   -19.9520     2.3650 
  214.8750   211.2190   -12.6390   -27.4180    79.3130     5.4920     4.9920     5.4950    18.7860   -19.3250     2.3520 
  215.0000   211.3360   -12.6550   -27.4590    77.5590     5.3780     4.8890     5.2050    18.7950   -18.6920     2.3370 
  215.1250   211.4530   -12.6710   -27.5000    77.2190     5.4290     4.9360     4.9760    18.7960   -18.1030     2.3260 
  215.2500   211.5700   -12.6870   -27.5400    78.0940     5.7060     5.1880     5.0020    18.7980   -17.5810     2.3180 
  215.3750   211.6870   -12.7030   -27.5810    78.6890     6.2810     5.7100     5.2720    18.8060   -17.1100     2.3150 
  215.5000   211.8040   -12.7190   -27.6220    78.1430     7.2210     6.5640     5.7660    18.8620   -16.7090     2.3170 
  215.6250   211.9210   -12.7350   -27.6620    76.1870     8.6470     7.8610     6.6580    18.8790   -16.4070     2.3260 
  215.7500   212.0380   -12.7510   -27.7030    73.9970    10.3910     9.4460     8.0880    18.8830   -16.2150     2.3370 
  215.8750   212.1560   -12.7670   -27.7440    73.1880    12.0610    10.9640     9.7200    18.8830   -16.1190     2.3440 
  216.0000   212.2730   -12.7830   -27.7840    73.1720    13.0360    11.8510    10.3760    18.8820   -16.1050     2.3430 
  216.1250   212.3900   -12.7990   -27.8250    75.1330    12.6830    11.5300     9.7100    18.8770   -16.1160     2.3340 
  216.2500   212.5070   -12.8150   -27.8660    78.3170    11.4910    10.4460     8.7640    18.8820   -16.1180     2.3260 
  216.3750   212.6240   -12.8310   -27.9060    79.9490    10.1370     9.2150     7.9130    18.8830   -16.1100     2.3220 
  216.5000   212.7410   -12.8470   -27.9470    78.1490     9.1760     8.3420     7.3620    18.8830   -16.0880     2.3270 
  216.6250   212.8580   -12.8630   -27.9880    75.3750     8.9620     8.1470     7.2530    18.8840   -16.0420     2.3360 
  216.7500   212.9750   -12.8790   -28.0280    75.5350     9.3460     8.4970     7.6170    18.8900   -15.9780     2.3460 
  216.8750   213.0920   -12.8950   -28.0690    76.5190    10.2060     9.2790     8.4490    18.9300   -15.9140     2.3510 
  217.0000   213.2090   -12.9110   -28.1100    75.3670    11.4150    10.3780     9.8270    18.9620   -15.8620     2.3480 
  217.1250   213.3270   -12.9270   -28.1510    69.6470    12.8640    11.6940    10.6710    18.9570   -15.8370     2.3400 
  217.2500   213.4440   -12.9430   -28.1910    64.3780    14.3680    13.0620    11.3810    18.9180   -15.8080     2.3320 
  217.3750   213.5610   -12.9590   -28.2320    64.1830    15.7300    14.3000    12.1340    18.8880   -15.7750     2.3270 
  217.5000   213.6780   -12.9740   -28.2730    67.8620    16.6660    15.1510    12.7670    18.8830   -15.7410     2.3200 
  217.6250   213.7950   -12.9890   -28.3140    70.8340    16.7820    15.2560    12.8630    18.8830   -15.7200     2.3080 
  217.7500   213.9120   -13.0040   -28.3540    73.0220    16.1640    14.6940    12.6670    18.8830   -15.7140     2.2910 
  217.8750   214.0290   -13.0190   -28.3950    77.7220    15.0650    13.6950    12.4090    18.8830   -15.6940     2.2790 
