~V
VERS. 2.00: Ver 2.00
~W
STRT.M 11.0000:
STOP.M 273.0000:
STEP.M 0.1250:
NULL. -999.2500:
UWI. FD11023:
~C
DEPT.M :
TVD. :
DX. :
DY. :
GR.API :
RML.OHMM :
RI. :
RXO.OHMM :
CALI.CM :
DEN.GM/CC :
SP.MV :
~A
# ...
  266.7500   260.6410   -41.5560    14.2460    56.5560    14.7130    14.5380    15.4080    23.8150     2.4560    -9.8090 
  266.8750   260.7590   -41.5950    14.2600    56.5560    14.7130    14.5380    15.7520    23.8350     2.4490    -9.7320 
  267.0000   260.8770   -41.6340    14.2730    56.5560    14.7130    14.5380    15.9930    23.8500     2.4490    -9.6010 
  267.1250   260.9940   -41.6730    14.2870    56.5560    14.7130    14.5380    15.6790    23.8530     2.4560    -9.4800 
  267.2500   261.1120   -41.7130    14.3010    56.5560    14.7130    14.5380    15.2430    23.8510     2.4630    -9.4280 
  267.3750   261.2300   -41.7520    14.3150    56.5560    14.7130    14.5380    14.5070    23.8490     2.4620    -9.4660 
  267.5000   261.3480   -41.7910    14.3290    56.5560    14.7130    14.5380    13.7020    23.8490     2.4500    -9.5630 
  267.6250   261.4660   -41.8310    14.3430    56.5560    14.7130    14.5380    13.3150    23.8590     2.4220    -9.6620 
  267.7500   261.5840   -41.8700    14.3570    56.5560    14.7130    14.5380    13.3220    23.8790     2.3850    -9.7350 
  267.8750   261.7010   -41.9090    14.3700    56.5560    14.7130    14.5380    13.7140    23.8990     2.3400    -9.7750 
  268.0000   261.8190   -41.9490    14.3840    56.5560    14.7130    14.5380    14.1130    23.9100     2.2910    -9.7960 
  268.1250   261.9440   -41.9490    14.3840    56.5560    14.7130    14.5380    14.0110    23.9080     2.2450    -9.8240 
  268.2500   262.0690   -41.9490    14.3840    56.5560    14.7130    14.5380    13.6300    23.8880     2.2170    -9.8590 
  268.3750   262.1940   -41.9490    14.3840    56.5560    14.7130    14.5380    11.2620    23.3460     2.2200    -9.8970 
  268.5000   262.3190   -41.9490    14.3840    56.5560    14.7130    14.5380     9.9280    22.5870     2.2430    -9.9040 
  268.6250   262.4440   -41.9490    14.3840    56.5560    14.7130    14.5380     9.2020    21.9840     2.2590    -9.9040 
  268.7500   262.5690   -41.9490    14.3840    56.5560    14.7130    14.5380     9.0520    21.6890     2.2470  -999.2500 
  268.8750   262.6940   -41.9490    14.3840    56.5560    14.7130    14.5380     9.0610    21.5520     2.2140  -999.2500 
  269.0000   262.8190   -41.9490    14.3840    56.5560    14.7130    14.5380     8.9650    21.4060     2.1800  -999.2500 
  269.1250   262.9440   -41.9490    14.3840    56.5560    14.7130    14.5380     8.7400    21.2910     2.1570  -999.2500 
  269.2500   263.0690   -41.9490    14.3840    56.5560    14.7130    14.5380     8.4520    21.2380     2.1470  -999.2500 
  269.3750   263.1940   -41.9490    14.3840    56.5560    14.7130    14.5380     8.1860    21.2280     2.1450  -999.2500 
  269.5000   263.3190   -41.9490    14.3840    56.5560    14.7130    14.5380     8.0770    21.2270     2.1450  -999.2500 
  269.6250   263.4440   -41.9490    14.3840    56.5560    14.7130    14.5380     8.0480    21.2250     2.1450  -999.2500 
  269.7500   263.5690   -41.9490    14.3840    56.5560    14.7130    14.5380     8.0450    21.2250     2.1470  -999.2500 
  269.8750   263.6940   -41.9490    14.3840    56.5560    14.7130    14.5380     8.0430    21.2260     2.1520  -999.2500 
  270.0000   263.8190   -41.9490    14.3840    56.5560    14.7130    14.5380     8.0420    21.2250     2.1570  -999.2500 
  270.1250   263.9440   -41.9490    14.3840    56.5560    14.7130    14.5380     8.0400    21.2240     2.1540  -999.2500 
  270.2500   264.0690   -41.9490    14.3840    56.5560    14.7130    14.5380     8.0370    21.2230     2.1450  -999.2500 
  270.3750   264.1940   -41.9490    14.3840    56.5560    14.7130    14.5380     8.0340    21.2190     2.1350  -999.2500 
  270.5000   264.3190   -41.9490    14.3840    56.5560    14.7130    14.5380     8.0320    21.2150     2.1270  -999.2500 
  270.6250   264.4440   -41.9490    14.3840    56.5560    14.7130    14.5380     8.0320    21.2150     2.1210  -999.2500 
  270.7500   264.5690   -41.9490    14.3840    56.5560    14.7130    14.5380     8.0320    21.2150     2.1160  -999.2500 
  270.8750   264.6940   -41.9490    14.3840  -999.2500  -999.2500  -999.2500  -999.2500  -999.2500     2.1160  -999.2500 
  271.0000   264.8190   -41.9490    14.3840  -999.2500  -999.2500  -999.2500  -999.2500  -999.2500     2.1190  -999.2500 
  271.1250   264.9440   -41.9490    14.3840  -999.2500  -999.2500  -999.2500  -999.2500  -999.2500     2.1210  -999.2500 
  271.2500   265.0690   -41.9490    14.3840  -999.2500  -999.2500  -999.2500  -999.2500  -999.2500     2.1220  -999.2500 
  271.3750   265.1940   -41.9490    14.3840  -999.2500  -999.2500  -999.2500  -999.2500  -999.2500  -999.2500  -999.2500 
  271.5000   265.3190   -41.9490    14.3840  -999.2500  -999.2500  -999.2500  -999.2500  -999.2500  -999.2500  -999.2500 
  271.6250   265.4440   -41.9490    14.3840  -999.2500  -999.2500  -999.2500  -999.2500  -999.2500  -999.2500  -999.2500 
  271.7500   265.5690   -41.9490    14.3840  -999.2500  -999.2500  -999.2500  -999.2500  -999.2500  -999.2500  -999.2500 
  271.8750   265.6940   -41.9490    14.3840  -999.2500  -999.2500  -999.2500  -999.2500  -999.2500  -999.2500  -999.2500 
  272.0000   265.8190   -41.9490    14.3840  -999.2500  -999.2500  -999.2500  -999.2500  -999.2500  -999.2500  -999.2500 
  272.1250   265.9440   -41.9490    14.3840  -999.2500  -999.2500  -999.2500  -999.2500  -999.2500  -999.2500  -999.2500 
  272.2500   266.0690   -41.9490    14.3840  -999.2500  -999.2500  -999.2500  -999.2500  -999.2500  -999.2500  -999.2500 
  272.3750   266.1940   -41.9490    14.3840  -999.2500  -999.2500  -999.2500  -999.2500  -999.2500  -999.2500  -999.2500 
  272.5000   266.3190   -41.9490    14.3840  -999.2500  -999.2500  -999.2500  -999.2500  -999.2500  -999.2500  -999.2500 
  272.6250   266.4440   -41.9490    14.3840  -999.2500  -999.2500  -999.2500  -999.2500  -999.2500  -999.2500  -999.2500 
  272.7500   266.5690   -41.9490    14.3840  -999.2500  -999.2500  -999.2500  -999.2500  -999.2500  -999.2500  -999.2500 
  272.8750   266.6940   -41.9490    14.3840  -999.2500  -999.2500  -999.2500  -999.2500  -999.2500  -999.2500  -999.2500 
  273.0000   266.8190   -41.9490    14.3840  -999.2500  -999.2500  -999.2500  -999.2500  -999.2500  -999.2500  -999.2500 
