~V
VERS. 2.00: Ver 2.00
~W
STRT.M 20.0000:
STOP.M 277.0000:
STEP.M 0.1250:
NULL. -999.2500:
UWI. FD11024:
~C
DEPT.M :
TVD. :
DX. :
DY. :
DEN.GM/CC :
GR.API :
RML.OHMM :
RI. :
RXO.OHMM :
CALI.CM :
SP.MV :
~A
# ...
   36.5000    36.5000     0.0170     0.0070     2.0980    57.7840     7.6860     7.2900     5.9580    25.8590   -41.0980 
   36.6250    36.6250     0.0190     0.0080     2.0890    59.6750     8.3110     7.5730     6.0380    25.9330   -41.0860 
   36.7500    36.7500     0.0200     0.0080     2.0740    61.2680     9.5340     8.2540     6.2430    25.6810   -41.0650 
   36.8750    36.8750     0.0210     0.0090     2.0580    58.5130    11.1490     9.2850     6.6440    25.2540   -40.9890 
   37.0000    37.0000     0.0230     0.0090     2.0450    53.2140    12.8030    10.5260     6.9100    25.1990   -40.8490 
   37.1250    37.1250     0.0240     0.0100     2.0390    52.0270    13.8950    11.6670     7.0500    25.2650   -40.5890 
   37.2500    37.2500     0.0260     0.0110     2.0370    54.3190    14.1050    12.3620     7.4200    25.2370   -40.2770 
   37.3750    37.3750     0.0270     0.0110     2.0370    57.2380    13.4240    12.4250     7.8670    25.0590   -39.9230 
   37.5000    37.5000     0.0280     0.0120     2.0390    58.0800    12.1690    11.9250     8.2390    25.1100   -39.5700 
   37.6250    37.6250     0.0300     0.0120     2.0450    57.8140    10.9160    11.1330     8.1620    25.4120   -39.2680 
   37.7500    37.7500     0.0310     0.0130     2.0530    56.7350    10.0760    10.3680     7.8820    25.7590   -38.9700 
   37.8750    37.8750     0.0330     0.0140     2.0610    52.7810     9.6990     9.7180     7.5430    26.0740   -38.6480 
   38.0000    38.0000     0.0340     0.0140     2.0700    48.9650     9.6050     9.1490     7.3600    26.3670   -38.2780 
   38.1250    38.1250     0.0350     0.0150     2.0820    51.9350     9.4130     8.5400     7.5460    26.5870   -37.8740 
   38.2500    38.2500     0.0370     0.0150     2.1030    58.1400     8.8750     7.8150     7.6430    26.8830   -37.4580 
   38.3750    38.3750     0.0380     0.0160     2.1310    60.1660     8.0460     7.0080     7.1980    27.1300   -37.0290 
   38.5000    38.5000     0.0400     0.0170     2.1590    58.5840     7.1870     6.2510     6.4240    26.9610   -36.6140 
   38.6250    38.6250     0.0410     0.0170     2.1710    59.3570     6.6300     5.7280     6.0410    26.6270   -36.2700 
   38.7500    38.7500     0.0420     0.0180     2.1610    61.1180     6.4630     5.4900     5.8520    26.9990   -36.0510 
   38.8750    38.8750     0.0440     0.0180     2.1280    61.5450     6.6790     5.5350     5.8720    27.8070   -35.9640 
   39.0000    39.0000     0.0450     0.0190     2.0830    60.0430     7.1700     5.8010     6.4660    28.8320   -36.0370 
   39.1250    39.1250     0.0470     0.0190     2.0430    55.8000     7.7260     6.1770     6.8760    30.1430   -36.2290 
   39.2500    39.2500     0.0480     0.0200     2.0170    50.0340     8.1060     6.5040     7.0050    30.7030   -36.4190 
   39.3750    39.3750     0.0500     0.0210     2.0030    47.2950     8.1790     6.6970     6.8900    30.9500   -36.6040 
   39.5000    39.5000     0.0510     0.0210     1.9940    48.2920     7.9540     6.7320     6.7580    30.8890   -36.7650 
   39.6250    39.6250     0.0520     0.0220     1.9760    50.0910     7.5650     6.6300     6.7190    30.6760   -36.8450 
   39.7500    39.7500     0.0540     0.0220     1.9540    52.3380     7.2070     6.4810     6.8130    30.4970   -36.8090 
   39.8750    39.8750     0.0550     0.0230     1.9380    54.8810     6.9600     6.3440     6.8930    29.8890   -36.7000 
   40.0000    40.0000     0.0570     0.0240     1.9420    55.7450     6.8610     6.2710     6.5920    28.8420   -36.5170 
   40.1250    40.1250     0.0580     0.0240     1.9720    56.1780     6.9690     6.3330     6.3820    27.6840   -36.2980 
   40.2500    40.2500     0.0590     0.0250     2.0100    58.6680     7.2940     6.5410     6.2540    26.6540   -36.0850 
   40.3750    40.3750     0.0610     0.0250     2.0370    60.1940     7.8450     6.8640     6.3050    26.0650   -35.8720 
   40.5000    40.5000     0.0620     0.0260     2.0420    57.5920     8.5520     7.2020     6.4370    26.0730   -35.5910 
   40.6250    40.6250     0.0640     0.0270     2.0210    54.8920     9.1640     7.3380     6.4510    26.8350   -35.2320 
   40.7500    40.7500     0.0650     0.0270     1.9960    54.9370     9.3950     7.1580     6.4090    27.8050   -34.8480 
   40.8750    40.8750     0.0660     0.0280     1.9820    55.5310     9.1410     6.6900     6.4360    28.3210   -34.4270 
   41.0000    41.0000     0.0680     0.0280     1.9860    54.1060     8.5570     6.1000     6.2780    28.4000   -33.9950 
   41.1250    41.1250     0.0690     0.0290     2.0050    54.0150     8.0220     5.6240     5.8250    27.9100   -33.6430 
   41.2500    41.2500     0.0710     0.0290     2.0270    58.7610     7.8340     5.3920     5.6710    27.2570   -33.3970 
   41.3750    41.3740     0.0720     0.0300     2.0440    63.7840     8.0810     5.4510     6.0520    26.8440   -33.2070 
   41.5000    41.4990     0.0730     0.0310     2.0520    62.7110     8.7220     5.7890     6.4750    26.7920   -33.0260 
   41.6250    41.6240     0.0750     0.0310     2.0550    56.4060     9.6510     6.3710     6.5870    27.3000   -32.8440 
   41.7500    41.7490     0.0760     0.0320     2.0600    53.1100    10.5410     7.0430     6.5840    27.5420   -32.5700 
   41.8750    41.8740     0.0780     0.0320     2.0700    53.7730    11.0240     7.6430     6.7010    27.9170   -32.1170 
   42.0000    41.9990     0.0790     0.0330     2.0870    54.3350    10.7660     7.9790     6.7780    28.1310   -31.4660 
   42.1250    42.1240     0.0800     0.0340     2.1090    53.3800     9.6100     7.7960     6.6570    27.6530   -30.4980 
   42.2500    42.2490     0.0820     0.0340     2.1320    53.7990     8.0130     7.1380     6.3380    26.9520   -29.2610 
   42.3750    42.3740     0.0830     0.0350     2.1490    57.6410     6.3810     6.1630     5.7740    26.7590   -27.8680 
   42.5000    42.4990     0.0850     0.0350     2.1600    66.9460     5.0510     5.1340     4.9140    27.3420   -26.5430 
   42.6250    42.6240     0.0860     0.0360     2.1610    76.5620     4.3050     4.3600     4.1570    27.6670   -25.4310 
   42.7500    42.7490     0.0880     0.0370     2.1570    81.9910     4.1070     3.9520     3.8300    27.0430   -24.6360 
   42.8750    42.8740     0.0890     0.0370     2.1510    83.5260     4.4760     3.9610     3.8560    26.2470   -24.2360 
   43.0000    42.9990     0.0900     0.0380     2.1500    81.8330     5.4370     4.4080     4.1720    25.8140   -24.2070 
   43.1250    43.1240     0.0920     0.0380     2.1570    74.2540     7.0330     5.3300     4.8970    25.8730   -24.5210 
   43.2500    43.2490     0.0930     0.0390     2.1700    62.6440     8.8580     6.4760     5.8830    26.0060   -24.9900 
   43.3750    43.3740     0.0950     0.0390     2.1840    54.4540    10.3190     7.4670     6.4930    25.8360   -25.5460 
   43.5000    43.4990     0.0960     0.0400     2.1940    54.5740    10.7700     7.8410     6.6960    25.5450   -26.0650 
   43.6250    43.6240     0.0970     0.0410     2.1980    59.9010     9.8660     7.3080     6.7790    25.6570   -26.3800 
   43.7500    43.7490     0.0990     0.0410     2.2020    63.7990     8.4040     6.3550     6.5860    26.0640   -26.4720 
   43.8750    43.8740     0.1000     0.0420     2.2070    64.1230     7.0560     5.4030     5.8040    26.1410   -26.3850 
   44.0000    43.9990     0.1020     0.0420     2.2120    63.3510     6.1820     4.6900     5.1770    25.6190   -26.1950 
   44.1250    44.1240     0.1030     0.0430     2.2110    63.1450     5.9160     4.3250     5.0620    24.9200   -25.9780 
   44.2500    44.2490     0.1060     0.0450     2.2030    62.3130     6.0710     4.2270     5.3920    24.7140   -25.8420 
   44.3750    44.3740     0.1090     0.0470     2.1880    60.8180     6.5180     4.3430     5.6340    25.0270   -25.8220 
   44.5000    44.4990     0.1120     0.0490     2.1670    61.4000     7.1240     4.6160     5.7410    25.4160   -25.8800 
   44.6250    44.6240     0.1150     0.0510     2.1410    64.9510     7.7800     5.0100     5.6750    25.7220   -26.0670 
