~V
VERS. 2.00: Ver 2.00
~W
STRT.M 35.0000:
STOP.M 279.0000:
STEP.M 0.1250:
NULL. -999.2500:
UWI. FD11183:
~C
DEPT.M :
TVD. :
DX. :
DY. :
SP.MV :
GR.API :
RI. :
RML.OHMM :
RXO.OHMM :
DEN.GM/CC :
~A
# ...
   98.8750    98.4450    -4.6240     2.3170  -100.1210    99.9360     3.0970     3.4270     4.1820     2.2870 
   99.0000    98.5660    -4.6540     2.3280  -100.1920    99.6450     3.0000     3.3140     3.8900     2.3020 
   99.1250    98.6870    -4.6830     2.3390  -100.1820    98.6090     2.9510     3.2470     3.5680     2.3120 
   99.2500    98.8080    -4.7120     2.3500  -100.1480    97.4950     3.0090     3.3080     3.6040     2.3070 
   99.3750    98.9290    -4.7420     2.3610  -100.1150   100.8080     3.2380     3.5770     4.0280     2.2890 
   99.5000    99.0500    -4.7720     2.3730  -100.0570   107.3660     3.7540     4.2070     4.2840     2.2650 
   99.6250    99.1700    -4.8020     2.3840   -99.9830   108.6620     4.5700     5.1870     4.3520     2.2340 
   99.7500    99.2910    -4.8310     2.3950   -99.9900   102.4330     5.3360     6.0720     4.6720     2.2060 
   99.8750    99.4120    -4.8610     2.4060  -100.0510    93.2040     5.7750     6.5350     5.0970     2.2080 
  100.0000    99.5330    -4.8920     2.4170  -100.1630    86.9240     5.7160     6.3760     5.4960     2.2400 
  100.1250    99.6540    -4.9220     2.4290  -100.2530    86.8780     5.2150     5.7010     5.3730     2.2670 
  100.2500    99.7740    -4.9520     2.4400  -100.2040    92.2610     4.6030     4.9520     4.6180     2.2590 
  100.3750    99.8950    -4.9820     2.4510  -100.1060    98.9830     4.0990     4.4170     4.3370     2.2320 
  100.5000   100.0160    -5.0130     2.4620   -99.9770   101.4280     3.8230     4.1920     4.5970     2.2150 
  100.6250   100.1370    -5.0440     2.4720   -99.8220    96.9410     3.7050     4.1300     4.7330     2.2110 
  100.7500   100.2570    -5.0740     2.4830   -99.6690    90.9630     3.6990     4.1560     4.6940     2.2130 
  100.8750   100.3780    -5.1050     2.4940   -99.5030    87.1870     3.7580     4.2140     4.4710     2.2260 
  101.0000   100.4990    -5.1360     2.5050   -99.4150    87.4740     3.8490     4.3060     4.2460     2.2650 
  101.1250   100.6190    -5.1670     2.5150   -99.4220    89.8550     4.0150     4.5240     5.0850     2.3290 
  101.2500   100.7400    -5.1980     2.5260   -99.4870    90.0440     4.1930     4.7560     7.1700     2.3740 
  101.3750   100.8600    -5.2290     2.5370   -99.5360    88.5250     4.2720     4.8420     7.7910     2.3520 
  101.5000   100.9810    -5.2610     2.5470   -99.5110    87.7720     4.1930     4.7140     6.2280     2.2850 
  101.6250   101.1010    -5.2920     2.5580   -99.4310    87.6530     4.0320     4.4780     5.0210     2.2330 
  101.7500   101.2220    -5.3240     2.5680   -99.4160    86.5700     3.9210     4.3250     4.6210     2.2230 
  101.8750   101.3420    -5.3560     2.5790   -99.4830    86.1300     4.0270     4.4730     4.4870     2.2290 
  102.0000   101.4630    -5.3870     2.5900   -99.5830    86.1770     4.3850     4.9400     5.9490     2.2160 
  102.1250   101.5830    -5.4190     2.6000   -99.6300    83.2230     4.8680     5.5490     9.7510     2.1900 
  102.2500   101.7040    -5.4510     2.6110   -99.7800    77.5060     5.2760     6.0300    13.3510     2.1760 
  102.3750   101.8240    -5.4830     2.6210  -100.2110    75.8750     5.4390     6.1810    13.4130     2.1840 
  102.5000   101.9440    -5.5160     2.6320  -100.8280    79.4340     5.3460     6.0120     9.9140     2.1950 
  102.6250   102.0650    -5.5480     2.6420  -101.4320    83.4040     5.0710     5.6570     6.3100     2.1980 
  102.7500   102.1850    -5.5800     2.6530  -101.7670    82.8730     4.7760     5.3270     5.0640     2.1920 
  102.8750   102.3050    -5.6130     2.6630  -101.8530    78.7690     4.5610     5.1110     5.1710     2.1830 
  103.0000   102.4250    -5.6450     2.6730  -101.9170    75.8050     4.3870     4.9280     5.1400     2.1890 
  103.1250   102.5460    -5.6780     2.6840  -102.0480    76.5280     4.2050     4.7190     4.6510     2.2230 
  103.2500   102.6660    -5.7110     2.6940  -102.1680    78.4020     4.0470     4.5300     4.1530     2.2560 
  103.3750   102.7860    -5.7440     2.7040  -102.1470    82.0340     3.9360     4.4060     4.0650     2.2560 
  103.5000   102.9060    -5.7770     2.7140  -102.0300    87.5760     3.9270     4.4110     4.1580     2.2360 
  103.6250   103.0260    -5.8100     2.7240  -101.9040    90.6620     3.9750     4.4740     4.2530     2.2180 
  103.7500   103.1460    -5.8430     2.7340  -101.9220    86.6450     4.0300     4.5190     4.5210     2.2040 
  103.8750   103.2660    -5.8760     2.7440  -102.0470    78.7710     4.0530     4.5020     4.7270     2.2000 
  104.0000   103.3860    -5.9090     2.7540  -102.1490    75.4060     4.0520     4.4560     4.4920     2.2130 
  104.1250   103.5070    -5.9430     2.7640  -102.1630    78.7320     4.1180     4.5050     4.1670     2.2310 
  104.2500   103.6270    -5.9760     2.7740  -102.1700    83.6290     4.2800     4.6850     4.1060     2.2340 
  104.3750   103.7470    -6.0090     2.7840  -102.1680    83.3770     4.5150     4.9620     4.2660     2.2420 
  104.5000   103.8670    -6.0430     2.7940  -102.1430    77.9400     4.7490     5.2440     4.5960     2.2880 
  104.6250   103.9870    -6.0770     2.8040  -102.1330    72.3910     4.8940     5.4040     4.8970     2.3490 
  104.7500   104.1070    -6.1100     2.8140  -102.1130    70.3250     4.8600     5.3370     4.9780     2.3600 
  104.8750   104.2260    -6.1440     2.8240  -102.0940    71.6650     4.6400     5.0640     4.8380     2.3110 
  105.0000   104.3460    -6.1780     2.8340  -101.9840    74.9390     4.3370     4.7180     4.5860     2.2590 
  105.1250   104.4660    -6.2120     2.8440  -101.8170    79.0710     4.0290     4.3920     4.3760     2.2390 
  105.2500   104.5860    -6.2470     2.8530  -101.6020    83.4500     3.7740     4.1280     4.2920     2.2370 
  105.3750   104.7060    -6.2810     2.8630  -101.3710    87.7100     3.5910     3.9340     4.1890     2.2390 
  105.5000   104.8260    -6.3160     2.8730  -101.2430    89.3830     3.4800     3.8150     4.0100     2.2490 
  105.6250   104.9450    -6.3500     2.8820  -101.2610    88.4350     3.5100     3.8640     3.8650     2.2680 
  105.7500   105.0650    -6.3850     2.8920  -101.3950    87.2270     3.6860     4.0880     3.9110     2.2840 
  105.8750   105.1850    -6.4200     2.9020  -101.6060    86.2430     4.0130     4.4780     4.4930     2.2830 
  106.0000   105.3040    -6.4550     2.9110  -101.8670    81.6860     4.4510     4.9760     5.3190     2.2590 
  106.1250   105.4240    -6.4900     2.9210  -102.2080    72.9860     4.8630     5.4120     5.6830     2.2210 
  106.2500   105.5430    -6.5250     2.9300  -102.6810    65.8490     5.1980     5.7450     5.6180     2.1890 
  106.3750   105.6630    -6.5600     2.9390  -103.2940    62.4310     5.4150     5.9420     5.5520     2.1700 
  106.5000   105.7820    -6.5960     2.9490  -103.8820    63.4060     5.5360     6.0570     5.5670     2.1690 
  106.6250   105.9020    -6.6310     2.9580  -104.2670    66.7320     5.6910     6.2420     5.6810     2.1800 
  106.7500   106.0210    -6.6670     2.9680  -104.4960    70.2520     5.9010     6.5030     6.1070     2.1930 
  106.8750   106.1410    -6.7030     2.9770  -104.6240    71.6090     6.1380     6.8070     6.6120     2.1920 
  107.0000   106.2600    -6.7390     2.9860  -104.6970    70.1540     6.3770     7.1110     6.6900     2.1790 
  107.1250   106.3800    -6.7750     2.9960  -104.7200    67.6710     6.6300     7.4510     6.6500     2.1650 
  107.2500   106.4990    -6.8110     3.0050  -104.6630    67.5310     6.9090     7.8410     6.8380     2.1630 
  107.3750   106.6180    -6.8470     3.0140  -104.5570    70.9190     7.1790     8.2110     7.6160     2.1730 
  107.5000   106.7370    -6.8830     3.0240  -104.4740    74.9760     7.3690     8.4700     8.3020     2.1800 
  107.6250   106.8570    -6.9190     3.0330  -104.4430    74.6920     7.3930     8.4830     8.3440     2.1740 
  107.7500   106.9760    -6.9560     3.0420  -104.3890    71.5110     7.2450     8.2580     7.6930     2.1570 
  107.8750   107.0950    -6.9920     3.0520  -104.3500    67.3000     6.9820     7.8830     7.2400     2.1360 
