~V
VERS. 2.00: Ver 2.00
~W
STRT.M 30.0000:
STOP.M 272.0000:
STEP.M 0.1250:
NULL. -999.2500:
UWI. FD11176:
~C
DEPT.M :
TVD. :
DX. :
DY. :
SP.MV :
GR.API :
RI. :
RML.OHMM :
RXO.OHMM :
DEN.GM/CC :
~A
# ...
  267.2500   252.7060    68.1270   -31.9730    -4.8970    62.6860     2.9360     4.1040     4.4220     2.3170 
  267.3750   252.8190    68.1760   -31.9950    -4.8970    62.6860     2.9360     4.1040     4.4780     2.3430 
  267.5000   252.9330    68.2240   -32.0170    -4.8970    62.6860     2.9360     4.1040     4.3380     2.3820 
  267.6250   253.0460    68.2730   -32.0390    -4.8970    62.6860     2.9360     4.1040     4.2150     2.4020 
  267.7500   253.1590    68.3210   -32.0610    -4.8970    62.6860     2.9360     4.1040     4.1080     2.3800 
  267.8750   253.2720    68.3700   -32.0830    -4.8970    62.6860     2.9360     4.1040     3.9560     2.3300 
  268.0000   253.3850    68.4180   -32.1050    -4.8970    62.6860     2.9360     4.1040     3.9460     2.2940 
  268.1250   253.4980    68.4670   -32.1270    -4.8970    62.6860     2.9360     4.1040     4.3110     2.2890 
  268.2500   253.6110    68.5150   -32.1490    -4.8970    62.6860     2.9360     4.1040     4.4640     2.2960 
  268.3750   253.7240    68.5640   -32.1710    -4.8970    62.6860     2.9360     4.1040     4.1080     2.2910 
  268.5000   253.8370    68.6130   -32.1930    -4.8970    62.6860     2.9360     4.1040     3.8270     2.2670 
  268.6250   253.9500    68.6610   -32.2150    -4.8970    62.6860     2.9360     4.1040     3.7880     2.2380 
  268.7500   254.0630    68.7100   -32.2370    -4.8970    62.6860     2.9360     4.1040     3.9850     2.2240 
  268.8750   254.1760    68.7580   -32.2590    -4.8970    62.6860     2.9360     4.1040     4.5540     2.2190 
  269.0000   254.2890    68.8070   -32.2810    -4.8970    62.6860     2.9360     4.1040     5.0420     2.2020 
  269.1250   254.4020    68.8550   -32.3030    -4.8970    62.6860     2.9360     4.1040     5.1320     2.1710 
  269.2500   254.5150    68.9040   -32.3250    -4.8970    62.6860     2.9360     4.1040     5.1210     2.1490 
  269.3750   254.6290    68.9520   -32.3470    -4.8970    62.6860     2.9360     4.1040     5.1310     2.1460 
  269.5000   254.7420    69.0010   -32.3690    -4.8970    62.6860     2.9360     4.1040     5.1300     2.1530 
  269.6250   254.8550    69.0500   -32.3910    -4.8970    62.6860     2.9360     4.1040     5.1310     2.1580 
  269.7500   254.9680    69.0980   -32.4130    -4.8970    62.6860     2.9360     4.1040     5.1320     2.1550 
  269.8750   255.0810    69.1470   -32.4350    -4.8970    62.6860     2.9360     4.1040     5.1320     2.1530 
  270.0000   255.1940    69.1950   -32.4570    -4.8970    62.6860     2.9360     4.1040     5.1310     2.1570 
  270.1250   255.3070    69.2440   -32.4790    -4.8970    62.6860     2.9360     4.1040     5.1310     2.1610 
  270.2500   255.4200    69.2920   -32.5010    -4.8970    62.6860     2.9360     4.1040     5.1300     2.1580 
  270.3750   255.5330    69.3410   -32.5230    -4.8970    62.6860     2.9360     4.1040     5.1300     2.1540 
  270.5000   255.6460    69.3890   -32.5450    -4.8970    62.6860     2.9360     4.1040     5.1290     2.1530 
  270.6250   255.7590    69.4380   -32.5670    -4.8970    62.6860     2.9360     4.1040     5.1290     2.1580 
  270.7500   255.8720    69.4870   -32.5890    -4.8970    62.6860     2.9360     4.1040     5.1290     2.1650 
  270.8750   255.9850    69.5350   -32.6110    -4.8970    62.6860     2.9360     4.1040     5.1300     2.1680 
  271.0000   256.0980    69.5840   -32.6330    -4.8970    62.6860     2.9360     4.1040     5.1290     2.1610 
  271.1250   256.2110    69.6320   -32.6550    -4.8970    62.6860     2.9360     4.1040     5.1290     2.1510 
  271.2500   256.3250    69.6810   -32.6770    -4.8970    62.6860     2.9360     4.1040     5.1290     2.1460 
  271.3750   256.4380    69.7290   -32.6990    -4.8970    62.6860     2.9360     4.1040     5.1290     2.1460 
  271.5000   256.5510    69.7780   -32.7210    -4.8970    62.6860     2.9360     4.1040     5.1280     2.1450 
  271.6250   256.6640    69.8260   -32.7430    -4.8970    62.6860     2.9360     4.1040     5.1250     2.1430 
  271.7500   256.7770    69.8750   -32.7650    -4.8970    62.6860     2.9360     4.1040     5.1230     2.1450 
  271.8750   256.8900    69.9240   -32.7870    -4.8970    62.6860     2.9360     4.1040     5.1220     2.1510 
  272.0000   257.0030    69.9720   -32.8090    -4.8970    62.6860     2.9360     4.1040     5.1220     2.1510 
