~V
VERS. 2.00: Ver 2.00
~W
STRT.M 20.0000:
STOP.M 286.0000:
STEP.M 0.1250:
NULL. -999.2500:
UWI. FD11156:
~C
DEPT.M :
TVD. :
DX. :
DY. :
DEN.GM/CC :
GR.API :
RML.OHMM :
RI. :
RXO.OHMM :
CALI.CM :
SP.MV :
~A
# ...
  176.7500   175.5010     4.2150   -12.4280     2.3710    75.0070    31.7550    30.3640    13.5340    22.5630   -26.0670 
  176.8750   175.6210     4.2300   -12.4590     2.3610    72.1180    34.5330    31.4740    15.1630    22.6410   -26.3020 
  177.0000   175.7410     4.2440   -12.4910     2.3430    67.8940    40.1610    34.9960    20.2320    22.6720   -26.6100 
  177.1250   175.8610     4.2580   -12.5220     2.3210    66.9330    49.0700    41.4840    29.4210    22.6700   -27.0260 
  177.2500   175.9810     4.2730   -12.5530     2.3010    66.6080    60.3970    50.3540    45.7400    22.6730   -27.4370 
  177.3750   176.1020     4.2870   -12.5840     2.2860    64.6170    72.9150    60.6510    59.9190    22.6770   -27.8240 
  177.5000   176.2220     4.3020   -12.6150     2.2750    62.3530    84.6070    70.5920    57.9660    22.6750   -28.2080 
  177.6250   176.3420     4.3160   -12.6470     2.2690    63.1660    92.9190    77.8000    53.1170    22.7060   -28.5270 
  177.7500   176.4620     4.3300   -12.6780     2.2640    64.0600    97.9660    82.0440    51.9060    22.7560   -28.7820 
  177.8750   176.5820     4.3450   -12.7090     2.2620    62.9240   100.9630    84.1390    54.3510    22.7650   -28.9680 
  178.0000   176.7030     4.3590   -12.7400     2.2600    60.9010   103.2510    85.2240    57.5610    22.7610   -29.0740 
  178.1250   176.8230     4.3730   -12.7710     2.2610    58.6840   105.1980    85.8450    58.8300    22.7080   -29.0760 
  178.2500   176.9430     4.3880   -12.8030     2.2640    56.8000   106.5380    86.0870    58.6620    22.5130   -29.0010 
  178.3750   177.0630     4.4020   -12.8340     2.2660    57.2880   107.2620    86.0530    59.0110    22.3330   -28.8800 
  178.5000   177.1830     4.4170   -12.8650     2.2670    60.4330   107.7190    86.0490    60.6140    22.2890   -28.7250 
  178.6250   177.3030     4.4310   -12.8960     2.2670    63.5140   108.2490    86.4300    62.7920    22.2840   -28.5680 
  178.7500   177.4240     4.4450   -12.9270     2.2650    64.3190   108.8900    87.2490    63.6570    22.2670   -28.3650 
  178.8750   177.5440     4.4600   -12.9580     2.2650    62.9210   109.5140    88.4720    63.8860    22.1680   -28.1250 
  179.0000   177.6640     4.4740   -12.9900     2.2680    60.2420   109.9550    89.9610    65.0410    22.0720   -27.8760 
  179.1250   177.7840     4.4880   -13.0210     2.2710    58.3250   109.7080    91.1700    65.6320    22.0300   -27.5950 
  179.2500   177.9040     4.5030   -13.0520     2.2730    58.3830   108.0100    91.2040    63.9610    21.9490   -27.3110 
  179.3750   178.0250     4.5170   -13.0830     2.2750    59.6830   103.8710    89.0800    60.9240    21.9020   -27.0130 
  179.5000   178.1450     4.5320   -13.1150     2.2780    61.7120    96.8870    84.2590    55.8050    21.8940   -26.6970 
  179.6250   178.2640     4.5500   -13.1480     2.2860    63.1580    87.8040    77.0070    47.8010    21.8940   -26.3550 
  179.7500   178.3830     4.5670   -13.1810     2.2990    63.5140    78.6000    69.0020    38.0410    21.8940   -26.0290 
  179.8750   178.5020     4.5850   -13.2140     2.3140    61.4340    70.0630    61.1380    30.3560    21.8920   -25.7250 
  180.0000   178.6220     4.6020   -13.2460     2.3280    55.5840    62.1570    53.7750    27.4460    21.8840   -25.4390 
  180.1250   178.7410     4.6200   -13.2790     2.3390    50.7750    54.6450    47.1370    29.4500    21.8400   -25.2590 
  180.2500   178.8600     4.6370   -13.3120     2.3490    53.8690    47.8870    41.4520    31.2750    21.8100   -25.1300 
  180.3750   178.9800     4.6550   -13.3450     2.3590    62.5630    43.0930    37.3250    28.1530    21.7680   -25.0750 
  180.5000   179.0990     4.6730   -13.3780     2.3660    69.5450    41.7970    35.5340    23.1800    21.7530   -25.1150 
  180.6250   179.2180     4.6900   -13.4110     2.3600    70.9500    46.4230    37.6870    22.3870    21.7490   -25.2170 
  180.7500   179.3380     4.7080   -13.4440     2.3420    69.3240    57.4360    44.6820    26.2140    21.7760   -25.4070 
  180.8750   179.4570     4.7250   -13.4770     2.3150    64.3730    75.7800    58.1260    38.2730    21.9090   -25.6250 
  181.0000   179.5760     4.7430   -13.5090     2.2870    56.9440   101.5070    79.0200    64.6550    22.0280   -25.8580 
  181.1250   179.6960     4.7600   -13.5420     2.2650    50.8420   131.0540   105.5720    86.3870    22.0140   -26.0840 
  181.2500   179.8150     4.7780   -13.5750     2.2440    49.4380   153.3130   128.2460    76.2610    21.9080   -26.2850 
  181.3750   179.9340     4.7950   -13.6080     2.2300    53.9020   159.0180   138.1680    60.7880    21.8350   -26.4540 
  181.5000   180.0540     4.8130   -13.6410     2.2290    60.9030   148.7110   133.5640    54.6020    21.8010   -26.5600 
  181.6250   180.1730     4.8300   -13.6740     2.2390    62.5900   131.4220   120.0830    55.4630    21.7610   -26.6020 
  181.7500   180.2920     4.8480   -13.7070     2.2510    60.5830   115.8690   106.1760    58.5390    21.7650   -26.5770 
  181.8750   180.4120     4.8650   -13.7400     2.2610    60.2120   103.6540    94.3290    61.5120    21.8290   -26.5160 
  182.0000   180.5310     4.8830   -13.7720     2.2680    61.9710    93.8210    84.5560    60.2730    21.8830   -26.4240 
  182.1250   180.6500     4.9000   -13.8050     2.2750    62.4710    84.5200    75.8870    55.3730    21.8920   -26.3050 
  182.2500   180.7700     4.9180   -13.8380     2.2810    62.2150    74.3810    67.0640    47.1440    21.8870   -26.1580 
  182.3750   180.8890     4.9350   -13.8710     2.2860    64.0230    63.7270    58.0290    39.4490    21.8500   -26.0210 
  182.5000   181.0080     4.9530   -13.9040     2.2910    67.4090    54.0050    49.6310    31.3610    21.8310   -25.8920 
  182.6250   181.1270     4.9700   -13.9370     2.2950    69.7510    47.2830    43.4300    22.8060    21.8330   -25.7930 
  182.7500   181.2470     4.9880   -13.9700     2.2990    69.9440    43.8610    39.9080    18.9600    21.8590   -25.7640 
  182.8750   181.3660     5.0050   -14.0030     2.3030    68.0040    43.5880    39.2310    22.7990    21.8680   -25.7620 
  183.0000   181.4850     5.0230   -14.0350     2.3080    64.3960    45.8750    41.1640    29.3500    21.7870   -25.8000 
  183.1250   181.6050     5.0400   -14.0680     2.3110    61.7420    49.9460    45.3060    32.2090    21.5450   -25.8440 
  183.2500   181.7240     5.0580   -14.1010     2.3130    62.5580    54.1790    50.1420    30.6070    21.4950   -25.8850 
  183.3750   181.8430     5.0750   -14.1340     2.3110    64.8600    57.2530    54.2910    28.5710    21.4370   -25.9350 
  183.5000   181.9630     5.0930   -14.1670     2.3080    63.9930    58.1710    56.4620    26.2800    21.3640   -25.9640 
  183.6250   182.0820     5.1100   -14.2000     2.3030    61.7010    56.2500    55.5610    24.4450    21.3520   -25.9780 
  183.7500   182.2010     5.1280   -14.2330     2.3000    62.6140    52.3530    52.2910    23.6750    21.3540   -25.9730 
  183.8750   182.3210     5.1450   -14.2660     2.3000    64.7540    47.0890    47.2800    22.7570    21.3590   -25.9630 
  184.0000   182.4400     5.1630   -14.2980     2.3050    65.1800    41.1210    41.2820    20.2460    21.3550   -25.9570 
  184.1250   182.5590     5.1800   -14.3310     2.3180    67.7120    35.4740    35.3540    17.9320    21.3300   -26.0120 
  184.2500   182.6790     5.1980   -14.3640     2.3350    73.2090    31.0580    30.4670    17.7290    21.2730   -26.1340 
  184.3750   182.7980     5.2160   -14.3970     2.3520    77.6700    28.4440    27.1540    18.7360    21.2220   -26.2870 
  184.5000   182.9170     5.2330   -14.4300     2.3670    79.7690    28.0360    25.7020    18.8600    21.2000   -26.5300 
  184.6250   183.0370     5.2510   -14.4630     2.3750    79.4230    30.7460    26.7630    17.1120    21.1960   -26.8550 
  184.7500   183.1560     5.2680   -14.4960     2.3730    75.8870    36.6990    30.5050    16.9290    21.1960   -27.2500 
  184.8750   183.2750     5.2860   -14.5290     2.3620    70.5480    46.3000    37.5840    21.5460    21.1970   -27.7180 
