~V
VERS. 2.00: Ver 2.00
~W
STRT.M 20.0000:
STOP.M 285.0000:
STEP.M 0.1250:
NULL. -999.2500:
UWI. FD11157:
~C
DEPT.M :
TVD. :
DX. :
DY. :
GR.API :
RML.OHMM :
RI. :
RXO.OHMM :
CALI.CM :
SP.MV :
DEN.GM/CC :
~A
# ...
  160.2500   159.2340    -5.9650   -12.2440    65.4210    35.8250    30.7280    23.8680    20.2830   -21.6520     2.1960 
  160.3750   159.3560    -5.9760   -12.2670    63.8000    36.6370    31.5100    24.6150    20.2670   -21.6860     2.1940 
  160.5000   159.4790    -5.9860   -12.2900    61.3700    37.4250    32.2870    24.3570    20.3850   -21.7110     2.1930 
  160.6250   159.6010    -5.9960   -12.3120    59.6020    38.1110    33.0800    24.2690    20.4370   -21.7520     2.1920 
  160.7500   159.7240    -6.0070   -12.3350    56.7230    38.7980    33.9560    24.6180    20.2920   -21.8120     2.1910 
  160.8750   159.8460    -6.0170   -12.3580    53.8550    39.5330    34.8840    25.7240    19.9920   -21.8760     2.1900 
  161.0000   159.9690    -6.0270   -12.3800    52.8560    40.1960    35.7090    27.4460    19.8190   -21.9550     2.1880 
  161.1250   160.0900    -6.0400   -12.4070    51.8710    40.3740    36.1130    27.5040    19.9590   -22.0150     2.1850 
  161.2500   160.2120    -6.0530   -12.4340    50.7910    39.8410    35.9710    26.5210    20.0190   -22.0380     2.1810 
  161.3750   160.3330    -6.0650   -12.4600    52.0180    38.4650    35.2220    25.0120    20.0260   -22.0660     2.1800 
  161.5000   160.4550    -6.0780   -12.4870    55.4500    36.1080    33.7480    24.1180    20.0840   -22.0900     2.1840 
  161.6250   160.5760    -6.0900   -12.5130    57.3310    32.4750    31.1230    23.6970    20.0730   -22.0430     2.1920 
  161.7500   160.6980    -6.1030   -12.5400    58.0730    27.8790    27.4030    23.8060    19.8420   -22.0080     2.2060 
  161.8750   160.8190    -6.1160   -12.5660    60.7730    22.7630    22.9350    23.8130    19.6550   -21.9740     2.2260 
  162.0000   160.9410    -6.1280   -12.5930    66.1440    20.2520    18.4110    21.9390    19.6900   -21.8900     2.2540 
  162.1250   161.0620    -6.1410   -12.6190    72.8940    16.1690    14.6990    17.5260    19.7030   -21.8270     2.2930 
  162.2500   161.1840    -6.1530   -12.6460    76.5430    13.2210    12.0190    13.3600    19.6340   -21.7890     2.3320 
  162.3750   161.3050    -6.1660   -12.6730    74.9840    11.3710    10.3380    10.8480    19.5970   -21.7380     2.3640 
  162.5000   161.4270    -6.1780   -12.6990    72.3680    10.4410     9.4910     9.9320    19.6350   -21.7140     2.3860 
  162.6250   161.5480    -6.1910   -12.7260    75.3640    10.2750     9.3410     9.8820    19.5620   -21.7290     2.3960 
  162.7500   161.6690    -6.2040   -12.7520    80.1830    10.4970     9.5430     9.9520    19.5530   -21.7630     2.4000 
  162.8750   161.7910    -6.2160   -12.7790    79.3160    10.8870     9.8980    10.0890    19.6090   -21.8290     2.4010 
  163.0000   161.9120    -6.2290   -12.8050    73.0680    11.2520    10.2290    10.3910    19.5450   -21.9160     2.4010 
  163.1250   162.0340    -6.2410   -12.8320    71.7240    11.4340    10.3940    10.7830    19.5430   -22.0320     2.4010 
  163.2500   162.1550    -6.2540   -12.8590    76.5820    11.4360    10.3960    10.8390    19.5700   -22.1630     2.4020 
  163.3750   162.2770    -6.2670   -12.8850    79.9140    11.3250    10.2950    10.5390    19.5430   -22.2990     2.4030 
  163.5000   162.3980    -6.2790   -12.9120    78.0070    11.2030    10.1850    10.3530    19.5970   -22.4540     2.4070 
  163.6250   162.5200    -6.2920   -12.9380    74.8950    11.1550    10.1410    10.4790    19.5480   -22.6670     2.4190 
  163.7500   162.6410    -6.3040   -12.9650    74.8420    11.1680    10.1520    10.6750    19.5030   -22.8750     2.4360 
  163.8750   162.7630    -6.3170   -12.9910    78.0500    11.1720    10.1560    10.7980    19.4950   -23.0780     2.4530 
  164.0000   162.8840    -6.3290   -13.0180    82.1910    11.1250    10.1140    10.8690    19.4940   -23.3450     2.4610 
  164.1250   163.0060    -6.3420   -13.0440    83.0180    11.1220    10.1110    11.0080    19.4940   -23.6750     2.4570 
  164.2500   163.1270    -6.3550   -13.0710    77.7140    11.3200    10.2910    11.4780    19.4980   -24.0420     2.4490 
  164.3750   163.2490    -6.3670   -13.0980    72.5480    11.8440    10.7670    11.8760    19.5180   -24.4950     2.4420 
  164.5000   163.3700    -6.3800   -13.1240    74.7450    12.7360    11.5780    12.4480    19.6480   -25.0000     2.4370 
  164.6250   163.4920    -6.3920   -13.1510    79.3260    13.9890    12.7170    13.3840    19.6640   -25.5250     2.4300 
  164.7500   163.6130    -6.4050   -13.1770    77.9120    15.4280    14.0260    14.8730    19.6840   -26.1450     2.4200 
  164.8750   163.7350    -6.4180   -13.2040    72.2250    16.8960    15.3600    15.9700    19.7740   -26.8240     2.4020 
  165.0000   163.8560    -6.4300   -13.2300    68.4270    18.2420    16.5840    16.0280    20.0360   -27.5220     2.3770 
  165.1250   163.9780    -6.4430   -13.2570    69.3220    19.4190    17.6540    15.2280    20.3800   -28.2570     2.3490 
  165.2500   164.0990    -6.4550   -13.2830    72.4550    20.6560    18.7780    14.9990    20.5610   -29.0110     2.3250 
  165.3750   164.2210    -6.4680   -13.3100    75.7160    22.3340    20.3040    15.6000    20.2740   -29.7700     2.3120 
  165.5000   164.3420    -6.4800   -13.3370    75.7740    24.9170    22.6520    16.6830    19.7740   -30.5380     2.3120 
  165.6250   164.4640    -6.4930   -13.3630    69.5340    29.2070    26.5520    17.9160    19.5870   -31.3130     2.3180 
  165.7500   164.5850    -6.5060   -13.3900    61.9920    35.4700    32.2450    19.1330    19.5100   -32.0790     2.3220 
  165.8750   164.7070    -6.5180   -13.4160    57.8290    43.9400    39.9460    20.6250    19.4960   -32.8410     2.3210 
  166.0000   164.8280    -6.5310   -13.4430    57.9660    54.4370    49.4880    21.8180    19.4940   -33.5720     2.3150 
  166.1250   164.9500    -6.5430   -13.4690    59.4720    66.2350    60.2140    23.1290    19.4940   -34.2650     2.3010 
  166.2500   165.0710    -6.5560   -13.4960    58.4240    77.7920    70.7200    24.8280    19.4980   -34.9480     2.2770 
  166.3750   165.1930    -6.5690   -13.5230    54.8430    88.1680    80.1520    25.8200    19.5190   -35.5820     2.2510 
  166.5000   165.3140    -6.5810   -13.5490    51.6950    97.1380    88.3070    25.5050    19.5500   -36.1850     2.2290 
  166.6250   165.4360    -6.5940   -13.5760    52.9490   105.3800    95.8000    24.5210    19.5070   -36.7650     2.2220 
  166.7500   165.5570    -6.6060   -13.6020    56.1030   114.4900   104.0820    24.0340    19.5260   -37.2720     2.2230 
  166.8750   165.6790    -6.6190   -13.6290    55.9930   125.7560   114.3240    24.3150    19.5370   -37.7600     2.2260 
  167.0000   165.8000    -6.6310   -13.6550    53.1250   139.9020   127.1840    24.6070    19.5590   -38.2550     2.2270 
  167.1250   165.9220    -6.6440   -13.6820    53.7680   156.7700   142.5180    25.0890    19.5760   -38.6970     2.2230 
  167.2500   166.0430    -6.6570   -13.7080    56.5540   173.9630   158.1490    25.7550    19.5760   -39.1160     2.2190 
  167.3750   166.1650    -6.6690   -13.7350    54.8980   189.5680   172.3340    26.5640    19.5750   -39.5160     2.2150 
  167.5000   166.2860    -6.6820   -13.7620    50.0420   202.9640   184.5120    27.0920    19.5680   -39.8480     2.2120 
  167.6250   166.4080    -6.6940   -13.7880    49.1250   214.9590   195.4170    27.0100    19.5140   -40.1510     2.2090 
  167.7500   166.5290    -6.7070   -13.8150    53.8330   226.9370   206.3060    26.2960    19.5190   -40.4190     2.2070 
  167.8750   166.6500    -6.7200   -13.8410    58.1330   239.1260   217.3870    26.2000    19.5600   -40.6100     2.2080 
  168.0000   166.7720    -6.7320   -13.8680    57.8450   251.5070   228.6430    26.3250    19.5710   -40.7590     2.2090 
  168.1250   166.8930    -6.7450   -13.8940    55.7400   263.9060   239.9140    26.6610    19.5800   -40.8520     2.2080 
  168.2500   167.0150    -6.7570   -13.9210    54.6280   275.1560   250.1420    26.7770    19.5810   -40.8840     2.2030 
  168.3750   167.1360    -6.7700   -13.9470    53.9390   283.2300   257.4820    26.9930    19.5810   -40.8840     2.1930 
