~V
VERS. 2.00: Ver 2.00
~W
STRT.M 15.0000:
STOP.M 219.0000:
STEP.M 0.1250:
NULL. -999.2500:
UWI. FD11101:
~C
DEPT.M :
TVD. :
DX. :
DY. :
GR.API :
RML.OHMM :
RI. :
RXO.OHMM :
CALI.CM :
SP.MV :
DEN.GM/CC :
~A
# ...
  196.5000   184.3700     9.4220    53.5410    94.3360     7.8050     7.6420     6.4420    21.2080    -4.8720     2.4200 
  196.6250   184.4780     9.4310    53.6040    92.3000     7.5610     7.3340     6.4610    21.3530    -4.7410     2.4020 
  196.7500   184.5850     9.4410    53.6670    88.9010     7.5270     7.2240     6.5660    21.4680    -4.6860     2.3930 
  196.8750   184.6930     9.4510    53.7300    85.2630     7.6550     7.2800     6.4820    21.3200    -4.6820     2.3920 
  197.0000   184.8000     9.4610    53.7930    86.0440     7.8910     7.4570     6.3100    21.0730    -4.6830     2.4000 
  197.1250   184.9080     9.4700    53.8560    92.5930     8.2100     7.7220     6.3600    20.8870    -4.7060     2.4150 
  197.2500   185.0150     9.4800    53.9190    98.9370     8.5830     8.0380     6.5570    20.8340    -4.7200     2.4340 
  197.3750   185.1230     9.4900    53.9820   103.7220     9.0050     8.3930     6.7410    20.8220    -4.7390     2.4490 
  197.5000   185.2300     9.5000    54.0450   107.8830     9.4700     8.7810     6.9300    20.8220    -4.7270     2.4570 
  197.6250   185.3380     9.5100    54.1080   110.0880     9.9560     9.1840     7.5320    20.8310    -4.6990     2.4590 
  197.7500   185.4450     9.5190    54.1710   111.2220    10.4150     9.5660     8.4240    20.8480    -4.6350     2.4580 
  197.8750   185.5530     9.5290    54.2340   110.4230    10.7890     9.8800     9.0540    20.8710    -4.6080     2.4550 
  198.0000   185.6600     9.5390    54.2970   106.4320    11.0350    10.0870     9.1430    20.8780    -4.6420     2.4500 
  198.1250   185.7680     9.5490    54.3600   101.3960    11.1290    10.1660     8.8280    20.8760    -4.7470     2.4420 
  198.2500   185.8750     9.5580    54.4240   100.1890    11.1410    10.1760     8.5540    20.8870    -4.8590     2.4340 
  198.3750   185.9830     9.5680    54.4870   102.1210    11.1230    10.1680     8.2860    20.9310    -4.9890     2.4290 
  198.5000   186.0900     9.5780    54.5500   104.4330    11.0890    10.1680     7.9690    20.9760    -5.1120     2.4310 
  198.6250   186.1980     9.5880    54.6130   107.4490    10.9960    10.1550     7.6630    21.0160    -5.2410     2.4390 
  198.7500   186.3050     9.5970    54.6760   109.2400    10.8080    10.0770     7.6660    21.0320    -5.3600     2.4440 
  198.8750   186.4130     9.6070    54.7390   107.1650    10.5290     9.9060     8.4520    21.0460    -5.4560     2.4430 
  199.0000   186.5200     9.6170    54.8020   102.3290    10.2090     9.6510     9.4280    21.0700    -5.4850     2.4340 
  199.1250   186.6280     9.6270    54.8650    98.1400     9.9350     9.3620     9.1030    21.0850    -5.4370     2.4210 
  199.2500   186.7350     9.6360    54.9280    94.3810     9.7470     9.1070     8.5550    21.1040    -5.3760     2.4090 
  199.3750   186.8430     9.6460    54.9910    91.3700     9.6460     8.9180     8.1110    21.1470    -5.3150     2.3990 
  199.5000   186.9500     9.6560    55.0540    90.9940     9.5970     8.7930     8.1080    21.2020    -5.3090     2.3920 
  199.6250   187.0570     9.6660    55.1170    94.7910     9.5430     8.7040     8.5160    21.2360    -5.3880     2.3880 
  199.7500   187.1650     9.6750    55.1800    98.2140     9.4270     8.5980     9.0360    21.2810    -5.5410     2.3870 
  199.8750   187.2720     9.6850    55.2430    98.1640     9.2240     8.4500     8.9420    21.3660    -5.7400     2.3850 
  200.0000   187.3800     9.6950    55.3060    97.2960     8.9440     8.2540     8.6990    21.4400    -6.0420     2.3800 
  200.1250   187.4870     9.7050    55.3700    97.2550     8.6320     8.0220     8.8260    21.4290    -6.4230     2.3740 
  200.2500   187.5950     9.7140    55.4330    95.8600     8.3490     7.7880     8.6860    21.3930    -6.8910     2.3700 
  200.3750   187.7020     9.7240    55.4960    93.4960     8.1280     7.5790     8.2570    21.3040    -7.4080     2.3720 
  200.5000   187.8100     9.7340    55.5590    93.4280     7.9900     7.4210     7.8790    21.0790    -7.8980     2.3770 
  200.6250   187.9170     9.7450    55.6220    96.0630     7.9610     7.3590     7.1860    20.8990    -8.2570     2.3780 
  200.7500   188.0240     9.7550    55.6850    97.6070     8.0310     7.3950     6.8880    20.8260    -8.5060     2.3770 
  200.8750   188.1320     9.7650    55.7490    98.3900     8.1780     7.5210     7.0160    20.8140    -8.6670     2.3750 
  201.0000   188.2390     9.7750    55.8120    99.7640     8.3550     7.7000     7.5710    20.8120    -8.7590     2.3790 
  201.1250   188.3460     9.7850    55.8750   101.1430     8.4750     7.8500     7.9480    20.8130    -8.7750     2.3870 
  201.2500   188.4540     9.7960    55.9380   101.6080     8.4720     7.8920     8.0010    20.8270    -8.7110     2.3930 
  201.3750   188.5610     9.8060    56.0020   101.0420     8.3240     7.7820     7.9400    20.8580    -8.5640     2.3940 
  201.5000   188.6680     9.8160    56.0650    98.3780     8.0600     7.5290     8.3110    20.8770    -8.3020     2.3910 
  201.6250   188.7760     9.8260    56.1280    94.3050     7.7520     7.1920     8.1070    20.8340    -7.9400     2.3910 
  201.7500   188.8830     9.8360    56.1910    91.9580     7.4980     6.8770     7.8010    20.8020    -7.5670     2.3950 
  201.8750   188.9900     9.8470    56.2550    90.8600     7.3530     6.6480     7.2960    20.8170    -7.2340     2.3990 
  202.0000   189.0980     9.8570    56.3180    88.5090     7.3310     6.5320     6.7330    20.8770    -6.8930     2.4000 
  202.1250   189.2050     9.8670    56.3810    86.0230     7.4220     6.5430     6.6860    20.8660    -6.6030     2.3970 
  202.2500   189.3120     9.8770    56.4440    86.6840     7.5690     6.6460     7.0990    20.8390    -6.3560     2.3930 
  202.3750   189.4200     9.8870    56.5080    88.9910     7.7450     6.8200     7.5100    20.8910    -6.1450     2.3940 
  202.5000   189.5270     9.8980    56.5710    89.8360     7.9270     7.0330     7.5790    21.0370    -6.0450     2.3990 
  202.6250   189.6340     9.9080    56.6340    90.4440     8.0740     7.2220     7.5810    21.1980    -6.0710     2.4090 
  202.7500   189.7420     9.9180    56.6970    92.3450     8.1400     7.3190     8.2140    21.3020    -6.1670     2.4160 
  202.8750   189.8490     9.9280    56.7610    94.6950     8.0810     7.2760     9.5470    21.3330    -6.2130     2.4180 
  203.0000   189.9560     9.9380    56.8240    96.7280     7.8910     7.0880    10.7510    21.3010    -6.2410     2.4150 
  203.1250   190.0640     9.9490    56.8870    95.8520     7.6230     6.8080     9.2290    21.2510    -6.1870     2.4100 
  203.2500   190.1710     9.9590    56.9500    91.3330     7.3910     6.5490     7.6570    21.3490    -6.0820     2.4060 
  203.3750   190.2780     9.9690    57.0140    86.7300     7.2600     6.3850     7.2980    21.6460    -5.9770     2.4050 
  203.5000   190.3860     9.9790    57.0770    85.1840     7.2370     6.3400     7.4770    22.0160    -5.9180     2.4030 
  203.6250   190.4930     9.9890    57.1400    86.3650     7.2610     6.3920     7.2940    22.2080    -5.8900     2.3990 
  203.7500   190.6000    10.0000    57.2030    87.1630     7.2320     6.4520     6.9820    22.2240    -5.8450     2.3920 
  203.8750   190.7080    10.0100    57.2670    86.8550     7.1070     6.4580     6.6940    22.1420    -5.8770     2.3830 
  204.0000   190.8150    10.0200    57.3300    85.0160     6.9100     6.3930     6.2430    22.0470    -6.0040     2.3750 
  204.1250   190.9220    10.0300    57.3930    82.7870     6.7410     6.2900     5.9220    22.0040    -6.2950     2.3720 
  204.2500   191.0300    10.0400    57.4560    82.9900     6.6850     6.2240     6.0580    21.9880    -6.6790     2.3780 
  204.3750   191.1370    10.0510    57.5200    85.1000     6.7680     6.2390     6.6540    22.0150    -7.0850     2.3940 
  204.5000   191.2440    10.0610    57.5830    86.2770     6.9650     6.3460     7.1010    22.1340    -7.4880     2.4140 
  204.6250   191.3520    10.0710    57.6460    85.4110     7.2130     6.5160     7.0500    22.3120    -7.9210     2.4210 
