~V
VERS. 2.00: Ver 2.00
~W
STRT.M 20.0000:
STOP.M 285.0000:
STEP.M 0.1250:
NULL. -999.2500:
UWI. FD11157:
~C
DEPT.M :
TVD. :
DX. :
DY. :
GR.API :
RML.OHMM :
RI. :
RXO.OHMM :
CALI.CM :
SP.MV :
DEN.GM/CC :
~A
# ...
  226.2500   221.8810   -14.0160   -31.1350    56.3300    66.8840    64.9580    16.4400    18.6900   -28.0500     2.1860 
  226.3750   221.9980   -14.0310   -31.1760    57.8810    63.1170    61.3160    16.7730    18.6370   -28.1600     2.1750 
  226.5000   222.1150   -14.0460   -31.2170    57.4100    60.2030    58.2050    17.9300    18.5750   -28.2970     2.1830 
  226.6250   222.2320   -14.0610   -31.2570    56.2620    58.8410    56.3550    20.0980    18.3830   -28.4740     2.2110 
  226.7500   222.3490   -14.0760   -31.2980    55.6430    59.1470    56.0200    22.9790    18.3080   -28.6670     2.2310 
  226.8750   222.4670   -14.0910   -31.3390    56.0980    61.3080    57.3820    25.8890    18.3970   -28.8690     2.2240 
  227.0000   222.5840   -14.1050   -31.3800    55.9340    65.2590    60.3200    27.9330    18.6620   -29.0850     2.1930 
  227.1250   222.7020   -14.1200   -31.4190    54.5260    70.5060    64.3090    25.7830    19.0390   -29.2890     2.1580 
  227.2500   222.8190   -14.1350   -31.4590    54.0250    75.4700    68.1100    22.3510    19.1170   -29.4730     2.1380 
  227.3750   222.9370   -14.1500   -31.4980    53.1490    78.9900    70.8720    20.2680    19.1490   -29.6260     2.1390 
  227.5000   223.0550   -14.1650   -31.5370    51.1660    80.7740    72.3120    19.7100    19.1280   -29.7510     2.1530 
  227.6250   223.1720   -14.1800   -31.5770    48.4020    81.3500    72.7800    19.9900    19.1220   -29.8070     2.1660 
  227.7500   223.2900   -14.1950   -31.6160    46.3830    81.9580    73.2670    19.9490    19.1090   -29.8190     2.1720 
  227.8750   223.4080   -14.2100   -31.6560    44.9850    83.2680    74.3450    19.3870    19.0850   -29.7580     2.1700 
  228.0000   223.5250   -14.2250   -31.6950    43.7680    85.4370    76.1580    18.9130    19.1290   -29.6610     2.1650 
  228.1250   223.6430   -14.2400   -31.7340    44.3920    88.1390    78.3670    18.4160    19.1900   -29.4980     2.1610 
  228.2500   223.7610   -14.2550   -31.7740    45.7850    90.4980    80.1240    17.9760    19.1690   -29.2730     2.1610 
  228.3750   223.8780   -14.2700   -31.8130    46.9040    91.8050    80.7500    17.3390    19.1330   -28.9850     2.1660 
  228.5000   223.9960   -14.2850   -31.8530    47.3400    91.4980    79.9160    16.8140    19.1000   -28.6360     2.1730 
  228.6250   224.1140   -14.3000   -31.8920    47.4290    88.9120    77.5350    16.6620    19.0720   -28.2430     2.1790 
  228.7500   224.2310   -14.3150   -31.9320    48.3540    84.3460    74.1490    16.6180    19.0910   -27.8250     2.1820 
  228.8750   224.3490   -14.3290   -31.9710    50.9560    78.1220    69.9790    16.7040    19.0670   -27.3930     2.1800 
  229.0000   224.4670   -14.3440   -32.0100    54.5860    70.9360    65.2130    16.9370    19.0670   -26.9400     2.1760 
  229.1250   224.5840   -14.3590   -32.0500    56.0460    63.7630    60.0540    16.8360    19.1010   -26.4820     2.1760 
  229.2500   224.7020   -14.3740   -32.0890    56.1250    57.3560    54.9120    16.2960    19.1130   -26.0740     2.1870 
  229.3750   224.8200   -14.3890   -32.1290    56.9930    51.9080    50.1020    15.8350    19.0780   -25.7060     2.2130 
  229.5000   224.9370   -14.4040   -32.1680    58.7790    47.2630    45.7940    15.7630    19.0580   -25.4030     2.2460 
  229.6250   225.0550   -14.4190   -32.2080    58.6540    43.3220    42.1130    15.6690    19.0860   -25.1310     2.2720 
  229.7500   225.1730   -14.4340   -32.2470    56.6800    39.8830    38.9050    15.1420    19.1440   -24.9030     2.2820 
  229.8750   225.2900   -14.4490   -32.2860    55.4650    36.9180    36.0820    14.2090    19.1740   -24.7200     2.2790 
  230.0000   225.4080   -14.4640   -32.3260    56.1130    34.3700    33.6050    13.2850    19.2140   -24.5730     2.2710 
  230.1250   225.5260   -14.4790   -32.3650    58.8910    32.2770    31.6080    12.7730    19.2160   -24.4850     2.2690 
  230.2500   225.6430   -14.4940   -32.4050    62.4760    30.7170    30.1610    12.2040    19.1730   -24.4330     2.2750 
  230.3750   225.7610   -14.5090   -32.4440    65.2170    29.9390    29.3820    11.6930    19.0810   -24.4270     2.2880 
  230.5000   225.8790   -14.5240   -32.4830    64.5350    30.2930    29.3870    11.3740    19.0500   -24.4340     2.3030 
  230.6250   225.9960   -14.5390   -32.5230    61.3240    32.4540    30.5510    11.0540    19.0450   -24.4490     2.3110 
  230.7500   226.1140   -14.5540   -32.5620    60.9100    36.5700    33.0520    10.8510    19.0390   -24.4680     2.3100 
  230.8750   226.2320   -14.5680   -32.6020    63.1390    43.0280    37.3450    10.8600    19.0190   -24.4950     2.3080 
  231.0000   226.3490   -14.5830   -32.6410    62.9410    52.2230    44.0260    10.8950    19.0340   -24.5260     2.3160 
  231.1250   226.4670   -14.5980   -32.6810    58.9070    65.0550    54.3070    11.3200    19.0440   -24.5260     2.3420 
  231.2500   226.5850   -14.6130   -32.7200    56.5900    80.9760    68.1880    12.1280    19.0460   -24.4810     2.3890 
  231.3750   226.7020   -14.6280   -32.7590    58.3430    98.9740    85.5260    13.2690    19.0550   -24.3890     2.4520 
  231.5000   226.8200   -14.6430   -32.7990    60.7440   115.1970   103.8410    14.8970    19.1030   -24.2700     2.5280 
  231.6250   226.9380   -14.6580   -32.8380    60.9820   116.7010   112.3120    17.7710    19.3960   -24.1410     2.6070 
  231.7500   227.0550   -14.6730   -32.8780    60.5740    96.9880   100.8480    21.9400    19.7630   -24.0110     2.6680 
  231.8750   227.1730   -14.6880   -32.9170    59.8860    65.0870    72.7800    25.5980    20.0020   -23.8540     2.6820 
  232.0000   227.2910   -14.7030   -32.9570    57.9910    36.9030    43.5110    25.2330    20.2970   -23.6850     2.6380 
  232.1250   227.4080   -14.7180   -32.9960    55.8090    30.0340    24.8210    16.9040    20.6760   -23.5220     2.5470 
  232.2500   227.5260   -14.7330   -33.0350    55.0360    16.9510    14.5420     9.7930    21.0260   -23.4170     2.4500 
  232.3750   227.6440   -14.7480   -33.0750    53.8730    10.3480     9.4070     6.1970    21.2760   -23.3940     2.3680 
  232.5000   227.7610   -14.7630   -33.1140    50.3220     7.6110     6.9190     5.2100    21.4330   -23.4600     2.3130 
  232.6250   227.8790   -14.7780   -33.1540    46.8360     6.4460     5.8600     5.0040    21.6190   -23.6430     2.2900 
  232.7500   227.9970   -14.7920   -33.1930    46.8340     5.9680     5.4250     4.7380    21.9750   -23.8850     2.2850 
  232.8750   228.1150   -14.8070   -33.2320    49.6110     5.8460     5.3140     4.5160    22.3470   -24.1950     2.2880 
  233.0000   228.2320   -14.8220   -33.2720    52.6560     5.8560     5.3240     4.3470    22.6470   -24.5410     2.2940 
  233.1250   228.3500   -14.8370   -33.3110    56.2940     5.9150     5.3780     4.1670    22.7240   -24.8940     2.2970 
  233.2500   228.4680   -14.8520   -33.3510    63.9710     6.0640     5.5130     3.9620    22.8680   -25.1820     2.2990 
  233.3750   228.5850   -14.8670   -33.3900    73.1320     6.3690     5.7900     4.0040    23.2230   -25.3200     2.3010 
  233.5000   228.7030   -14.8820   -33.4300    76.2640     6.8490     6.2270     4.5370    24.2960   -25.2560     2.3110 
  233.6250   228.8210   -14.8970   -33.4690    72.2260     7.4570     6.7790     5.7430    24.8680   -24.9420     2.3330 
  233.7500   228.9380   -14.9120   -33.5080    71.3240     8.0320     7.3020     6.9970    24.9760   -24.5060     2.3630 
  233.8750   229.0560   -14.9270   -33.5480    76.4920     8.4410     7.6730     7.5180    25.0110   -23.9820     2.3910 
  234.0000   229.1740   -14.9420   -33.5870    83.0800     8.6030     7.8210     7.5370    25.0270   -23.3950     2.4060 
  234.1250   229.2910   -14.9570   -33.6270    85.8010     8.5170     7.7430     7.5140    25.0540   -22.7670     2.4050 
  234.2500   229.4090   -14.9720   -33.6660    87.9510     8.3300     7.5730     7.4320    25.0550   -22.1470     2.3940 
  234.3750   229.5270   -14.9870   -33.7060    90.7890     8.1440     7.4030     7.4160    25.0960   -21.5970     2.3810 
