~V
VERS. 2.00: Ver 2.00
~W
STRT.M 40.0000:
STOP.M 279.0000:
STEP.M 0.1250:
NULL. -999.2500:
UWI. FD11188:
~C
DEPT.M :
TVD. :
DX. :
DY. :
SP.MV :
GR.API :
RI. :
RML.OHMM :
RXO.OHMM :
DEN.GM/CC :
~A
# ...
  195.1250   188.1630    10.1430    37.1320   -12.3400    71.7270    23.2320    24.4090    32.1650     2.2070 
  195.2500   188.2770    10.1520    37.1830   -12.5080    72.4160    22.7970    23.8630    33.0700     2.2200 
  195.3750   188.3910    10.1620    37.2340   -12.7340    73.6810    22.2940    23.2190    34.3740     2.2110 
  195.5000   188.5040    10.1710    37.2850   -12.9910    73.7240    22.0520    22.8720    35.2870     2.1870 
  195.6250   188.6180    10.1810    37.3360   -13.2470    73.7320    22.2480    22.9610    34.9400     2.1670 
  195.7500   188.7320    10.1900    37.3870   -13.4770    73.7550    23.1390    23.8260    32.6250     2.1580 
  195.8750   188.8460    10.2000    37.4380   -13.6750    72.6950    24.8700    25.5750    30.9410     2.1620 
  196.0000   188.9590    10.2090    37.4890   -13.8560    70.8340    27.4150    28.2880    33.4790     2.1650 
  196.1250   189.0730    10.2190    37.5400   -14.0390    69.3240    31.6500    32.9020    37.8080     2.1560 
  196.2500   189.1870    10.2280    37.5910   -14.2330    69.2650    37.4800    39.1770    42.1760     2.1410 
  196.3750   189.3000    10.2380    37.6420   -14.4370    68.5640    43.9810    46.0230    46.5300     2.1300 
  196.5000   189.4140    10.2480    37.6930   -14.6340    66.5900    49.4060    51.4590    46.9930     2.1240 
  196.6250   189.5280    10.2570    37.7440   -14.8040    63.4050    52.1670    53.9690    44.0970     2.1230 
  196.7500   189.6410    10.2670    37.7960   -14.9330    61.1010    52.6890    54.2120    42.7340     2.1320 
  196.8750   189.7550    10.2760    37.8470   -15.0090    59.8770    52.3140    53.6630    42.7180     2.1450 
  197.0000   189.8680    10.2860    37.8980   -15.0400    59.9450    52.2020    53.5730    41.7840     2.1480 
  197.1250   189.9820    10.2950    37.9490   -15.0260    60.3590    53.0910    54.6270    42.9660     2.1370 
  197.2500   190.0960    10.3050    38.0010   -14.9690    60.8970    55.1890    57.0090    46.6270     2.1210 
  197.3750   190.2090    10.3150    38.0520   -14.8660    62.0000    58.5050    60.6510    46.5670     2.1120 
  197.5000   190.3230    10.3240    38.1030   -14.7210    63.2560    62.2900    64.7000    43.8320     2.1120 
  197.6250   190.4360    10.3340    38.1550   -14.5370    64.6900    65.5410    68.1340    44.5910     2.1200 
  197.7500   190.5500    10.3430    38.2060   -14.3240    64.0400    67.9980    70.7530    46.6580     2.1250 
  197.8750   190.6640    10.3530    38.2570   -14.0910    61.2610    70.0260    72.9740    42.2350     2.1270 
  198.0000   190.7770    10.3630    38.3080   -13.8480    60.0390    72.5670    75.7550    37.3510     2.1280 
  198.1250   190.8910    10.3720    38.3600   -13.6000    62.8440    75.8140    79.3020    42.4610     2.1270 
  198.2500   191.0040    10.3820    38.4110   -13.3550    65.2210    79.7260    83.5350    48.9740     2.1250 
  198.3750   191.1180    10.3910    38.4620   -13.1240    63.4520    83.5160    87.5930    50.2070     2.1230 
  198.5000   191.2320    10.4010    38.5140   -12.9180    60.8470    87.2360    91.4270    49.6920     2.1210 
  198.6250   191.3450    10.4110    38.5650   -12.7600    60.0590    90.0620    94.1230    48.4510     2.1200 
  198.7500   191.4590    10.4200    38.6160   -12.6630    59.4510    91.9540    95.6680    48.7180     2.1220 
  198.8750   191.5720    10.4300    38.6670   -12.6440    59.1900    92.6250    95.8170    51.9550     2.1260 
  199.0000   191.6860    10.4390    38.7190   -12.6960    60.0990    92.2760    94.8010    54.8620     2.1260 
  199.1250   191.8000    10.4490    38.7700   -12.8010    61.2730    90.2790    91.8930    55.7110     2.1210 
  199.2500   191.9130    10.4580    38.8210   -12.9140    61.9730    86.8230    87.5120    55.6870     2.1170 
  199.3750   192.0270    10.4680    38.8720   -12.9880    62.2120    81.7090    81.4720    54.5250     2.1160 
  199.5000   192.1400    10.4780    38.9240   -12.9930    61.4040    75.3660    74.3340    52.8120     2.1150 
  199.6250   192.2540    10.4870    38.9750   -12.9220    59.9260    68.1790    66.5210    51.5370     2.1150 
  199.7500   192.3680    10.4970    39.0260   -12.8070    60.4500    61.1330    59.0230    50.1990     2.1240 
  199.8750   192.4810    10.5060    39.0780   -12.6920    63.8820    54.5700    52.1600    48.3570     2.1420 
  200.0000   192.5950    10.5160    39.1290   -12.6130    66.8810    48.9410    46.4010    45.0680     2.1590 
  200.1250   192.7080    10.5250    39.1800   -12.5850    66.8020    44.3910    41.8560    40.8010     2.1600 
  200.2500   192.8220    10.5350    39.2320   -12.5970    64.9950    41.1230    38.6520    38.2340     2.1520 
  200.3750   192.9350    10.5450    39.2830   -12.6430    64.3940    39.3230    36.9530    37.6190     2.1470 
  200.5000   193.0490    10.5540    39.3350   -12.7260    65.5770    39.1490    36.8620    37.1730     2.1460 
  200.6250   193.1620    10.5640    39.3860   -12.8750    66.3580    40.5630    38.3520    36.5130     2.1460 
  200.7500   193.2760    10.5730    39.4370   -13.1080    65.2420    43.6540    41.5840    37.2560     2.1450 
  200.8750   193.3890    10.5830    39.4890   -13.4400    63.0730    48.8690    47.0170    39.9780     2.1460 
  201.0000   193.5030    10.5920    39.5400   -13.8490    62.1690    55.6520    54.0760    42.2120     2.1450 
  201.1250   193.6160    10.6020    39.5920   -14.3080    62.6610    63.0590    61.8850    43.7280     2.1350 
  201.2500   193.7300    10.6120    39.6430   -14.7750    63.1250    69.9290    69.2480    46.8850     2.1180 
  201.3750   193.8430    10.6210    39.6950   -15.2120    60.9520    74.4950    74.3390    51.7290     2.1090 
  201.5000   193.9570    10.6310    39.7470   -15.5980    56.5710    76.7350    77.0770    56.2950     2.1130 
  201.6250   194.0700    10.6400    39.7980   -15.9260    54.5950    76.3440    77.0550    58.9320     2.1220 
  201.7500   194.1840    10.6500    39.8500   -16.2060    57.8520    74.2800    75.2270    58.8940     2.1270 
  201.8750   194.2970    10.6600    39.9010   -16.4410    62.2480    71.2820    72.4020    57.1590     2.1280 
  202.0000   194.4110    10.6690    39.9530   -16.6340    62.6890    68.1930    69.3660    55.3800     2.1320 
  202.1250   194.5240    10.6790    40.0050   -16.7770    59.9820    65.1860    66.2740    53.7010     2.1350 
  202.2500   194.6370    10.6890    40.0560   -16.8760    58.4150    62.2200    63.0790    51.7530     2.1350 
  202.3750   194.7510    10.6980    40.1080   -16.9370    59.2490    58.8910    59.3970    49.8760     2.1300 
  202.5000   194.8640    10.7080    40.1600   -16.9770    61.6020    55.7140    55.8870    48.6920     2.1260 
  202.6250   194.9780    10.7170    40.2110   -17.0010    63.1640    52.5390    52.3740    47.8090     2.1260 
  202.7500   195.0910    10.7270    40.2630   -17.0040    63.1000    49.3680    48.9710    47.2900     2.1270 
  202.8750   195.2040    10.7360    40.3150   -16.9620    62.5100    46.4000    45.8340    48.2140     2.1290 
  203.0000   195.3180    10.7460    40.3670   -16.8610    62.8520    43.3280    42.6760    48.4990     2.1320 
  203.1250   195.4310    10.7560    40.4190   -16.6850    62.9610    40.8340    40.1530    46.0280     2.1370 
  203.2500   195.5440    10.7650    40.4700   -16.4500    63.0770    38.7490    38.0740    43.3480     2.1450 
  203.3750   195.6580    10.7750    40.5220   -16.1840    63.8070    37.3350    36.6800    42.1820     2.1550 
  203.5000   195.7710    10.7840    40.5740   -15.9300    65.1200    36.5760    35.9340    42.1060     2.1580 
  203.6250   195.8850    10.7940    40.6260   -15.7260    65.3940    36.5570    35.9180    43.2330     2.1530 
  203.7500   195.9980    10.8030    40.6770   -15.5750    63.7020    37.0000    36.3520    45.2890     2.1440 
  203.8750   196.1110    10.8130    40.7290   -15.4530    60.6590    37.5550    36.8910    45.9790     2.1380 
  204.0000   196.2250    10.8220    40.7810   -15.3190    59.2020    37.9670    37.3100    43.6770     2.1350 
  204.1250   196.3380    10.8320    40.8330   -15.1430    61.2590    38.1660    37.5010    41.8330     2.1370 
