~V
VERS. 2.00: Ver 2.00
~W
STRT.M 15.0000:
STOP.M 224.0000:
STEP.M 0.1250:
NULL. -999.2500:
UWI. FD11007:
~C
DEPT.M :
TVD. :
DX. :
DY. :
DEN.GM/CC :
GR.API :
RML.OHMM :
RI. :
RXO.OHMM :
CALI.CM :
SP.MV :
~A
# ...
   64.5000    64.5000     0.0000     0.0000     2.2530    77.3700     7.6720     6.0180     8.1120    25.3750   -23.6780 
   64.6250    64.6250     0.0000     0.0000     2.2680    81.1510     7.1120     5.6720     8.0000    25.4030   -23.3680 
   64.7500    64.7500     0.0000     0.0000     2.2900    90.7630     6.3050     5.1690     6.6590    25.4070   -22.6360 
   64.8750    64.8750     0.0000     0.0000     2.3020   101.1570     5.4030     4.6050     4.9360    25.4160   -21.7020 
   65.0000    65.0000     0.0000     0.0000     2.2890   108.5610     4.5840     4.0810     4.0290    25.4540   -20.7340 
   65.1250    65.1250     0.0000     0.0000     2.2500   114.4510     4.1600     3.7490     3.9260    25.5080   -19.9170 
   65.2500    65.2500     0.0000     0.0000     2.2040   117.3820     4.3740     3.7270     4.0270    25.5480   -19.4860 
   65.3750    65.3750     0.0000     0.0000     2.1730   115.1880     5.4610     4.1390     4.3560    25.5730   -19.5080 
   65.5000    65.5000     0.0000     0.0000     2.1790   107.9090     7.5580     5.0830     6.1460    25.5940   -20.0120 
   65.6250    65.6250     0.0000     0.0000     2.2520    96.5390    11.1240     6.6360    13.2400    25.6050   -20.9820 
   65.7500    65.7500     0.0000     0.0000     2.3790    85.9150    15.6580     8.3930    26.9390    25.6020   -22.3630 
   65.8750    65.8750     0.0000     0.0000     2.5140    79.4500    17.3160     9.7070    31.0900    25.6060   -23.9570 
   66.0000    66.0000     0.0000     0.0000     2.5820    77.2800    16.6720     9.9590    19.5930    25.6630   -25.6690 
   66.1250    66.1250     0.0000     0.0000     2.5320    74.2590    14.1960     9.0830    10.5820    25.7830   -27.3700 
   66.2500    66.2500     0.0000     0.0000     2.4250    69.7200    11.7510     7.9400     8.1530    25.8940   -28.8990 
   66.3750    66.3750     0.0000     0.0000     2.3160    66.4490    10.1460     7.0140     7.7160    25.9460   -30.1570 
   66.5000    66.5000     0.0000     0.0000     2.2380    64.9510     9.4830     6.4800     7.7280    25.9450   -31.0760 
   66.6250    66.6250     0.0000     0.0000     2.2050    64.0600     9.5420     6.3400     7.8090    25.9290   -31.6150 
   66.7500    66.7500     0.0000     0.0000     2.1970    64.8230     9.8160     6.3790     7.7680    25.9140   -31.7490 
   66.8750    66.8750     0.0000     0.0000     2.1990    67.9540    10.0390     6.4570     7.6890    25.9050   -31.6010 
   67.0000    67.0000     0.0000     0.0000     2.2010    72.6220    10.0770     6.4760     7.7560    25.9020   -31.2240 
   67.1250    67.1250     0.0000     0.0000     2.2030    75.9520     9.8830     6.3850     7.7630    25.8990   -30.7030 
   67.2500    67.2500     0.0000     0.0000     2.2070    77.4230     9.5510     6.2150     7.5760    25.9040   -30.1790 
   67.3750    67.3750     0.0000     0.0000     2.2150    77.2040     9.1620     6.0060     7.2400    25.9320   -29.7850 
   67.5000    67.5000     0.0000     0.0000     2.2290    76.9240     8.8210     5.8080     6.9610    25.9730   -29.6090 
   67.6250    67.6250     0.0000     0.0000     2.2500    77.2570     8.7680     5.7330     7.2190    26.0010   -29.7040 
   67.7500    67.7500     0.0000     0.0000     2.2660    74.8040     9.2280     5.9000     7.5950    26.0050   -30.1210 
   67.8750    67.8750     0.0000     0.0000     2.2680    68.8240    10.3770     6.4160     8.2660    26.0010   -30.7220 
   68.0000    68.0000     0.0000     0.0000     2.2600    63.5350    12.2290     7.3250     9.5830    26.0010   -31.4580 
   68.1250    68.1250     0.0000     0.0000     2.2720    62.2230    14.4840     8.5390    13.6200    25.9660   -32.2840 
   68.2500    68.2500     0.0000     0.0000     2.3230    62.5560    16.2310     9.6120    21.0900    25.8830   -33.1320 
   68.3750    68.3750     0.0000     0.0000     2.3990    64.1260    16.5440    10.0290    24.2620    25.7980   -33.9320 
   68.5000    68.5000     0.0000     0.0000     2.4540    68.1640    15.0990     9.5180    18.2760    25.7820   -34.6660 
   68.6250    68.6250     0.0000     0.0000     2.4360    71.3350    12.6790     8.3340    15.5790    25.8530   -35.3420 
   68.7500    68.7500     0.0000     0.0000     2.3690    70.4800    10.7620     7.2250    11.7930    25.9340   -35.9630 
   68.8750    68.8750     0.0000     0.0000     2.2920    68.6500    10.0130     6.5850     9.5960    26.0390   -36.5540 
   69.0000    69.0000     0.0000     0.0000     2.2380    69.2500    10.5790     6.5770     9.1850    26.2010   -37.1450 
   69.1250    69.1250     0.0000     0.0000     2.2340    71.7010    12.3660     7.2810    11.4890    26.3830   -37.7520 
   69.2500    69.2500     0.0000     0.0000     2.2780    70.8570    14.5120     8.3530    17.7140    26.4970   -38.4550 
   69.3750    69.3750     0.0000     0.0000     2.3560    67.1640    16.0470     9.3460    26.9710    26.5550   -39.3010 
   69.5000    69.5000     0.0000     0.0000     2.4290    65.0840    16.0940     9.7450    27.2710    26.6590   -40.2680 
   69.6250    69.6250     0.0000     0.0000     2.4370    63.9280    14.4480     9.2440    17.3690    26.8950   -41.2810 
   69.7500    69.7500     0.0000     0.0000     2.3840    59.5750    12.3470     8.3310    11.5690    27.1620   -42.2490 
   69.8750    69.8750     0.0000     0.0000     2.3070    53.7200    10.6130     7.4260     9.8560    27.3520   -43.0980 
   70.0000    70.0000     0.0000     0.0000     2.2430    51.5870     9.5720     6.7750     9.6790    27.4160   -43.7570 
   70.1250    70.1250     0.0000     0.0000     2.2120    53.2560     9.2410     6.4790     9.6720    27.3810   -44.2020 
   70.2500    70.2500     0.0000     0.0000     2.2020    55.5070     9.2560     6.4080     9.5550    27.3120   -44.4120 
   70.3750    70.3750     0.0000     0.0000     2.1990    59.1870     9.4090     6.4570     9.3490    27.2310   -44.4540 
   70.5000    70.5000     0.0000     0.0000     2.1970    63.3780     9.5880     6.5480     9.3060    27.1090   -44.3990 
   70.6250    70.6250     0.0000     0.0000     2.2030    66.6410     9.7660     6.6490     9.7060    26.8790   -44.3110 
   70.7500    70.7500     0.0000     0.0000     2.2200    67.1530     9.9330     6.7400    10.2810    26.6070   -44.2420 
   70.8750    70.8750     0.0000     0.0000     2.2410    65.4340    10.0580     6.8070    10.2870    26.4050   -44.1940 
   71.0000    71.0000     0.0000     0.0000     2.2560    64.3960    10.1020     6.8290    10.0410    26.3070   -44.1860 
   71.1250    71.1250     0.0000     0.0000     2.2570    67.6770    10.0150     6.7790     9.6490    26.2470   -44.2220 
   71.2500    71.2500     0.0000     0.0000     2.2480    72.0700     9.8260     6.6680     9.4300    26.1720   -44.2610 
   71.3750    71.3750     0.0000     0.0000     2.2370    73.1110     9.6070     6.5280     9.4270    26.1470   -44.2550 
   71.5000    71.5000     0.0000     0.0000     2.2310    70.0170     9.4830     6.4250     9.6250    26.2460   -44.1610 
   71.6250    71.6250     0.0000     0.0000     2.2350    65.5760     9.6380     6.4700     9.7330    26.4600   -43.9570 
   71.7500    71.7500     0.0000     0.0000     2.2410    63.6230    10.0820     6.6910     9.6890    26.6610   -43.5950 
   71.8750    71.8750     0.0000     0.0000     2.2290    63.6250    10.7240     7.0620    10.4600    26.8950   -43.0950 
   72.0000    72.0000     0.0000     0.0000     2.1820    63.2440    11.3520     7.4860    14.9460    27.2090   -42.4610 
   72.1250    72.1250     0.0000     0.0000     2.1080    60.6480    11.6010     7.7680    25.0880    27.2580   -41.6700 
   72.2500    72.2500     0.0000     0.0000     2.0400    57.6100    11.3430     7.7870    26.4550    26.8350   -40.7010 
   72.3750    72.3750     0.0000     0.0000     2.0050    58.2460    10.6850     7.5500    16.2500    26.2140   -39.5790 
   72.5000    72.5000     0.0000     0.0000     2.0220    64.0380     9.9460     7.1940    10.5570    25.8200   -38.3130 
   72.6250    72.6250     0.0000     0.0000     2.0940    68.7030     9.5500     6.9370     9.2880    25.7600   -36.9150 
