~V
VERS. 2.00: Ver 2.00
~W
STRT.M 25.0000:
STOP.M 287.0000:
STEP.M 0.1250:
NULL. -999.2500:
UWI. FD11174:
~C
DEPT.M :
TVD. :
DX. :
DY. :
SP.MV :
GR.API :
RI. :
RML.OHMM :
RXO.OHMM :
DEN.GM/CC :
~A
   25.0000    25.0000     0.0000     0.0000   -22.5110    38.1440     0.0280     0.3620     1.4940     2.4080 
   25.1250    25.1250     0.0000    -0.0010   -22.1280    37.8740     0.0160     0.3640     1.5590     2.4080 
   25.2500    25.2500     0.0000    -0.0010   -21.5510    37.6100     0.0140     0.3650     1.5890     2.4080 
   25.3750    25.3750     0.0010    -0.0020   -20.8610    39.4860     0.0190     0.3720     1.5970     2.4080 
   25.5000    25.5000     0.0010    -0.0030   -20.2530    41.1380     0.0140     0.3770     1.5850     2.4070 
   25.6250    25.6250     0.0010    -0.0030   -19.9220    40.4380     0.0160     0.3750     1.5680     2.4080 
   25.7500    25.7500     0.0010    -0.0040   -19.9140    38.6180     0.0140     0.3710     1.5530     2.4080 
   25.8750    25.8750     0.0020    -0.0050   -20.2120    37.8570     0.0120     0.3620     1.5180     2.4080 
   26.0000    26.0000     0.0020    -0.0050   -20.5210    38.7870     0.0230     0.3560     1.4380     2.4080 
   26.1250    26.1250     0.0020    -0.0060   -20.5090    41.3830     0.0310     0.3630     1.3150     2.4080 
   26.2500    26.2500     0.0020    -0.0070   -20.1820    43.4880     0.0420     0.3750     1.2140     2.4080 
   26.3750    26.3750     0.0030    -0.0070   -19.5510    43.1750     0.0430     0.3850     1.1780     2.4080 
   26.5000    26.5000     0.0030    -0.0080   -18.6860    41.7150     0.0430     0.3820     1.1750     2.4080 
   26.6250    26.6250     0.0030    -0.0090   -17.6350    41.1950     0.0430     0.3760     1.1800     2.4080 
   26.7500    26.7500     0.0030    -0.0100   -16.5030    41.0280     0.0420     0.3780     1.1820     2.4080 
   26.8750    26.8750     0.0030    -0.0100   -15.2990    41.3030     0.0410     0.3670     1.1740     2.4080 
   27.0000    27.0000     0.0040    -0.0110   -14.0780    42.1290     0.0410     0.3640     1.1600     2.4080 
   27.1250    27.1250     0.0040    -0.0120   -12.8470    43.8880     0.0400     0.3390     1.1110     2.4080 
   27.2500    27.2500     0.0040    -0.0130   -11.4840    46.3120     0.0410     0.3280     0.9630     2.4080 
   27.3750    27.3750     0.0040    -0.0130    -9.7780    48.5480     0.0410     0.3260     0.7340     2.4080 
   27.5000    27.5000     0.0050    -0.0140    -7.7510    49.1310     0.0420     0.3280     0.6080     2.4080 
   27.6250    27.6250     0.0050    -0.0150    -5.7080    45.9610     0.0420     0.3430     0.6930     2.4080 
   27.7500    27.7500     0.0050    -0.0160    -4.0550    42.8050     0.0420     0.3540     0.8390     2.4080 
   27.8750    27.8750     0.0060    -0.0160    -3.4770    43.6410     0.0420     0.3570     0.8640     2.4080 
   28.0000    28.0000     0.0060    -0.0170    -4.3430    48.0060     0.0420     0.3490     0.6890     2.4080 
   28.1250    28.1250     0.0060    -0.0180    -6.3370    51.3650     0.0410     0.3380     0.4560     2.4080 
   28.2500    28.2500     0.0060    -0.0190    -8.1640    50.6230     0.0410     0.3290     0.3670     2.4080 
   28.3750    28.3750     0.0070    -0.0200    -8.9800    47.5330     0.0400     0.3300     0.3900     2.4080 
   28.5000    28.5000     0.0070    -0.0200    -8.8190    46.1390     0.0400     0.3280     0.4230     2.4080 
   28.6250    28.6250     0.0070    -0.0210    -7.7740    47.0820     0.0400     0.3350     0.3780     2.4080 
   28.7500    28.7500     0.0070    -0.0220    -6.0420    48.3270     0.0400     0.3380     0.2580     2.4080 
   28.8750    28.8750     0.0080    -0.0230    -3.6920    47.7540     0.0410     0.3500     0.1980     2.4080 
   29.0000    29.0000     0.0080    -0.0240    -1.1250    46.3140     0.0410     0.3540     0.5870     2.4080 
   29.1250    29.1250     0.0080    -0.0240     1.3760    45.9230     0.0410     0.3570     2.1990     2.4080 
   29.2500    29.2500     0.0090    -0.0250     3.4930    45.1960     0.0420     0.3590     4.3930     2.4080 
   29.3750    29.3750     0.0090    -0.0260     4.7530    43.3180     0.0420     0.3600     5.4410     2.4080 
   29.5000    29.5000     0.0090    -0.0270     5.2600    41.7380     0.0420     0.3610     6.2950     2.4080 
   29.6250    29.6250     0.0090    -0.0280     5.6520    43.0880     0.0420     0.3620     8.6870     2.4080 
   29.7500    29.7500     0.0100    -0.0290     6.5180    47.2190     0.0420     0.3600    10.1090     2.4080 
   29.8750    29.8750     0.0100    -0.0290     8.0450    52.3260     0.0420     0.3620     8.6520     2.4080 
   30.0000    30.0000     0.0100    -0.0300    10.0480    56.4400     0.0420     0.3590     7.6820     2.4080 
   30.1250    30.1250     0.0110    -0.0310    12.6300    56.5030     0.0420     0.3510     9.1420     2.4080 
   30.2500    30.2500     0.0110    -0.0320    15.8900    53.5270     0.0420     0.3400    10.4480     2.4080 
   30.3750    30.3750     0.0110    -0.0330    19.5230    52.9350     0.0450     0.3200    10.5230     2.4080 
   30.5000    30.5000     0.0110    -0.0340    23.0480    55.6330     0.0480     0.3070     9.9330     2.4150 
   30.6250    30.6250     0.0120    -0.0350    25.7710    56.0050     0.0480     0.2960     8.0380     2.4420 
   30.7500    30.7500     0.0120    -0.0350    27.3650    51.9590     0.0530     0.2900     6.4180     2.4850 
   30.8750    30.8750     0.0120    -0.0360    27.7510    47.0260     0.0530     0.2900     6.4200     2.5320 
   31.0000    31.0000     0.0130    -0.0370    27.0330    43.3810     0.0530     0.2910     6.3220     2.5670 
   31.1250    31.1250     0.0130    -0.0380    24.8780    38.8520     0.0580     0.2850     6.0220     2.5480 
   31.2500    31.2500     0.0130    -0.0390    21.5360    35.0450     0.0490     0.2780     6.7930     2.4560 
   31.3750    31.3750     0.0140    -0.0400    17.5420    35.3860     0.0560     0.2700     7.7150     2.3420 
   31.5000    31.5000     0.0140    -0.0410    13.5670    37.5900     0.0640     0.2620     7.0440     2.2860 
   31.6250    31.6250     0.0140    -0.0420    10.0070    38.9400     0.0770     0.2610     5.1820     2.3100 
   31.7500    31.7500     0.0140    -0.0430     6.9450    42.2480     0.0900     0.2620     4.5450     2.3530 
   31.8750    31.8750     0.0150    -0.0430     4.1530    47.1720     0.0900     0.2600     5.6490     2.3510 
   32.0000    32.0000     0.0150    -0.0440     1.3640    49.8740     0.0890     0.2540     5.9840     2.3010 
   32.1250    32.1250     0.0150    -0.0450    -1.2510    47.1600     0.0890     0.2470     4.9670     2.2430 
   32.2500    32.2500     0.0160    -0.0460    -3.0440    43.4700     0.0890     0.2440     4.2580     2.2100 
   32.3750    32.3750     0.0160    -0.0470    -3.5120    41.7780     0.0900     0.2490     4.4820     2.1990 
   32.5000    32.5000     0.0160    -0.0480    -2.8750    41.2260     0.0970     0.2630     5.8500     2.1950 
   32.6250    32.6250     0.0170    -0.0490    -1.3450    40.7230     0.1120     0.2780     7.7810     2.1910 
   32.7500    32.7500     0.0170    -0.0500     0.7160    41.0270     0.1260     0.2880     8.6810     2.1910 
   32.8750    32.8750     0.0170    -0.0510     3.0440    41.4930     0.1380     0.2830     9.1460     2.1930 
   33.0000    33.0000     0.0170    -0.0520     5.1510    41.6910     0.1390     0.2660    10.9030     2.1990 
   33.1250    33.1250     0.0180    -0.0530    25.9570    41.4510     0.1370     0.2490    13.1150     2.2030 
   33.2500    33.2500     0.0180    -0.0540    45.5950    42.3660     0.1370     0.2350    13.3790     2.1990 
   33.3750    33.3750     0.0180    -0.0550    44.3850    44.3470     0.1380     0.2370    11.0760     2.1860 
   33.5000    33.5000     0.0190    -0.0560    42.3550    45.3310     0.1390     0.2380     8.1800     2.1810 
   33.6250    33.6250     0.0190    -0.0560    40.0790    46.2000     0.1410     0.2380     6.6030     2.1870 
   33.7500    33.7500     0.0190    -0.0570    38.0060    47.5300     0.1420     0.2380     6.6510     2.1960 
   33.8750    33.8750     0.0200    -0.0580    36.5420    51.1990     0.1420     0.2350     6.9820     2.2010 
   34.0000    34.0000     0.0200    -0.0590    35.5190    56.0800     0.1420     0.2310     6.3880     2.2070 
