~V
VERS. 2.00: Ver 2.00
~W
STRT.M 30.0000:
STOP.M 272.0000:
STEP.M 0.1250:
NULL. -999.2500:
UWI. FD11176:
~C
DEPT.M :
TVD. :
DX. :
DY. :
SP.MV :
GR.API :
RI. :
RML.OHMM :
RXO.OHMM :
DEN.GM/CC :
~A
# ...
   48.2500    48.2340     0.6840     0.0560   -20.6860    76.5930     6.7730     8.2950     7.1590     2.1070 
   48.3750    48.3590     0.6920     0.0580   -20.7650    80.6590     8.1050    10.0340     8.7380     2.1150 
   48.5000    48.4840     0.7010     0.0600   -20.6850    80.1620    10.2210    12.9090    15.4730     2.1670 
   48.6250    48.6080     0.7100     0.0630   -20.5050    74.4880    12.9680    16.5500    26.4730     2.2800 
   48.7500    48.7330     0.7180     0.0650   -20.3310    67.7310    14.7380    18.6950    29.9680     2.4100 
   48.8750    48.8580     0.7270     0.0670   -20.3570    63.5080    14.7450    18.4040    24.8300     2.4890 
   49.0000    48.9820     0.7360     0.0690   -20.7090    62.4110    13.2110    16.0470    20.0160     2.4820 
   49.1250    49.1070     0.7450     0.0710   -21.3800    62.7430    10.7850    12.6800    14.0640     2.3900 
   49.2500    49.2320     0.7540     0.0730   -22.1870    60.9140     8.9000    10.3180     8.7270     2.2640 
   49.3750    49.3560     0.7620     0.0760   -22.9410    58.0010     7.7300     9.0350     7.3110     2.1590 
   49.5000    49.4810     0.7720     0.0780   -23.5170    56.2260     6.9560     8.2790     7.0870     2.1020 
   49.6250    49.6060     0.7810     0.0800   -23.8790    56.3240     6.5470     7.9600     6.9650     2.0730 
   49.7500    49.7300     0.7900     0.0820   -24.1050    57.6170     6.3650     7.8600     6.8550     2.0520 
   49.8750    49.8550     0.7990     0.0840   -24.2700    61.3830     6.2780     7.7960     6.7440     2.0430 
   50.0000    49.9800     0.8080     0.0870   -24.4330    64.8340     6.2330     7.7500     6.6590     2.0470 
   50.1250    50.1040     0.8180     0.0890   -24.6020    64.6360     6.2610     7.7730     6.6780     2.0530 
   50.2500    50.2290     0.8270     0.0910   -24.7560    61.8180     6.3340     7.8290     6.8170     2.0510 
   50.3750    50.3540     0.8370     0.0940   -24.8760    60.1200     6.4250     7.8920     6.9300     2.0450 
   50.5000    50.4780     0.8460     0.0960   -24.9490    60.8190     6.5390     8.0020     6.9920     2.0410 
   50.6250    50.6030     0.8560     0.0980   -24.9540    62.3400     6.7440     8.2440     6.9780     2.0460 
   50.7500    50.7270     0.8660     0.1000   -24.8800    62.5590     6.9820     8.5230     6.8650     2.0640 
   50.8750    50.8520     0.8750     0.1030   -24.7130    63.1620     7.1630     8.7440     6.6620     2.0810 
   51.0000    50.9770     0.8850     0.1050   -24.5020    63.4150     7.2240     8.8220     6.3810     2.0820 
   51.1250    51.1010     0.8950     0.1070   -24.3260    62.5420     7.1310     8.6890     6.4580     2.0700 
   51.2500    51.2260     0.9050     0.1090   -24.2260    62.8970     6.9470     8.4320     6.9290     2.0560 
   51.3750    51.3500     0.9150     0.1110   -24.1730    65.0460     6.7350     8.1140     7.2670     2.0480 
   51.5000    51.4750     0.9260     0.1140   -24.1060    67.1370     6.5720     7.9920     7.3290     2.0440 
   51.6250    51.5990     0.9360     0.1160   -24.0180    67.0010     6.4800     7.9490     7.2410     2.0430 
   51.7500    51.7240     0.9460     0.1180   -23.9520    67.1030     6.5220     8.0430     7.1350     2.0430 
   51.8750    51.8480     0.9570     0.1200   -23.9570    67.2240     6.6540     8.2280     7.1080     2.0510 
   52.0000    51.9730     0.9670     0.1220   -24.0460    66.7810     6.7980     8.4230     7.2110     2.0690 
   52.1250    52.0980     0.9770     0.1240   -24.2410    64.4940     6.9180     8.5640     7.3910     2.0880 
   52.2500    52.2220     0.9880     0.1270   -24.5490    61.3280     6.9750     8.5980     7.6290     2.0940 
   52.3750    52.3470     0.9990     0.1290   -24.9600    59.0030     6.9090     8.4860     7.9110     2.0880 
   52.5000    52.4710     1.0090     0.1310   -25.3920    58.0730     6.7630     8.2830     8.0670     2.0730 
   52.6250    52.5960     1.0200     0.1330   -25.7440    56.1770     6.5660     8.1030     7.7410     2.0560 
   52.7500    52.7200     1.0310     0.1350   -25.9540    53.6290     6.3650     8.0010     6.9050     2.0470 
   52.8750    52.8450     1.0420     0.1370   -26.0150    52.2160     6.2060     7.8910     6.3730     2.0510 
   53.0000    52.9690     1.0520     0.1390   -26.0090    53.0890     6.0940     7.6840     6.4190     2.0550 
   53.1250    53.0940     1.0630     0.1420   -26.0230    54.0800     6.0560     7.4050     6.5900     2.0510 
   53.2500    53.2180     1.0740     0.1440   -26.1230    54.9390     6.0800     7.2020     7.0450     2.0480 
   53.3750    53.3430     1.0860     0.1460   -26.3410    55.8040     6.1110     7.1160     7.9600     2.0450 
   53.5000    53.4670     1.0970     0.1480   -26.6290    56.3970     6.1200     7.0660     8.6410     2.0370 
   53.6250    53.5920     1.1080     0.1500   -26.9240    56.5740     6.0810     7.0010     8.4460     2.0330 
   53.7500    53.7160     1.1190     0.1520   -27.1640    55.6480     6.0100     6.9200     7.6670     2.0420 
   53.8750    53.8410     1.1310     0.1540   -27.2910    53.9980     5.9280     6.8210     6.8880     2.0530 
   54.0000    53.9650     1.1420     0.1560   -27.2720    54.0850     5.8630     6.7320     6.4160     2.0550 
   54.1250    54.0890     1.1540     0.1580   -27.0760    55.0460     5.8470     6.6710     6.3990     2.0500 
   54.2500    54.2140     1.1650     0.1600   -26.7270    54.3370     5.8790     6.6390     7.0220     2.0490 
   54.3750    54.3380     1.1770     0.1620   -26.2550    54.4460     5.9320     6.6390     7.8980     2.0580 
   54.5000    54.4630     1.1890     0.1640   -25.7290    57.6040     5.9690     6.6710     8.4770     2.0670 
   54.6250    54.5870     1.2010     0.1660   -25.2330    60.8550     5.9760     6.7450     8.8790     2.0690 
   54.7500    54.7120     1.2130     0.1680   -24.8450    60.3860     5.9440     6.8350     8.7270     2.0670 
   54.8750    54.8360     1.2250     0.1700   -24.6100    57.6830     5.8870     6.8960     7.5890     2.0660 
   55.0000    54.9600     1.2370     0.1720   -24.5030    56.2060     5.8300     6.9130     6.4930     2.0650 
   55.1250    55.0850     1.2490     0.1740   -24.4940    55.0710     5.7660     6.9130     6.4890     2.0580 
   55.2500    55.2090     1.2610     0.1760   -24.5310    54.9140     5.6980     6.9130     7.0160     2.0530 
   55.3750    55.3340     1.2730     0.1770   -24.5750    54.9340     5.6170     6.8910     7.2440     2.0540 
   55.5000    55.4580     1.2860     0.1790   -24.5990    55.1180     5.5280     6.7950     7.4850     2.0530 
   55.6250    55.5820     1.2980     0.1810   -24.5620    55.6770     5.4450     6.6300     8.1740     2.0470 
   55.7500    55.7070     1.3110     0.1830   -24.4220    56.7290     5.3840     6.4720     8.7850     2.0410 
   55.8750    55.8310     1.3230     0.1850   -24.1420    57.5540     5.3480     6.3720     8.7340     2.0440 
   56.0000    55.9550     1.3360     0.1860   -23.7400    57.0230     5.3140     6.3130     8.1410     2.0530 
   56.1250    56.0800     1.3480     0.1880   -23.2730    54.4740     5.2700     6.2570     7.5960     2.0610 
   56.2500    56.2040     1.3610     0.1900   -22.8360    52.9010     5.2260     6.2010     7.4700     2.0700 
   56.3750    56.3280     1.3740     0.1910   -22.4880    55.2660     5.1950     6.1680     7.1560     2.0710 
   56.5000    56.4530     1.3870     0.1930   -22.2080    60.5710     5.1960     6.1780     6.5780     2.0520 
   56.6250    56.5770     1.4000     0.1940   -21.9760    65.6290     5.2460     6.2380     7.0000     2.0250 
   56.7500    56.7010     1.4130     0.1960   -21.7830    67.2020     5.3200     6.3240     8.2170     2.0170 
   56.8750    56.8260     1.4260     0.1970   -21.6340    66.2730     5.3920     6.4070     9.0420     2.0380 
   57.0000    56.9500     1.4390     0.1990   -21.5060    64.0310     5.4550     6.4720     9.2920     2.0660 
   57.1250    57.0740     1.4520     0.2000   -21.3810    62.0410     5.5220     6.5490     9.0020     2.0780 
   57.2500    57.1990     1.4650     0.2010   -21.2660    60.6570     5.5820     6.6140     8.4580     2.0830 
