~V
VERS. 2.00: Ver 2.00
~W
STRT.M 25.0000:
STOP.M 287.0000:
STEP.M 0.1250:
NULL. -999.2500:
UWI. FD11174:
~C
DEPT.M :
TVD. :
DX. :
DY. :
SP.MV :
GR.API :
RI. :
RML.OHMM :
RXO.OHMM :
DEN.GM/CC :
~A
# ...
   88.8750    88.5410    -1.9040    -4.6080   -22.6370    81.1540     5.6610     6.4080     6.1380     2.1150 
   89.0000    88.6630    -1.9160    -4.6310   -22.5190    85.0750     5.5610     6.2990     6.0990     2.1220 
   89.1250    88.7850    -1.9290    -4.6550   -22.3740    85.3680     5.5420     6.3010     6.1150     2.1270 
   89.2500    88.9070    -1.9410    -4.6780   -22.2600    82.3870     5.6140     6.4160     6.2040     2.1260 
   89.3750    89.0290    -1.9530    -4.7020   -22.2270    79.8970     5.7280     6.5720     6.5200     2.1230 
   89.5000    89.1520    -1.9650    -4.7260   -22.1930    79.5680     5.8380     6.7140     7.0720     2.1250 
   89.6250    89.2740    -1.9770    -4.7500   -22.1500    79.1160     5.9110     6.7950     7.3860     2.1300 
   89.7500    89.3960    -1.9900    -4.7740   -22.1510    77.0700     5.9090     6.7760     7.1460     2.1300 
   89.8750    89.5180    -2.0020    -4.7980   -22.1480    76.5860     5.8400     6.6790     6.5610     2.1200 
   90.0000    89.6400    -2.0140    -4.8220   -22.2240    77.5180     5.7380     6.5470     6.0930     2.1040 
   90.1250    89.7620    -2.0270    -4.8460   -22.3960    75.7740     5.6320     6.4290     6.0210     2.0950 
   90.2500    89.8840    -2.0390    -4.8710   -22.5370    71.9970     5.5770     6.3830     6.3030     2.0960 
   90.3750    90.0060    -2.0510    -4.8950   -22.6430    72.3640     5.5890     6.4310     7.5010     2.1030 
   90.5000    90.1280    -2.0630    -4.9190   -22.7220    76.7190     5.6420     6.5350     9.5650     2.1080 
   90.6250    90.2500    -2.0760    -4.9440   -22.7520    78.6010     5.7250     6.6710    10.3540     2.1080 
   90.7500    90.3720    -2.0880    -4.9680   -22.7470    76.4620     5.7980     6.7830     9.0040     2.1040 
   90.8750    90.4940    -2.1000    -4.9930   -22.8140    74.3360     5.8390     6.8230     7.3980     2.0970 
   91.0000    90.6160    -2.1130    -5.0180   -22.9520    72.4780     5.8440     6.8020     6.7720     2.0940 
   91.1250    90.7370    -2.1250    -5.0420   -23.1850    70.1130     5.8300     6.7570     6.6530     2.1010 
   91.2500    90.8590    -2.1380    -5.0670   -23.4790    70.8200     5.8210     6.7350     6.5490     2.1130 
   91.3750    90.9810    -2.1510    -5.0920   -23.8020    75.3180     5.8430     6.7630     6.5340     2.1220 
   91.5000    91.1030    -2.1630    -5.1170   -24.0740    79.2500     5.8860     6.8250     6.9010     2.1230 
   91.6250    91.2250    -2.1760    -5.1410   -24.2520    78.9080     5.9220     6.8640     7.6240     2.1170 
   91.7500    91.3470    -2.1890    -5.1660   -24.3640    75.8920     5.9250     6.8580     8.0150     2.1090 
   91.8750    91.4690    -2.2010    -5.1910   -24.4020    72.9050     5.8790     6.7930     7.6860     2.1060 
   92.0000    91.5900    -2.2140    -5.2160   -24.3590    73.2590     5.8110     6.6960     7.1140     2.1060 
   92.1250    91.7120    -2.2270    -5.2410   -24.3210    74.2790     5.7510     6.6050     6.6740     2.1040 
   92.2500    91.8340    -2.2400    -5.2660   -24.2650    72.4340     5.7090     6.5460     6.3790     2.1010 
   92.3750    91.9560    -2.2530    -5.2910   -24.2370    67.3190     5.6800     6.5100     6.2630     2.1010 
   92.5000    92.0780    -2.2670    -5.3160   -24.2940    65.5410     5.6480     6.4740     6.3630     2.1020 
   92.6250    92.1990    -2.2800    -5.3410   -24.4080    67.8820     5.6000     6.4210     6.5740     2.0980 
   92.7500    92.3210    -2.2930    -5.3660   -24.4680    67.8020     5.5360     6.3330     6.6600     2.0890 
   92.8750    92.4430    -2.3060    -5.3910   -24.4780    63.5700     5.4530     6.2170     6.5250     2.0810 
   93.0000    92.5650    -2.3200    -5.4160   -24.4220    60.7310     5.3630     6.0850     6.3040     2.0830 
   93.1250    92.6860    -2.3330    -5.4410   -24.3200    62.5490     5.2880     5.9630     6.1450     2.0950 
   93.2500    92.8080    -2.3460    -5.4660   -24.1600    65.8030     5.2440     5.8800     6.0420     2.1100 
   93.3750    92.9300    -2.3590    -5.4910   -23.8520    66.8840     5.2090     5.8240     5.9720     2.1220 
   93.5000    93.0510    -2.3730    -5.5160   -23.4970    65.4750     5.1790     5.7720     5.9750     2.1230 
   93.6250    93.1730    -2.3860    -5.5410   -23.1350    63.7140     5.1920     5.8040     5.9190     2.1060 
   93.7500    93.2950    -2.4000    -5.5670   -22.6980    62.5070     5.3570     6.0320     5.7470     2.0800 
   93.8750    93.4170    -2.4130    -5.5920   -22.1440    62.5830     5.5090     6.2280     7.3120     2.0740 
   94.0000    93.5380    -2.4270    -5.6170   -21.3260    62.7220     5.4860     6.2090    20.2440     2.1120 
   94.1250    93.6600    -2.4400    -5.6420   -20.2400    64.6880     5.1870     5.8230    48.4720     2.1930 
   94.2500    93.7820    -2.4540    -5.6680   -18.9060    72.4730     4.5870     5.0680    61.7160     2.2710 
   94.3750    93.9030    -2.4680    -5.6930   -17.4730    84.2930     3.9390     4.2830    39.3090     2.3050 
   94.5000    94.0250    -2.4820    -5.7180   -16.0390    93.7890     3.4430     3.7100    12.5610     2.3020 
   94.6250    94.1460    -2.4960    -5.7440   -14.9330    98.3270     3.1690     3.4260     4.0900     2.2880 
   94.7500    94.2680    -2.5100    -5.7690   -14.3250    98.7330     3.1910     3.4980     3.6940     2.2780 
   94.8750    94.3890    -2.5240    -5.7950   -14.1870    96.3960     3.3790     3.7370     3.7690     2.2630 
   95.0000    94.5110    -2.5380    -5.8200   -14.3780    95.4700     3.6330     4.0400     3.9570     2.2410 
   95.1250    94.6330    -2.5520    -5.8460   -14.7210    99.1150     3.9120     4.3580     4.3060     2.2210 
   95.2500    94.7540    -2.5660    -5.8720   -15.0810   102.8380     4.1160     4.5760     4.5710     2.2090 
   95.3750    94.8760    -2.5800    -5.8970   -15.4360   101.0890     4.1430     4.5970     4.8440     2.2050 
   95.5000    94.9970    -2.5940    -5.9230   -15.7270    95.9210     4.0330     4.4560     5.6380     2.2090 
   95.6250    95.1180    -2.6080    -5.9490   -15.8460    93.8420     3.7970     4.1660     6.1220     2.2250 
   95.7500    95.2400    -2.6220    -5.9750   -15.8670    98.1420     3.5500     3.8630     5.2350     2.2450 
   95.8750    95.3610    -2.6370    -6.0010   -15.8410   106.4480     3.4220     3.7160     4.1230     2.2570 
   96.0000    95.4830    -2.6510    -6.0280   -15.9470   111.6920     3.5100     3.8490     3.9800     2.2630 
   96.1250    95.6040    -2.6650    -6.0540   -16.3970   109.8170     3.8130     4.2770     4.3620     2.2720 
   96.2500    95.7260    -2.6790    -6.0800   -17.2680   104.8870     4.3080     4.9390     5.1180     2.2710 
   96.3750    95.8470    -2.6930    -6.1070   -18.5060    99.2580     4.9190     5.7180     6.2640     2.2390 
   96.5000    95.9680    -2.7070    -6.1330   -19.8120    90.2130     5.4550     6.3480     6.7990     2.1830 
   96.6250    96.0900    -2.7210    -6.1600   -21.1070    77.8280     5.8050     6.7150     6.5210     2.1290 
   96.7500    96.2110    -2.7350    -6.1870   -22.2690    66.5770     5.9770     6.8510     6.2760     2.0940 
   96.8750    96.3320    -2.7500    -6.2140   -23.0550    61.7750     5.9260     6.7250     6.2750     2.0850 
   97.0000    96.4530    -2.7640    -6.2400   -23.5280    62.2900     5.8240     6.5700     7.5730     2.1000 
   97.1250    96.5750    -2.7780    -6.2670   -23.7820    64.6940     5.7610     6.4880    11.3740     2.1230 
   97.2500    96.6960    -2.7920    -6.2940   -23.9200    65.0620     5.7040     6.4240    13.7470     2.1280 
   97.3750    96.8170    -2.8060    -6.3220   -24.0990    63.7550     5.6610     6.3900    11.0140     2.1110 
   97.5000    96.9380    -2.8210    -6.3490   -24.2770    63.1600     5.6210     6.3670     7.3740     2.0940 
   97.6250    97.0590    -2.8350    -6.3760   -24.4020    63.5060     5.5860     6.3440     6.4030     2.0880 
   97.7500    97.1800    -2.8490    -6.4030   -24.4140    62.3990     5.5470     6.3140     6.5290     2.0850 
   97.8750    97.3010    -2.8630    -6.4310   -24.3410    60.9790     5.5130     6.2760     6.5110     2.0800 
