~V
VERS. 2.00: Ver 2.00
~W
STRT.M 15.0000:
STOP.M 219.0000:
STEP.M 0.1250:
NULL. -999.2500:
UWI. FD11101:
~C
DEPT.M :
TVD. :
DX. :
DY. :
GR.API :
RML.OHMM :
RI. :
RXO.OHMM :
CALI.CM :
SP.MV :
DEN.GM/CC :
~A
# ...
  213.0000   198.5480    10.7590    61.8750    91.4940    11.1480    10.2820    11.7680    22.2770     2.8180     2.4230 
  213.1250   198.6550    10.7690    61.9380    91.4940    12.3470    11.2540    11.9270    22.2480     3.0890     2.4110 
  213.2500   198.7630    10.7800    62.0010    91.4940    14.1370    12.7940    12.2380    22.1840     3.2200     2.3990 
  213.3750   198.8700    10.7900    62.0630    91.4940    16.4500    14.8950    12.2180    22.0980     3.2960     2.3970 
  213.5000   198.9780    10.8010    62.1260    91.4940    19.0280    17.3200    12.3200    22.0230     3.4330     2.4140 
  213.6250   199.0860    10.8110    62.1890    91.4940    21.4040    19.5540    13.1920    21.9800     3.5340     2.4530 
  213.7500   199.1930    10.8210    62.2520    91.4940    23.2010    21.1810    14.8040    21.9830     3.6590     2.5000 
  213.8750   199.3010    10.8320    62.3150    91.4940    24.2510    22.0910    15.8480    22.0670     3.7790     2.5370 
  214.0000   199.4080    10.8420    62.3780    91.4940    24.6140    22.4440    15.6210    22.2060     3.9640     2.5480 
  214.1250   199.5160    10.8530    62.4410    91.4940    24.5000    22.4910    14.8050    22.3720     4.1480     2.5200 
  214.2500   199.6230    10.8630    62.5040    91.4940    24.2820    22.4810    14.2150    22.5990     4.2500     2.4680 
  214.3750   199.7310    10.8730    62.5670    91.4940    24.1230    22.4720    14.1550    22.9050     4.2930     2.4090 
  214.5000   199.8380    10.8840    62.6300    91.4940    24.0600    22.4700    14.0490    23.1380     4.2750     2.3620 
  214.6250   199.9460    10.8940    62.6920    91.4940    24.0560    22.4700    13.7470    22.8580     4.2090     2.3470 
  214.7500   200.0530    10.9050    62.7550    91.4940    24.0580    22.4700    13.4280    22.3360     4.0760     2.3600 
  214.8750   200.1610    10.9150    62.8180    91.4940    24.0580    22.4700    12.8550    21.9060     3.9340     2.3940 
  215.0000   200.2680    10.9250    62.8810    91.4940    24.0580    22.4700    12.3400    21.6990     3.7550     2.4360 
  215.1250   200.3760    10.9360    62.9440    91.4940    24.0580    22.4700    11.5700    21.6740     3.5990     2.4630 
  215.2500   200.4830    10.9460    63.0070    91.4940    24.0580    22.4700    10.0840    21.7880     3.5840     2.4580 
  215.3750   200.5910    10.9560    63.0700    91.4940    24.0580    22.4700     9.0780    22.0440     3.6370     2.4160 
  215.5000   200.6980    10.9670    63.1330    91.4940    24.0580    22.4700     9.2540    22.2100     3.6810     2.3460 
  215.6250   200.8060    10.9770    63.1960    91.4940    24.0580    22.4700     9.6090    21.9150     3.7330     2.2770 
  215.7500   200.9130    10.9880    63.2590    91.4940    24.0580    22.4700     9.1670    21.3560     3.8060     2.2350 
  215.8750   201.0210    10.9980    63.3210    91.4940    24.0580    22.4700     8.0690    20.9540     3.8980     2.2280 
  216.0000   201.1280    11.0080    63.3840    91.4940    24.0580    22.4700     7.5040    20.7750     4.0040     2.2500 
  216.1250   201.2360    11.0190    63.4470    91.4940    24.0580    22.4700     7.7620    20.7280     4.1080     2.2850 
  216.2500   201.3430    11.0290    63.5100    91.4940    24.0580    22.4700     8.2500    20.7300     4.1750     2.3150 
  216.3750   201.4510    11.0400    63.5730    91.4940    24.0580    22.4700     8.8870    20.7450     4.2010     2.3320 
  216.5000   201.5580    11.0500    63.6360    91.4940    24.0580    22.4700     9.4070    20.7810     4.2110     2.3350 
  216.6250   201.6660    11.0600    63.6990    91.4940    24.0580    22.4700    10.1290    20.8530     4.1940     2.3240 
  216.7500   201.7740    11.0710    63.7620    91.4940    24.0580    22.4700    10.1260    20.9390     4.1410     2.3040 
  216.8750   201.8810    11.0810    63.8250    91.4940    24.0580    22.4700     9.2700    20.8470     4.0690     2.2770 
  217.0000   201.9890    11.0920    63.8880    91.4940    24.0580    22.4700     8.8180    20.5600     4.0030     2.2440 
  217.1250   202.0960    11.1020    63.9500    91.4940    24.0580    22.4700     8.8900    20.2800     3.8700     2.2070 
  217.2500   202.2040    11.1120    64.0130    91.4940    24.0580    22.4700     9.4030    20.1490     3.7390     2.1740 
  217.3750   202.3110    11.1230    64.0760    91.4940    24.0580    22.4700     9.5720    20.1160     3.2250     2.1530 
  217.5000   202.4190    11.1330    64.1390    91.4940    24.0580    22.4700     9.1540    19.8920     2.9030     2.1560 
  217.6250   202.5260    11.1440    64.2020    91.4940    24.0580    22.4700     8.0370    19.1760     2.5930     2.1890 
  217.7500   202.6340    11.1540    64.2650    91.4940    24.0580    22.4700     6.9830    17.9710     2.2790     2.2390 
  217.8750   202.7410    11.1640    64.3280    91.4940    24.0580    22.4700     6.8250    16.8610     1.9310     2.2930 
  218.0000   202.8490    11.1750    64.3910    91.4940    24.0580    22.4700     7.6370    15.8590     1.6010     2.3380 
  218.1250   202.9560    11.1850    64.4540    91.4940    24.0580    22.4700     8.6880    15.1220     1.4050     2.3630 
  218.2500   203.0640    11.1950    64.5170    91.4940    24.0580    22.4700     9.1650    14.4890     1.3930     2.3850 
  218.3750   203.1710    11.2060    64.5790    91.4940    24.0580    22.4700     9.2450    13.9160     1.3810     2.3790 
  218.5000   203.2790    11.2160    64.6420    91.4940    24.0580    22.4700     9.8100    13.4630  -999.2500     2.2630 
  218.6250   203.3860    11.2270    64.7050    91.4940    24.0580    22.4700    10.2390    13.2560  -999.2500     2.0060 
  218.7500   203.4940    11.2370    64.7680    91.4940    24.0580    22.4700    10.3720    13.2080  -999.2500     1.7930 
  218.8750   203.6010    11.2470    64.8310    91.4940    24.0580    22.4700    10.3740    13.2070  -999.2500     1.9270 
  219.0000   203.7090    11.2580    64.8940    91.4940    24.0580    22.4700    10.3710    13.2070  -999.2500     2.4030 
