~V
VERS. 2.00: Ver 2.00
~W
STRT.M 10.0000:
STOP.M 249.0000:
STEP.M 0.1250:
NULL. -999.2500:
UWI. FD11114:
~C
DEPT.M :
TVD. :
DX. :
DY. :
GR.API :
RML.OHMM :
RI. :
RXO.OHMM :
CALI.CM :
SP.MV :
DEN.GM/CC :
~A
# ...
  241.0000   234.8560    37.1880    -5.5800    67.7360    10.2750     8.3720     6.2580    23.8150   -15.7200     2.4210 
  241.1250   234.9720    37.2360    -5.5870    67.7360    10.2950     8.3670     6.2330    23.8060   -15.8300     2.3560 
  241.2500   235.0870    37.2830    -5.5930    67.7360    10.3080     8.3620     6.2140    23.7860   -15.9700     2.3010 
  241.3750   235.2030    37.3300    -5.6000    67.7360    10.3100     8.3570     6.2480    23.7670   -16.0770     2.2670 
  241.5000   235.3180    37.3770    -5.6060    67.7360    10.3020     8.3480     6.2800    23.7510   -16.1510     2.2530 
  241.6250   235.4340    37.4250    -5.6130    67.7360    10.2900     8.3400     6.4890    23.7290   -16.2390     2.2470 
  241.7500   235.5490    37.4720    -5.6190    67.7360    10.2770     8.3390     6.8480    23.6840   -16.3590     2.2380 
  241.8750   235.6650    37.5190    -5.6260    67.7360    10.2710     8.3460     7.0990    23.6320   -16.4600     2.2240 
  242.0000   235.7810    37.5660    -5.6320    67.7360    10.2730     8.3530     7.2550    23.5920   -16.5020     2.2080 
  242.1250   235.8960    37.6140    -5.6390    67.7360    10.2760     8.3550     7.5150    23.5740   -16.5020     2.1980 
  242.2500   236.0120    37.6610    -5.6450    67.7360    10.2690     8.3490     7.7950    23.5780   -16.5000     2.1970 
  242.3750   236.1270    37.7080    -5.6520    67.7360    10.2530     8.3440     7.5990    23.5780   -16.5030     2.2040 
  242.5000   236.2430    37.7560    -5.6590    67.7360    10.2360     8.3420     6.9580    23.5050   -16.4910     2.2090 
  242.6250   236.3580    37.8030    -5.6650    67.7360    10.2270     8.3460     6.3330    23.2620   -16.4440     2.2230 
  242.7500   236.4740    37.8500    -5.6720    67.7360    10.2380     8.3520     5.8510    22.7470   -16.3810     2.2250 
  242.8750   236.5890    37.8970    -5.6780    67.7360    10.2590     8.3540     5.4300    22.0540   -16.3340     2.2190 
  243.0000   236.7050    37.9450    -5.6850    67.7360    10.2810     8.3520     5.2380    21.3440   -16.2890     2.2070 
  243.1250   236.8200    37.9920    -5.6910    67.7360    10.2930     8.3480     5.0500    20.7600   -16.2100     2.1890 
  243.2500   236.9360    38.0390    -5.6980    67.7360    10.2940     8.3460     5.0500    20.3650   -16.1060     2.1720 
  243.3750   237.0510    38.0860    -5.7040    67.7360    10.2900     8.3470     5.1680    20.0740   -16.0320     2.1650 
  243.5000   237.1670    38.1340    -5.7110    67.7360    10.2860     8.3480     5.3140    19.8390   -16.0010     2.1720 
  243.6250   237.2820    38.1810    -5.7170    67.7360    10.2870     8.3480     5.4550    19.6550   -15.9980     2.1910 
  243.7500   237.3980    38.2280    -5.7240    67.7360    10.2960     8.3460     5.6000    19.5310   -16.0000     2.2170 
  243.8750   237.5140    38.2750    -5.7300    67.7360    10.3040     8.3450     5.9020    19.4830   -16.0000     2.2380 
  244.0000   237.6290    38.3230    -5.7370    67.7360    10.3070     8.3460     6.2710    19.4950   -16.0000     2.2500 
  244.1250   237.7450    38.3700    -5.7430    67.7360    10.2910     8.3500     6.2980    19.5130   -16.0000     2.2560 
  244.2500   237.8600    38.4170    -5.7500    67.7360    10.0980     8.4800     6.0460    19.5050   -16.0000     2.2540 
  244.3750   237.9760    38.4650    -5.7560    67.7360     9.9610    10.4610     5.9140    19.5020   -16.0000     2.2450 
  244.5000   238.0910    38.5120    -5.7630    67.7360    12.2050    18.0440     5.7800    19.5330   -16.0000     2.2290 
  244.6250   238.2070    38.5590    -5.7690    67.7360    12.9170    20.0520     5.6090    19.5350   -15.9650     2.2120 
  244.7500   238.3220    38.6060    -5.7760    67.7360    12.9170    20.0520     5.4110    19.2730   -16.1470     2.2010 
  244.8750   238.4380    38.6540    -5.7820    67.7360    12.9170    20.0520     5.1930    18.7780   -15.6950     2.2010 
  245.0000   238.5530    38.7010    -5.7890    67.7360    12.9170    20.0520     5.0850    18.3010    -8.5690     2.2110 
  245.1250   238.6780    38.7010    -5.7890    67.7360    12.9170    20.0520     5.0720    18.0660    -6.4200     2.2250 
  245.2500   238.8030    38.7010    -5.7890    67.7360    12.9170    20.0520     5.0830    18.0560    -6.4200     2.2330 
  245.3750   238.9280    38.7010    -5.7890    67.7360    12.9170    20.0520     5.0820    18.0670    -6.4200     2.2340 
  245.5000   239.0530    38.7010    -5.7890    67.7360    12.9170    20.0520     5.0820    18.0660  -999.2500     2.2310 
  245.6250   239.1780    38.7010    -5.7890    67.7360    12.9170    20.0520     5.0820    18.0620  -999.2500     2.2270 
  245.7500   239.3030    38.7010    -5.7890    67.7360    12.9170    20.0520     5.0820    18.0610  -999.2500     2.2230 
  245.8750   239.4280    38.7010    -5.7890    67.7360    12.9170    20.0520     5.0820    18.0630  -999.2500     2.2200 
  246.0000   239.5530    38.7010    -5.7890    67.7360    12.9170    20.0520     5.0820    18.0640  -999.2500     2.2210 
  246.1250   239.6780    38.7010    -5.7890    67.7360    12.9170    20.0520     5.0820    18.0610  -999.2500     2.2260 
  246.2500   239.8030    38.7010    -5.7890    67.7360    12.9170    20.0520     5.0810    18.0600  -999.2500     2.2340 
  246.3750   239.9280    38.7010    -5.7890    67.7360    12.9170    20.0520     5.0810    18.0630  -999.2500     2.2420 
  246.5000   240.0530    38.7010    -5.7890    67.7360    12.9170    20.0520     5.0820    18.0650  -999.2500     2.2470 
  246.6250   240.1780    38.7010    -5.7890    67.7360    12.9170    20.0520     5.0830    18.0630  -999.2500     2.2470 
  246.7500   240.3030    38.7010    -5.7890    67.7360    12.9170    20.0520     5.0820    18.0600  -999.2500     2.2430 
  246.8750   240.4280    38.7010    -5.7890    67.7360    12.9170    20.0520     5.0810    18.0600  -999.2500     2.2380 
  247.0000   240.5530    38.7010    -5.7890    67.7360    12.9170    20.0520     5.0810    18.0600  -999.2500     2.2340 
  247.1250   240.6780    38.7010    -5.7890    67.7360    12.9170    20.0520     5.0810    18.0580  -999.2500     2.2330 
  247.2500   240.8030    38.7010    -5.7890    67.7360    12.9170    20.0520     5.0800    18.0540  -999.2500     2.2350 
  247.3750   240.9280    38.7010    -5.7890    67.7360    12.9170    20.0520     5.0800    18.0530  -999.2500     2.2370 
  247.5000   241.0530    38.7010    -5.7890    67.7360    12.9170    20.0520     5.0810    18.0540  -999.2500     2.2380 
  247.6250   241.1780    38.7010    -5.7890    67.7360    12.9170    20.0520     5.0800    18.0570  -999.2500     2.2370 
  247.7500   241.3030    38.7010    -5.7890    67.7360    12.9170    20.0520     5.0800    18.0570  -999.2500     2.2330 
  247.8750   241.4280    38.7010    -5.7890    67.7360    12.9170    20.0520     5.0800    18.0580  -999.2500     2.2290 
  248.0000   241.5530    38.7010    -5.7890    67.7360    12.9170    20.0520     5.0790    18.0580  -999.2500     2.2270 
  248.1250   241.6780    38.7010    -5.7890    67.7360    12.9170    20.0520     5.0800    18.0560  -999.2500     2.2280 
  248.2500   241.8030    38.7010    -5.7890    67.7360    12.9170    20.0520     5.0790    18.0540  -999.2500     2.2340 
  248.3750   241.9280    38.7010    -5.7890    67.7360    12.9170    20.0520     5.0790    18.0530  -999.2500     2.2390 
  248.5000   242.0530    38.7010    -5.7890    67.7360    12.9170    20.0520     5.0800    18.0520  -999.2500     2.2340 
  248.6250   242.1780    38.7010    -5.7890    67.7360    12.9170    20.0520     5.0810    18.0490  -999.2500     2.2180 
  248.7500   242.3030    38.7010    -5.7890    67.7360    12.9170    20.0520     5.0800    18.0460  -999.2500  -999.2500 
  248.8750   242.4280    38.7010    -5.7890    67.7360    12.9170    20.0520     5.0780    18.0440  -999.2500  -999.2500 
  249.0000   242.5530    38.7010    -5.7890    67.7360    12.9170    20.0520     5.0780    18.0410  -999.2500  -999.2500 
