~V
VERS. 2.00: Ver 2.00
~W
STRT.M 11.0000:
STOP.M 273.0000:
STEP.M 0.1250:
NULL. -999.2500:
UWI. FD11023:
~C
DEPT.M :
TVD. :
DX. :
DY. :
GR.API :
RML.OHMM :
RI. :
RXO.OHMM :
CALI.CM :
DEN.GM/CC :
SP.MV :
~A
# ...
   52.2500    52.2490    -0.1610    -0.0870    65.3760    10.0250     5.7220     6.2100    25.2810     2.2270   -18.6010 
   52.3750    52.3740    -0.1620    -0.0870    67.7270     9.6380     5.5450     6.0970    25.2530     2.2130   -18.4770 
   52.5000    52.4990    -0.1630    -0.0870    70.2750     9.4350     5.4350     6.0050    25.1980     2.2030   -18.4860 
   52.6250    52.6240    -0.1640    -0.0880    71.3680     9.5180     5.4470     5.8930    25.1590     2.1940   -18.6410 
   52.7500    52.7490    -0.1640    -0.0880    70.9740     9.8060     5.5600     5.8090    25.1460     2.1930   -18.8800 
   52.8750    52.8740    -0.1650    -0.0880    67.8820    10.1990     5.7410     5.7600    25.1440     2.2060   -19.1580 
   53.0000    52.9990    -0.1660    -0.0880    62.0730    10.5800     5.9410     5.8140    25.1440     2.2240   -19.4380 
   53.1250    53.1240    -0.1670    -0.0890    59.7880    10.8230     6.0970     5.9220    25.1440     2.2380   -19.6820 
   53.2500    53.2490    -0.1680    -0.0890    62.6370    10.9070     6.1830     6.0220    25.1440     2.2420   -19.8830 
   53.3750    53.3740    -0.1690    -0.0890    66.5800    10.8510     6.1920     6.1110    25.1440     2.2370   -20.0600 
   53.5000    53.4990    -0.1690    -0.0900    66.5410    10.6940     6.1360     6.1920    25.1440     2.2280   -20.2500 
   53.6250    53.6240    -0.1700    -0.0900    62.6870    10.4770     6.0330     6.3160    25.1470     2.2150   -20.4910 
   53.7500    53.7490    -0.1710    -0.0900    59.8180    10.2520     5.9160     6.3820    25.1700     2.1950   -20.7830 
   53.8750    53.8740    -0.1720    -0.0900    59.9860    10.0610     5.8140     6.4140    25.2400     2.1690   -21.1150 
   54.0000    53.9990    -0.1730    -0.0910    62.7290     9.9540     5.7500     6.3990    25.3510     2.1460   -21.4530 
   54.1250    54.1240    -0.1740    -0.0910    66.6980    10.0090     5.7630     6.3710    25.4320     2.1420   -21.7750 
   54.2500    54.2490    -0.1740    -0.0910    68.0140    10.2250     5.8520     6.3280    25.4780     2.1550   -22.0910 
   54.3750    54.3740    -0.1750    -0.0910    65.6590    10.5620     6.0060     6.2800    25.5250     2.1670   -22.3950 
   54.5000    54.4990    -0.1760    -0.0920    60.0990    10.9410     6.1980     6.2350    25.5610     2.1680   -22.6850 
   54.6250    54.6240    -0.1770    -0.0920    53.8930    11.2330     6.3780     6.1740    25.5760     2.1610   -22.9280 
   54.7500    54.7490    -0.1780    -0.0920    49.9890    11.3610     6.4990     6.1290    25.5870     2.1560   -23.0980 
   54.8750    54.8740    -0.1790    -0.0920    48.8410    11.3060     6.5360     6.1130    25.6070     2.1580   -23.1920 
   55.0000    54.9990    -0.1790    -0.0930    50.2230    11.1100     6.4880     6.1150    25.6190     2.1690   -23.1970 
   55.1250    55.1240    -0.1800    -0.0930    52.8960    10.8470     6.3700     6.1750    25.6230     2.1790   -23.1230 
   55.2500    55.2490    -0.1810    -0.0930    54.6750    10.6020     6.2300     6.2200    25.6240     2.1790   -23.0130 
   55.3750    55.3740    -0.1820    -0.0940    56.0810    10.4090     6.0930     6.1740    25.6250     2.1690   -22.8680 
   55.5000    55.4990    -0.1830    -0.0940    58.0990    10.2770     5.9770     6.0330    25.6230     2.1570   -22.7090 
   55.6250    55.6240    -0.1840    -0.0940    60.0350    10.2040     5.8900     5.8850    25.6220     2.1540   -22.5440 
   55.7500    55.7490    -0.1840    -0.0940    61.1080    10.1550     5.8240     5.7860    25.6220     2.1650   -22.3820 
   55.8750    55.8740    -0.1850    -0.0950    61.7610    10.1030     5.7700     5.7030    25.6230     2.1850   -22.2410 
   56.0000    55.9990    -0.1860    -0.0950    62.9320    10.0290     5.7200     5.6300    25.6240     2.2010   -22.1270 
   56.1250    56.1240    -0.1860    -0.0950    63.5100     9.9190     5.6730     5.5180    25.6230     2.1960   -22.0360 
   56.2500    56.2490    -0.1870    -0.0960    62.7330     9.7920     5.6340     5.4800    25.6240     2.1750   -21.9620 
   56.3750    56.3740    -0.1870    -0.0960    60.4420     9.6790     5.6210     5.5000    25.6230     2.1550   -21.9030 
   56.5000    56.4990    -0.1880    -0.0970    57.7000     9.6190     5.6550     5.5980    25.6220     2.1390   -21.8760 
   56.6250    56.6240    -0.1890    -0.0970    54.7390     9.6670     5.7740     5.7980    25.6220     2.1310   -21.8930 
   56.7500    56.7490    -0.1890    -0.0970    51.4030     9.8270     5.9780     6.0320    25.6220     2.1330   -21.9250 
   56.8750    56.8740    -0.1900    -0.0980    48.7550    10.0820     6.2570     6.2010    25.6230     2.1470   -21.9390 
   57.0000    56.9990    -0.1900    -0.0980    47.9940    10.3820     6.5790     6.5030    25.6320     2.1600   -21.8840 
   57.1250    57.1240    -0.1910    -0.0990    47.8140    10.6440     6.8840     6.6020    25.6550     2.1540   -21.7100 
   57.2500    57.2490    -0.1920    -0.0990    47.6900    10.7940     7.1160     6.7470    25.6760     2.1400   -21.4470 
   57.3750    57.3740    -0.1920    -0.0990    49.8790    10.7820     7.2360     6.8490    25.6830     2.1340   -21.1130 
   57.5000    57.4990    -0.1930    -0.1000    52.1810    10.5840     7.2220     6.9350    25.6730     2.1450   -20.7470 
   57.6250    57.6240    -0.1930    -0.1000    50.5340    10.1690     7.0470     6.9500    25.6330     2.1660   -20.3660 
   57.7500    57.7490    -0.1940    -0.1010    48.8880     9.5960     6.7450     6.8320    25.5680     2.1940   -19.9630 
   57.8750    57.8740    -0.1950    -0.1010    49.5630     8.9170     6.3440     6.6860    25.5080     2.2290   -19.5450 
   58.0000    57.9990    -0.1950    -0.1010    51.6710     8.2090     5.8860     6.4640    25.4430     2.2630   -19.1110 
   58.1250    58.1240    -0.1960    -0.1020    56.1110     7.6000     5.4410     6.3030    25.3670     2.2760   -18.6960 
   58.2500    58.2490    -0.1960    -0.1020    65.8170     7.1770     5.0730     6.1570    25.2950     2.2700   -18.3640 
   58.3750    58.3740    -0.1970    -0.1030    78.1840     6.9860     4.8180     5.9570    25.2230     2.2570   -18.1500 
   58.5000    58.4990    -0.1970    -0.1030    86.5980     7.0090     4.6860     5.7530    25.1560     2.2470   -18.0880 
   58.6250    58.6240    -0.1980    -0.1030    86.7370     7.1860     4.6690     5.6060    25.1040     2.2430   -18.2080 
   58.7500    58.7490    -0.1990    -0.1040    84.5050     7.4000     4.7170     5.5390    25.0620     2.2410   -18.4480 
   58.8750    58.8740    -0.1990    -0.1040    83.8930     7.6130     4.8130     5.5320    25.0370     2.2460   -18.7740 
   59.0000    58.9990    -0.2000    -0.1050    83.2720     7.8750     4.9740     6.0780    25.0290     2.2560   -19.1450 
   59.1250    59.1240    -0.2000    -0.1050    79.4510     8.4190     5.3020     6.9350    25.0290     2.2760   -19.5300 
   59.2500    59.2490    -0.2010    -0.1050    73.9390     9.4860     5.9080     8.5080    25.0290     2.3140   -19.9050 
   59.3750    59.3740    -0.2020    -0.1060    69.2920    11.2520     6.9060    11.1910    25.0290     2.3720   -20.2550 
   59.5000    59.4990    -0.2020    -0.1060    65.2490    13.6530     8.3060    13.2790    25.0290     2.4270   -20.5710 
   59.6250    59.6240    -0.2030    -0.1070    60.8040    16.1970     9.9160    15.4060    25.0290     2.4210   -20.8460 
   59.7500    59.7490    -0.2030    -0.1070    56.1900    18.0200    11.2550    17.0510    25.0290     2.3430   -21.0940 
   59.8750    59.8740    -0.2040    -0.1070    51.5790    18.4000    11.8650    17.2020    25.0290     2.2330   -21.3260 
   60.0000    59.9990    -0.2050    -0.1080    49.8360    17.0560    11.4730    14.2620    25.0360     2.1460   -21.5490 
   60.1250    60.1240    -0.2050    -0.1080    52.4970    14.4590    10.1990    12.1190    25.0540     2.1110   -21.7600 
   60.2500    60.2490    -0.2060    -0.1090    55.8360    11.9750     8.8120     9.7630    25.0760     2.1100   -21.9580 
   60.3750    60.3740    -0.2060    -0.1090    57.6420    10.2710     7.7460     8.7730    25.0850     2.1240   -22.1200 
