~V
VERS. 2.00: Ver 2.00
~W
STRT.M 20.0000:
STOP.M 292.0000:
STEP.M 0.1250:
NULL. -999.2500:
UWI. FD11146:
~C
DEPT.M :
TVD. :
DX. :
DY. :
GR.API :
RML.OHMM :
RI. :
RXO.OHMM :
CALI.CM :
SP.MV :
DEN.GM/CC :
~A
# ...
  110.7500   109.8260     7.9340    -6.6350    57.9640     8.9230     7.5250    10.8910    24.0550   -15.7530     2.2350 
  110.8750   109.9470     7.9550    -6.6560    63.5030     8.3430     7.2570    10.3850    24.0550   -15.0910     2.2450 
  111.0000   110.0680     7.9770    -6.6760    71.4760     7.3950     6.7330     8.5760    24.0550   -14.4680     2.2700 
  111.1250   110.1900     7.9990    -6.6970    76.3280     6.4640     6.1330     6.7500    24.0550   -13.9650     2.2970 
  111.2500   110.3110     8.0210    -6.7180    78.0180     5.9000     5.6790     5.9700    24.0550   -13.6150     2.3150 
  111.3750   110.4330     8.0420    -6.7380    78.2260     5.8500     5.4980     5.6790    24.0550   -13.4590     2.3200 
  111.5000   110.5540     8.0640    -6.7590    76.6040     6.3190     5.6380     5.9000    24.0550   -13.5370     2.3180 
  111.6250   110.6750     8.0860    -6.7790    70.8990     7.2300     6.1100     6.8950    24.0550   -13.8770     2.3120 
  111.7500   110.7970     8.1080    -6.8000    63.2590     8.2380     6.7280     8.4120    24.0550   -14.3900     2.3040 
  111.8750   110.9180     8.1300    -6.8210    57.3530     9.0240     7.2930     9.5690    24.0550   -15.0100     2.2960 
  112.0000   111.0390     8.1510    -6.8410    56.0530     9.3600     7.6180     9.7790    24.0550   -15.6550     2.2830 
  112.1250   111.1610     8.1730    -6.8620    58.4690     9.2110     7.6070     9.3770    24.0550   -16.2620     2.2570 
  112.2500   111.2820     8.1950    -6.8830    60.1270     8.9090     7.4340     9.0900    24.0550   -16.8300     2.2320 
  112.3750   111.4030     8.2170    -6.9030    60.3710     8.6810     7.2600     8.7800    24.0550   -17.3630     2.2210 
  112.5000   111.5250     8.2390    -6.9240    60.3390     8.6550     7.2030     8.3530    24.0550   -17.8770     2.2170 
  112.6250   111.6460     8.2600    -6.9450    60.0580     8.8710     7.3340     8.9970    24.0550   -18.4040     2.2020 
  112.7500   111.7670     8.2820    -6.9650    59.1750     9.2160     7.5880    10.1740    24.0550   -18.9590     2.1780 
  112.8750   111.8890     8.3040    -6.9860    58.0300     9.5910     7.8890    10.8180    24.0550   -19.5340     2.1590 
  113.0000   112.0100     8.3260    -7.0060    56.6440     9.9070     8.1590    10.7370    24.0550   -20.1110     2.1520 
  113.1250   112.1310     8.3470    -7.0270    53.6560    10.1020     8.3280    10.4820    24.0550   -20.6450     2.1540 
  113.2500   112.2530     8.3690    -7.0480    49.9720    10.1980     8.3940    10.2840    24.0550   -21.0720     2.1610 
  113.3750   112.3740     8.3910    -7.0680    48.0270    10.2190     8.3720    10.2130    24.0560   -21.3530     2.1750 
  113.5000   112.4950     8.4130    -7.0890    48.2270    10.1480     8.2720     9.9940    24.0650   -21.4750     2.1930 
  113.6250   112.6170     8.4350    -7.1100    50.5970     9.9190     8.0830     9.7250    24.0870   -21.4160     2.2050 
  113.7500   112.7380     8.4560    -7.1300    54.6760     9.5560     7.8350     9.4330    24.1120   -21.2110     2.2080 
  113.8750   112.8590     8.4780    -7.1510    57.7800     9.1210     7.5700     9.2860    24.1230   -20.8700     2.2040 
  114.0000   112.9810     8.5000    -7.1720    58.6490     8.7260     7.3480     9.0380    24.1250   -20.4280     2.1980 
  114.1250   113.1020     8.5220    -7.1920    59.3500     8.5010     7.2340     8.6720    24.1250   -19.8860     2.1910 
  114.2500   113.2230     8.5430    -7.2130    60.6600     8.4550     7.2220     9.1510    24.1250   -19.2740     2.1830 
  114.3750   113.3450     8.5650    -7.2330    60.4910     8.5980     7.3190    10.1000    24.1250   -18.5780     2.1750 
  114.5000   113.4660     8.5870    -7.2540    56.9530     8.9820     7.5590    10.9220    24.1250   -17.7700     2.1750 
  114.6250   113.5870     8.6090    -7.2750    55.9460     9.6900     8.0200    10.9310    24.1250   -16.8110     2.1980 
  114.7500   113.7090     8.6310    -7.2950    60.6230    10.5600     8.6310    10.1330    24.1250   -15.7390     2.2400 
  114.8750   113.8300     8.6520    -7.3160    66.4300    11.2880     9.2080     9.8610    24.1250   -14.5940     2.2950 
  115.0000   113.9510     8.6740    -7.3370    67.3330    11.4330     9.4430    11.5740    24.1250   -13.4120     2.3520 
  115.1250   114.0730     8.6960    -7.3570    65.8740    10.4890     8.9470    15.6780    24.1250   -12.2470     2.3870 
  115.2500   114.1940     8.7180    -7.3780    70.0840     8.8240     7.9080    15.6540    24.1250   -11.1610     2.3860 
  115.3750   114.3150     8.7400    -7.3980    79.1190     7.0350     6.6920    10.7360    24.1250   -10.2240     2.3570 
  115.5000   114.4370     8.7610    -7.4190    87.3840     5.6240     5.6380     6.7080    24.1250    -9.4970     2.3240 
  115.6250   114.5580     8.7830    -7.4400    90.3420     4.8910     4.9790     5.2370    24.1250    -9.0570     2.3020 
  115.7500   114.6790     8.8050    -7.4600    89.9360     4.7140     4.6900     5.0070    24.1250    -8.8570     2.2860 
  115.8750   114.8010     8.8270    -7.4810    88.8210     4.9920     4.7350     5.0690    24.1250    -8.8590     2.2680 
  116.0000   114.9220     8.8500    -7.5040    86.3810     5.6090     5.0600     5.2090    24.1250    -9.0050     2.2500 
  116.1250   115.0420     8.8730    -7.5280    81.0800     6.4940     5.6320     5.6690    24.1250    -9.2300     2.2400 
  116.2500   115.1620     8.8960    -7.5520    74.4410     7.5030     6.3490     6.6190    24.1250    -9.4370     2.2410 
  116.3750   115.2830     8.9200    -7.5760    68.5120     8.4770     7.1120     7.6930    24.1250    -9.5660     2.2470 
  116.5000   115.4030     8.9430    -7.6000    65.2650     9.1780     7.7590     8.4770    24.1250    -9.5790     2.2610 
  116.6250   115.5240     8.9670    -7.6240    66.8850     9.2600     8.0270     9.1860    24.1250    -9.4560     2.2940 
  116.7500   115.6440     8.9900    -7.6480    71.8200     8.7640     7.8710     9.4910    24.1250    -9.2430     2.3490 
  116.8750   115.7640     9.0130    -7.6720    77.8840     7.9010     7.3760     8.2810    24.1300    -8.9590     2.4040 
  117.0000   115.8850     9.0370    -7.6960    82.5620     7.0200     6.7450     6.2310    24.1490    -8.6270     2.4200 
  117.1250   116.0050     9.0600    -7.7190    85.6800     6.4860     6.2140     5.2740    24.1970    -8.2790     2.3820 
  117.2500   116.1260     9.0840    -7.7430    84.9920     6.3330     5.8800     5.0550    24.2370    -7.9620     2.3380 
  117.3750   116.2460     9.1070    -7.7670    81.9510     6.4560     5.7370     5.3760    24.2610    -7.7150     2.3140 
  117.5000   116.3670     9.1300    -7.7910    80.5070     6.6670     5.7200     5.8390    24.2690    -7.5620     2.3120 
  117.6250   116.4870     9.1540    -7.8150    81.7210     6.7150     5.7160     5.9620    24.2690    -7.5020     2.3160 
  117.7500   116.6070     9.1770    -7.8390    83.0900     6.5230     5.6420     5.5210    24.2690    -7.4870     2.3150 
  117.8750   116.7280     9.2010    -7.8630    83.6910     6.1730     5.4980     5.3230    24.2690    -7.4900     2.3090 
  118.0000   116.8480     9.2240    -7.8870    84.3970     5.8170     5.3330     5.1880    24.2690    -7.5010     2.3090 
  118.1250   116.9690     9.2470    -7.9110    86.7230     5.5780     5.2050     4.9050    24.2690    -7.5080     2.3180 
  118.2500   117.0890     9.2710    -7.9350    88.2590     5.4430     5.1230     4.8290    24.2690    -7.5070     2.3260 
  118.3750   117.2100     9.2940    -7.9590    87.3750     5.3820     5.0760     4.9230    24.2690    -7.4850     2.3230 
  118.5000   117.3300     9.3180    -7.9830    85.2270     5.3800     5.0580     5.0750    24.2690    -7.4370     2.3120 
  118.6250   117.4500     9.3410    -8.0070    85.4430     5.4490     5.0790     5.1730    24.2690    -7.3670     2.3050 
  118.7500   117.5710     9.3640    -8.0310    87.8650     5.5700     5.1330     5.2830    24.2690    -7.2980     2.3110 
  118.8750   117.6910     9.3880    -8.0550    89.2700     5.7070     5.2020     5.2850    24.2690    -7.2380     2.3310 
