~V
VERS. 2.00: Ver 2.00
~W
STRT.M 35.0000:
STOP.M 279.0000:
STEP.M 0.1250:
NULL. -999.2500:
UWI. FD11183:
~C
DEPT.M :
TVD. :
DX. :
DY. :
SP.MV :
GR.API :
RI. :
RML.OHMM :
RXO.OHMM :
DEN.GM/CC :
~A
# ...
  226.6250   216.2430   -53.2480     8.9770  -109.0960    65.0230     7.8280     8.2120     7.8800     2.1330 
  226.7500   216.3560   -53.3000     8.9850  -109.1370    61.8700     7.3080     7.6000     7.4890     2.1350 
  226.8750   216.4700   -53.3530     8.9920  -109.1540    59.8200     6.8930     7.1080     6.9780     2.1410 
  227.0000   216.5830   -53.4050     8.9990  -109.2160    61.0640     6.6230     6.8140     6.6040     2.1490 
  227.1250   216.6960   -53.4570     9.0070  -109.3480    65.1470     6.5890     6.8220     6.5440     2.1510 
  227.2500   216.8090   -53.5090     9.0140  -109.4430    68.7290     6.7510     7.0630     6.6860     2.1480 
  227.3750   216.9230   -53.5620     9.0210  -109.5230    70.6180     6.9890     7.3600     7.1750     2.1470 
  227.5000   217.0360   -53.6140     9.0290  -109.6400    70.3170     7.2050     7.6010     8.0510     2.1470 
  227.6250   217.1500   -53.6660     9.0360  -109.7980    69.5570     7.3280     7.7310     8.2470     2.1440 
  227.7500   217.2630   -53.7180     9.0430  -109.9620    66.5910     7.3570     7.7760     6.9150     2.1380 
  227.8750   217.3760   -53.7700     9.0510  -110.1490    62.4950     7.3010     7.7390     6.5830     2.1360 
  228.0000   217.4900   -53.8230     9.0580  -110.3050    59.7090     7.1600     7.5890     6.8320     2.1390 
  228.1250   217.6030   -53.8750     9.0650  -110.4750    59.7490     6.9260     7.3240     7.0190     2.1480 
  228.2500   217.7160   -53.9270     9.0730  -110.7300    60.5290     6.6750     7.0380     6.9390     2.1590 
  228.3750   217.8300   -53.9790     9.0800  -111.0000    61.6560     6.4700     6.8260     6.8820     2.1690 
  228.5000   217.9430   -54.0310     9.0880  -111.2120    62.5560     6.3580     6.7590     6.9470     2.1730 
  228.6250   218.0560   -54.0830     9.0950  -111.4270    62.7820     6.3700     6.8520     7.0380     2.1740 
  228.7500   218.1700   -54.1350     9.1020  -111.6290    64.6980     6.4410     7.0070     7.0190     2.1720 
  228.8750   218.2830   -54.1880     9.1100  -111.7170    68.2950     6.4850     7.0880     6.8360     2.1630 
  229.0000   218.3960   -54.2400     9.1170  -111.7240    69.4070     6.4300     7.0190     6.6200     2.1520 
  229.1250   218.5100   -54.2920     9.1240  -111.6820    66.1840     6.3110     6.8640     6.4550     2.1470 
  229.2500   218.6230   -54.3440     9.1310  -111.6260    62.3860     6.2230     6.7550     6.3420     2.1480 
  229.3750   218.7360   -54.3960     9.1390  -111.6030    63.8190     6.2420     6.7900     6.2970     2.1450 
  229.5000   218.8500   -54.4490     9.1460  -111.6540    68.1930     6.4030     7.0040     6.3160     2.1390 
  229.6250   218.9630   -54.5010     9.1530  -111.7790    70.2150     6.6330     7.2860     6.4230     2.1360 
  229.7500   219.0760   -54.5530     9.1600  -111.9220    67.3800     6.8290     7.5160     6.5990     2.1350 
  229.8750   219.1900   -54.6050     9.1680  -111.9460    63.6180     6.9100     7.5910     6.7990     2.1360 
  230.0000   219.3030   -54.6580     9.1750  -111.9390    62.9530     6.8290     7.4670     7.0200     2.1390 
  230.1250   219.4160   -54.7100     9.1820  -112.0210    63.3810     6.6230     7.1770     7.1290     2.1430 
  230.2500   219.5300   -54.7620     9.1890  -112.1130    63.5450     6.3600     6.8090     6.9520     2.1440 
  230.3750   219.6430   -54.8150     9.1970  -112.2320    65.4020     6.0930     6.4320     6.5850     2.1430 
  230.5000   219.7560   -54.8670     9.2050  -112.3100    69.3790     5.8660     6.1320     6.2710     2.1410 
  230.6250   219.8690   -54.9190     9.2120  -112.4320    72.1710     5.7090     5.9740     6.0810     2.1370 
  230.7500   219.9830   -54.9720     9.2190  -112.6930    70.9740     5.6410     5.9420     6.0030     2.1360 
  230.8750   220.0960   -55.0240     9.2270  -113.0050    67.7500     5.6600     6.0210     5.9900     2.1400 
  231.0000   220.2090   -55.0760     9.2350  -113.3610    65.8850     5.7390     6.1560     5.9230     2.1440 
  231.1250   220.3230   -55.1280     9.2420  -113.6590    66.9150     5.8660     6.3240     5.8270     2.1470 
  231.2500   220.4360   -55.1810     9.2500  -113.8260    68.7350     6.0140     6.4880     5.9230     2.1520 
  231.3750   220.5490   -55.2330     9.2570  -113.9380    68.1050     6.1900     6.6540     6.4090     2.1610 
  231.5000   220.6630   -55.2850     9.2650  -113.9010    67.9340     6.3900     6.8190     7.0250     2.1660 
  231.6250   220.7760   -55.3370     9.2720  -113.7000    70.1830     6.5720     6.9800     7.2640     2.1650 
  231.7500   220.8890   -55.3890     9.2790  -113.4510    71.5100     6.7250     7.1070     7.0890     2.1570 
  231.8750   221.0030   -55.4410     9.2870  -113.2120    68.8730     6.8180     7.1740     6.8740     2.1450 
  232.0000   221.1160   -55.4940     9.2940  -113.0280    64.1500     6.8600     7.1960     6.8200     2.1370 
  232.1250   221.2300   -55.5460     9.3010  -112.9580    61.4960     6.8680     7.1880     6.7750     2.1360 
  232.2500   221.3430   -55.5980     9.3080  -112.9970    60.4080     6.8530     7.1810     6.6290     2.1370 
  232.3750   221.4560   -55.6500     9.3150  -113.0620    59.9350     6.8440     7.1880     6.6200     2.1400 
  232.5000   221.5700   -55.7020     9.3220  -113.2140    61.3730     6.8460     7.2010     6.9330     2.1470 
  232.6250   221.6830   -55.7540     9.3290  -113.4740    63.6370     6.8670     7.2210     7.3510     2.1570 
  232.7500   221.7970   -55.8060     9.3370  -113.7130    65.9420     6.8970     7.2070     7.6230     2.1600 
  232.8750   221.9100   -55.8580     9.3440  -113.8830    67.9990     6.9150     7.1200     7.7280     2.1580 
  233.0000   222.0240   -55.9100     9.3510  -114.0050    70.8330     6.9040     6.9900     7.7100     2.1590 
  233.1250   222.1370   -55.9620     9.3590  -114.1220    73.3860     6.9150     6.9010     7.5520     2.1640 
  233.2500   222.2500   -56.0140     9.3660  -114.2530    73.5540     6.9890     6.9260     7.3780     2.1710 
  233.3750   222.3640   -56.0660     9.3730  -114.3540    72.8560     7.1890     7.1170     7.2720     2.1780 
  233.5000   222.4770   -56.1180     9.3810  -114.4640    72.4430     7.5220     7.4750     7.3850     2.1810 
  233.6250   222.5910   -56.1700     9.3880  -114.5980    70.8120     8.0010     8.0510     7.6750     2.1710 
  233.7500   222.7040   -56.2220     9.3960  -114.6910    67.3510     8.5910     8.8270     8.0850     2.1570 
  233.8750   222.8170   -56.2740     9.4040  -114.8540    63.8600     9.2310     9.6680    10.5640     2.1540 
  234.0000   222.9310   -56.3260     9.4110  -115.0170    61.7020     9.8390    10.3900    11.3530     2.1580 
  234.1250   223.0440   -56.3780     9.4190  -115.1400    62.5130    10.4420    10.9680    11.5270     2.1570 
  234.2500   223.1570   -56.4310     9.4270  -115.2890    66.2580    11.1360    11.5210    11.4190     2.1560 
  234.3750   223.2710   -56.4830     9.4340  -115.4180    68.7640    11.9090    12.1910    11.3230     2.1710 
  234.5000   223.3840   -56.5350     9.4420  -115.4820    67.3790    12.6320    12.8450    12.1790     2.2010 
  234.6250   223.4970   -56.5870     9.4500  -115.5200    65.3380    13.1010    13.2880    14.0040     2.2230 
  234.7500   223.6110   -56.6390     9.4580  -115.5610    64.7190    13.1980    13.3880    15.2000     2.2190 
  234.8750   223.7240   -56.6920     9.4660  -115.6530    65.3780    12.8550    13.1110    14.6190     2.1930 
  235.0000   223.8370   -56.7440     9.4740  -115.7210    65.6050    12.1990    12.5370    12.9980     2.1650 
  235.1250   223.9510   -56.7960     9.4820  -115.7480    66.1470    11.3790    11.7350    11.6410     2.1490 
  235.2500   224.0640   -56.8480     9.4900  -115.7890    67.4210    10.6800    10.9810    11.0180     2.1490 
  235.3750   224.1770   -56.9010     9.4980  -115.7930    70.6440    10.3290    10.4940    10.7650     2.1590 
  235.5000   224.2900   -56.9530     9.5060  -115.7790    72.8400    10.3160    10.4010    10.6240     2.1700 
  235.6250   224.4030   -57.0050     9.5140  -115.7640    71.6340    10.6340    10.7240    10.7430     2.1700 
