~V
VERS. 2.00: Ver 2.00
~W
STRT.M 50.0000:
STOP.M 286.0000:
STEP.M 0.1250:
NULL. -999.2500:
UWI. FD11181:
~C
DEPT.M :
TVD. :
DX. :
DY. :
SP.MV :
GR.API :
RI. :
RML.OHMM :
RXO.OHMM :
DEN.GM/CC :
~A
# ...
  123.0000   122.6630    -5.4900     1.5390   -23.4530    56.6810     5.0290     5.5680     6.0420     2.1190 
  123.1250   122.7860    -5.5140     1.5430   -23.3950    56.6460     5.0330     5.5340     5.7300     2.1210 
  123.2500   122.9080    -5.5370     1.5460   -23.4180    57.1710     5.0040     5.4540     5.7210     2.1360 
  123.3750   123.0310    -5.5600     1.5490   -23.4760    58.5500     4.9730     5.3780     5.9700     2.1490 
  123.5000   123.1540    -5.5840     1.5520   -23.4140    60.1710     5.0030     5.3800     6.3030     2.1470 
  123.6250   123.2770    -5.6070     1.5560   -23.1000    61.5890     5.1250     5.5040     6.5640     2.1360 
  123.7500   123.3990    -5.6310     1.5590   -22.5790    62.2610     5.3080     5.7070     6.7540     2.1290 
  123.8750   123.5220    -5.6550     1.5620   -21.9870    62.1380     5.3820     5.7760     6.9050     2.1290 
  124.0000   123.6450    -5.6780     1.5650   -21.3980    62.5360     5.1560     5.5480     6.9900     2.1360 
  124.1250   123.7670    -5.7020     1.5690   -20.7180    63.1740     4.7210     5.0400     7.3740     2.1580 
  124.2500   123.8900    -5.7260     1.5720   -19.8270    64.6510     4.1610     4.4300     6.8830     2.1990 
  124.3750   124.0130    -5.7500     1.5750   -18.6130    70.2330     3.7530     3.9900     4.7550     2.2450 
  124.5000   124.1350    -5.7740     1.5790   -17.1200    82.2060     3.5980     3.8400     3.4320     2.2800 
  124.6250   124.2580    -5.7980     1.5820   -15.5290    93.8380     3.6880     3.9780     3.6490     2.3060 
  124.7500   124.3810    -5.8220     1.5850   -14.1890    97.4580     3.9770     4.3180     4.1200     2.3430 
  124.8750   124.5030    -5.8460     1.5880   -13.7060    92.9690     4.3110     4.6520     4.6070     2.3740 
  125.0000   124.6260    -5.8710     1.5920   -14.0390    86.0400     4.4210     4.7600     4.9760     2.3590 
  125.1250   124.7480    -5.8950     1.5950   -14.7470    80.6460     4.2640     4.5450     5.4450     2.2960 
  125.2500   124.8710    -5.9200     1.5980   -15.4220    77.6770     3.8960     4.1300     5.4190     2.2440 
  125.3750   124.9930    -5.9440     1.6010   -15.7150    79.4900     3.5320     3.7190     4.2130     2.2420 
  125.5000   125.1160    -5.9690     1.6050   -15.5770    86.2980     3.2660     3.4450     3.3360     2.2600 
  125.6250   125.2380    -5.9930     1.6080   -15.0830    93.0320     3.1690     3.3610     3.5620     2.2630 
  125.7500   125.3610    -6.0180     1.6110   -14.3750    94.9060     3.1740     3.4120     4.0110     2.2500 
  125.8750   125.4830    -6.0430     1.6140   -13.9660    90.4030     3.2360     3.5080     4.1280     2.2370 
  126.0000   125.6060    -6.0680     1.6170   -14.1470    84.7080     3.3070     3.6010     4.3640     2.2230 
  126.1250   125.7280    -6.0930     1.6200   -14.7180    84.2520     3.4560     3.7960     4.5990     2.2090 
  126.2500   125.8510    -6.1180     1.6230   -15.3160    86.6110     3.8860     4.3210     4.8030     2.2100 
  126.3750   125.9730    -6.1430     1.6260   -15.8070    86.2490     4.8450     5.4020     6.9920     2.2570 
  126.5000   126.0950    -6.1680     1.6290   -16.2880    80.3820     6.1190     6.7830    10.2240     2.3460 
  126.6250   126.2180    -6.1940     1.6320   -16.5760    74.8110     7.1680     7.8570    12.7570     2.4360 
  126.7500   126.3400    -6.2190     1.6350   -16.6260    71.6150     7.5660     8.1590    14.2700     2.4680 
  126.8750   126.4630    -6.2450     1.6380   -16.6090    71.1880     7.0320     7.5280    11.9280     2.4090 
  127.0000   126.5850    -6.2700     1.6400   -16.5780    72.7280     5.9740     6.4010     7.3610     2.3020 
  127.1250   126.7070    -6.2960     1.6430   -16.6450    74.9510     4.8970     5.2960     4.9950     2.2100 
  127.2500   126.8290    -6.3220     1.6460   -16.8790    75.8470     4.1380     4.5320     4.7410     2.1620 
  127.3750   126.9520    -6.3470     1.6490   -17.0680    75.0850     3.7270     4.1720     4.9660     2.1590 
  127.5000   127.0740    -6.3730     1.6510   -16.9320    73.5500     3.6140     4.0620     4.7150     2.1830 
  127.6250   127.1960    -6.3990     1.6540   -16.6600    75.7100     3.6130     4.0750     4.2340     2.2120 
  127.7500   127.3180    -6.4250     1.6560   -16.5210    81.5820     3.6730     4.1440     4.0580     2.2260 
  127.8750   127.4410    -6.4520     1.6590   -16.4640    86.8740     3.7810     4.2680     4.1860     2.2150 
  128.0000   127.5630    -6.4780     1.6620   -16.4250    89.0290     3.9090     4.4040     4.5440     2.1910 
  128.1250   127.6850    -6.5040     1.6640   -16.6720    87.7020     3.9850     4.4780     4.8450     2.1700 
  128.2500   127.8070    -6.5310     1.6670   -17.2820    84.2360     3.9900     4.4620     4.8390     2.1630 
  128.3750   127.9290    -6.5570     1.6690   -18.1980    80.0440     3.9400     4.3810     4.6430     2.1730 
  128.5000   128.0510    -6.5840     1.6720   -19.0740    79.3200     3.8870     4.3160     4.3680     2.1910 
  128.6250   128.1730    -6.6100     1.6750   -19.5130    82.3290     3.8930     4.3400     4.3560     2.2020 
  128.7500   128.2960    -6.6370     1.6770   -19.6470    84.6500     3.9690     4.4620     4.8260     2.1970 
  128.8750   128.4180    -6.6640     1.6800   -19.7990    85.2380     4.1040     4.6470     5.1150     2.1810 
  129.0000   128.5400    -6.6910     1.6830   -20.2490    85.3410     4.2400     4.8240     5.0970     2.1620 
  129.1250   128.6620    -6.7180     1.6860   -21.0810    83.8320     4.3450     4.9580     5.2690     2.1440 
  129.2500   128.7840    -6.7450     1.6880   -21.9570    78.6010     4.4350     5.0680     5.4320     2.1320 
  129.3750   128.9060    -6.7720     1.6910   -22.6130    71.5710     4.5000     5.1750     5.4750     2.1280 
  129.5000   129.0280    -6.7990     1.6940   -23.0850    67.9490     4.5400     5.2350     5.6970     2.1280 
  129.6250   129.1500    -6.8270     1.6960   -23.3310    68.7930     4.4720     5.1940     5.9000     2.1280 
  129.7500   129.2710    -6.8540     1.6990   -23.4400    70.8430     4.3970     5.1130     5.8370     2.1380 
  129.8750   129.3930    -6.8810     1.7010   -23.4770    72.6180     4.3490     5.0230     5.4450     2.1860 
  130.0000   129.5150    -6.9090     1.7040   -23.3210    73.2150     4.2860     4.9470     4.7550     2.2740 
  130.1250   129.6370    -6.9370     1.7060   -22.7730    71.4080     4.2860     4.9340     5.8290     2.3640 
  130.2500   129.7590    -6.9640     1.7090   -21.8550    70.4530     4.2870     4.9390     7.6460     2.3990 
  130.3750   129.8810    -6.9920     1.7110   -20.7560    72.3110     4.2630     4.9170     6.7510     2.3510 
  130.5000   130.0030    -7.0200     1.7140   -20.0160    74.8220     4.2330     4.8870     5.5620     2.2670 
  130.6250   130.1250    -7.0480     1.7160   -19.9120    74.7940     4.1820     4.8330     5.5080     2.2120 
  130.7500   130.2460    -7.0760     1.7190   -20.2150    73.7120     4.0680     4.7350     5.0300     2.2020 
  130.8750   130.3680    -7.1040     1.7210   -20.6790    73.5430     3.9680     4.6040     4.5300     2.2110 
  131.0000   130.4900    -7.1320     1.7240   -20.9360    76.0650     3.8180     4.4090     4.3620     2.2170 
  131.1250   130.6120    -7.1610     1.7260   -20.6850    81.2810     3.6200     4.1620     4.2610     2.2250 
  131.2500   130.7330    -7.1890     1.7290   -20.1930    87.7830     3.4620     3.9530     4.0090     2.2390 
  131.3750   130.8550    -7.2170     1.7320   -19.8750    91.7720     3.3670     3.8290     3.7110     2.2490 
  131.5000   130.9770    -7.2460     1.7340   -19.8090    90.7890     3.3430     3.7870     3.6840     2.2470 
  131.6250   131.0980    -7.2740     1.7370   -19.8390    86.7390     3.3960     3.8490     3.8720     2.2340 
  131.7500   131.2200    -7.3030     1.7400   -20.0140    82.1170     3.5580     4.0210     3.9910     2.2200 
  131.8750   131.3420    -7.3320     1.7420   -20.4380    76.6520     3.8120     4.2800     4.1380     2.2090 
  132.0000   131.4630    -7.3600     1.7450   -20.8710    72.8070     4.0700     4.5420     4.3500     2.1980 
