~V
VERS. 2.00: Ver 2.00
~W
STRT.M 35.0000:
STOP.M 279.0000:
STEP.M 0.1250:
NULL. -999.2500:
UWI. FD11183:
~C
DEPT.M :
TVD. :
DX. :
DY. :
SP.MV :
GR.API :
RI. :
RML.OHMM :
RXO.OHMM :
DEN.GM/CC :
~A
# ...
   62.3750    62.3730    -0.2210    -0.0190  -109.3600    60.8940     4.5160     4.7350     6.1250     2.0980 
   62.5000    62.4980    -0.2250    -0.0170  -109.1920    60.2870     4.4670     4.6970     5.9990     2.0980 
   62.6250    62.6230    -0.2280    -0.0160  -109.0330    59.9080     4.4080     4.6500     5.5190     2.0980 
   62.7500    62.7480    -0.2320    -0.0140  -108.9350    62.2250     4.3530     4.6380     5.1640     2.0980 
   62.8750    62.8730    -0.2350    -0.0120  -108.8640    66.6040     4.3260     4.6380     5.1960     2.0960 
   63.0000    62.9980    -0.2390    -0.0100  -108.8030    69.3340     4.3180     4.6380     5.3950     2.0950 
   63.1250    63.1230    -0.2420    -0.0080  -108.7830    68.2950     4.3240     4.5960     5.6280     2.0960 
   63.2500    63.2480    -0.2460    -0.0060  -108.8440    64.9450     4.3190     4.5110     5.8320     2.0960 
   63.3750    63.3730    -0.2500    -0.0040  -108.9360    62.4400     4.2960     4.4530     5.8450     2.0920 
   63.5000    63.4980    -0.2530    -0.0020  -109.0140    62.2540     4.2620     4.4200     5.7230     2.0890 
   63.6250    63.6230    -0.2570     0.0000  -109.0380    62.9080     4.2240     4.4190     5.6120     2.0920 
   63.7500    63.7480    -0.2610     0.0020  -108.9870    62.4640     4.1860     4.4350     5.6740     2.0970 
   63.8750    63.8720    -0.2650     0.0040  -108.9450    61.2050     4.1730     4.4920     6.0500     2.0920 
   64.0000    63.9970    -0.2690     0.0060  -108.8760    62.3440     4.2280     4.6490     6.3960     2.0810 
   64.1250    64.1220    -0.2720     0.0080  -108.7730    65.4890     4.4230     4.9750     6.3900     2.0800 
   64.2500    64.2470    -0.2760     0.0100  -108.6830    67.7800     4.6640     5.3840     6.5090     2.1110 
   64.3750    64.3720    -0.2800     0.0120  -108.6410    68.6330     4.8880     5.7630     7.9580     2.1890 
   64.5000    64.4970    -0.2850     0.0150  -108.6390    68.1350     5.0390     6.0230     9.1630     2.2700 
   64.6250    64.6220    -0.2890     0.0170  -108.6580    67.1460     5.0600     6.0230     7.6280     2.2800 
   64.7500    64.7470    -0.2930     0.0190  -108.7280    65.1170     4.9650     5.8230     5.6830     2.2170 
   64.8750    64.8720    -0.2970     0.0220  -108.8110    61.1530     4.8300     5.5980     5.3110     2.1480 
   65.0000    64.9970    -0.3010     0.0240  -108.8940    58.1410     4.7120     5.4390     5.5600     2.1270 
   65.1250    65.1220    -0.3050     0.0260  -109.0130    56.9150     4.6850     5.4240     5.9260     2.1360 
   65.2500    65.2460    -0.3100     0.0290  -109.2030    56.2390     4.6950     5.4580     6.1260     2.1440 
   65.3750    65.3710    -0.3140     0.0310  -109.3700    54.3260     4.6670     5.4130     5.9920     2.1400 
   65.5000    65.4960    -0.3180     0.0340  -109.4380    54.0730     4.5750     5.2790     5.8430     2.1260 
   65.6250    65.6210    -0.3230     0.0360  -109.4850    58.5840     4.4550     5.0880     5.8870     2.1120 
   65.7500    65.7460    -0.3270     0.0390  -109.5330    63.1640     4.3180     4.8740     5.8660     2.1030 
   65.8750    65.8710    -0.3320     0.0420  -109.6160    63.6030     4.1630     4.6700     5.5950     2.0950 
   66.0000    65.9960    -0.3370     0.0440  -109.7160    60.8710     4.0260     4.4910     5.2140     2.0740 
   66.1250    66.1210    -0.3410     0.0470  -109.7620    59.6090     3.9480     4.3840     4.9060     2.0410 
   66.2500    66.2460    -0.3460     0.0500  -109.7810    61.0040     4.0170     4.4530     4.8130     2.0100 
   66.3750    66.3700    -0.3510     0.0520  -109.8220    60.9930     4.4090     4.9270     5.1340     2.0110 
   66.5000    66.4950    -0.3560     0.0550  -109.9410    58.3510     5.0360     5.6960     5.7710     2.0730 
   66.6250    66.6200    -0.3610     0.0580  -110.0990    57.8240     5.6880     6.4870    10.2390     2.2150 
   66.7500    66.7450    -0.3660     0.0610  -110.2900    60.8720     6.0840     6.9370    24.5930     2.3950 
   66.8750    66.8700    -0.3710     0.0640  -110.4630    63.5060     5.9430     6.6890    33.4700     2.5030 
   67.0000    66.9950    -0.3760     0.0670  -110.7040    63.6170     5.4360     6.0100    21.6300     2.4510 
   67.1250    67.1200    -0.3810     0.0700  -111.0050    62.4960     4.7880     5.1960     8.1810     2.2750 
   67.2500    67.2450    -0.3860     0.0740  -111.3020    59.9610     4.2420     4.5650     5.0640     2.1200 
   67.3750    67.3690    -0.3920     0.0770  -111.4750    55.9730     3.9300     4.2620     4.8980     2.0670 
   67.5000    67.4940    -0.3970     0.0800  -111.5530    54.5170     3.8310     4.2150     4.9850     2.0660 
   67.6250    67.6190    -0.4030     0.0830  -111.6700    57.5070     3.8750     4.2970     5.2370     2.0680 
   67.7500    67.7440    -0.4080     0.0870  -111.8320    61.4980     3.9380     4.3630     5.4110     2.0660 
   67.8750    67.8690    -0.4140     0.0900  -111.9720    62.1130     3.9700     4.3900     5.3260     2.0640 
   68.0000    67.9940    -0.4190     0.0930  -112.0590    60.6370     3.9950     4.4060     5.1700     2.0660 
   68.1250    68.1180    -0.4250     0.0970  -112.1690    60.1510     4.0340     4.4310     5.1620     2.0750 
   68.2500    68.2430    -0.4310     0.1000  -112.3100    61.6790     4.0980     4.4730     5.2310     2.0880 
   68.3750    68.3680    -0.4360     0.1040  -112.4340    62.6350     4.1910     4.5400     5.2830     2.0930 
   68.5000    68.4930    -0.4420     0.1070  -112.5410    61.2810     4.2850     4.6120     5.3590     2.0970 
   68.6250    68.6180    -0.4480     0.1110  -112.4960    58.8270     4.3720     4.6960     5.4900     2.1100 
   68.7500    68.7420    -0.4540     0.1150  -112.3620    58.4290     4.4380     4.7730     5.6150     2.1260 
   68.8750    68.8670    -0.4600     0.1180  -112.2180    60.7090     4.4780     4.8320     5.6100     2.1310 
   69.0000    68.9920    -0.4660     0.1220  -112.0330    63.4950     4.4860     4.8520     5.4800     2.1220 
   69.1250    69.1170    -0.4730     0.1260  -111.8890    64.6580     4.4450     4.8120     5.3330     2.1050 
   69.2500    69.2420    -0.4790     0.1300  -111.7050    64.3740     4.3760     4.7400     5.1910     2.0900 
   69.3750    69.3660    -0.4850     0.1340  -111.4980    63.6880     4.2970     4.6470     5.0840     2.0820 
   69.5000    69.4910    -0.4920     0.1380  -111.2880    62.5310     4.2310     4.5670     5.1290     2.0830 
   69.6250    69.6160    -0.4990     0.1420  -111.0970    59.9860     4.2060     4.5160     5.3170     2.0900 
   69.7500    69.7410    -0.5050     0.1460  -110.8750    58.6090     4.2960     4.5980     5.5010     2.1000 
   69.8750    69.8650    -0.5120     0.1500  -110.5600    59.9650     4.6390     4.9960     5.7000     2.1070 
   70.0000    69.9900    -0.5190     0.1540  -110.0680    63.4770     5.1820     5.6540     6.0860     2.1070 
   70.1250    70.1150    -0.5260     0.1580  -109.4920    66.0540     5.7950     6.3960     9.9400     2.1200 
   70.2500    70.2400    -0.5330     0.1630  -108.8030    67.1330     6.2040     6.8920    22.1270     2.1850 
   70.3750    70.3640    -0.5400     0.1670  -107.9920    69.8100     6.2720     6.9330    29.8230     2.2950 
   70.5000    70.4890    -0.5480     0.1720  -107.0140    73.8890     5.8680     6.3760    19.9190     2.3650 
   70.6250    70.6140    -0.5550     0.1760  -105.9290    77.9550     5.2290     5.5680     7.8820     2.3430 
   70.7500    70.7380    -0.5620     0.1810  -104.8940    81.5970     4.5950     4.8180     4.7870     2.2820 
   70.8750    70.8630    -0.5700     0.1860  -104.0120    86.5510     4.1970     4.4010     4.7840     2.2380 
   71.0000    70.9880    -0.5770     0.1900  -103.4230    91.3980     4.1320     4.3790     4.9700     2.2000 
   71.1250    71.1120    -0.5850     0.1950  -103.1880    92.5260     4.3270     4.6260     5.3480     2.1520 
   71.2500    71.2370    -0.5930     0.2000  -103.0880    89.7860     4.7840     5.1450     5.7770     2.1310 
   71.3750    71.3620    -0.6010     0.2050  -103.1090    85.4630     5.4400     5.8670     6.0590     2.1740 
