~V
VERS. 2.00: Ver 2.00
~W
STRT.M 30.0000:
STOP.M 272.0000:
STEP.M 0.1250:
NULL. -999.2500:
UWI. FD11176:
~C
DEPT.M :
TVD. :
DX. :
DY. :
SP.MV :
GR.API :
RI. :
RML.OHMM :
RXO.OHMM :
DEN.GM/CC :
~A
# ...
  121.2500   118.9670    15.4340    -6.5780    -6.1110    75.0760    11.4810    13.1610    26.4410     2.5360 
  121.3750   119.0830    15.4760    -6.6010    -6.5260    75.4020    13.4420    15.1790    27.5220     2.6000 
  121.5000   119.1990    15.5170    -6.6240    -7.0030    76.0550    14.3800    15.9150    23.5140     2.5970 
  121.6250   119.3140    15.5590    -6.6460    -7.5850    75.7000    13.8880    15.1170    21.1920     2.5610 
  121.7500   119.4300    15.6000    -6.6690    -8.2720    74.2280    12.5890    13.5540    21.1480     2.5500 
  121.8750   119.5460    15.6420    -6.6920    -9.0390    71.8030    10.8020    11.5900    22.5340     2.5820 
  122.0000   119.6610    15.6840    -6.7140    -9.8240    69.0030     9.1360     9.8350    20.4610     2.5890 
  122.1250   119.7770    15.7250    -6.7360   -10.5880    67.7780     7.8520     8.5270    13.0550     2.4900 
  122.2500   119.8930    15.7670    -6.7590   -11.3070    68.8940     6.9540     7.6610     7.7450     2.3320 
  122.3750   120.0090    15.8090    -6.7810   -11.9390    72.4160     6.6000     7.4130     6.8260     2.2170 
  122.5000   120.1240    15.8510    -6.8030   -12.4460    74.8370     6.6880     7.6110     7.2350     2.1770 
  122.6250   120.2400    15.8920    -6.8250   -12.8090    73.9570     6.9360     7.8810     8.0670     2.1890 
  122.7500   120.3560    15.9340    -6.8480   -13.0760    71.1830     7.0880     7.9570     8.2520     2.2210 
  122.8750   120.4710    15.9760    -6.8700   -13.3100    67.6380     6.9910     7.7190     7.5780     2.2410 
  123.0000   120.5870    16.0180    -6.8930   -13.5630    64.8560     6.7970     7.4200     7.0470     2.2160 
  123.1250   120.7030    16.0600    -6.9150   -13.8330    64.2450     6.5990     7.1650     7.0980     2.1550 
  123.2500   120.8180    16.1010    -6.9380   -14.0850    66.7630     6.4490     6.9990     7.2870     2.1050 
  123.3750   120.9340    16.1430    -6.9600   -14.2830    70.5780     6.3910     6.9390     7.3140     2.0850 
  123.5000   121.0490    16.1850    -6.9820   -14.4260    70.1480     6.3960     6.9160     7.1990     2.0800 
  123.6250   121.1650    16.2270    -7.0050   -14.5220    64.4480     6.4030     6.9010     6.8920     2.0790 
  123.7500   121.2810    16.2690    -7.0270   -14.5910    60.4690     6.4020     6.8910     6.6650     2.0770 
  123.8750   121.3960    16.3110    -7.0490   -14.6450    63.1110     6.3680     6.8680     6.7060     2.0740 
  124.0000   121.5120    16.3530    -7.0720   -14.6880    67.8900     6.2980     6.8110     7.0550     2.0770 
  124.1250   121.6270    16.3950    -7.0940   -14.7240    69.1460     6.1940     6.7240     7.4350     2.0860 
  124.2500   121.7430    16.4370    -7.1160   -14.7610    67.5090     6.0830     6.6240     7.2540     2.0930 
  124.3750   121.8580    16.4790    -7.1390   -14.7880    65.1910     5.9870     6.5190     6.8700     2.0940 
  124.5000   121.9740    16.5210    -7.1620   -14.7810    63.7370     5.9240     6.4580     6.7750     2.0980 
  124.6250   122.0890    16.5640    -7.1840   -14.7210    63.3010     5.9300     6.4700     6.7520     2.1060 
  124.7500   122.2050    16.6060    -7.2060   -14.6250    64.3210     5.9930     6.5520     6.6610     2.1110 
  124.8750   122.3210    16.6480    -7.2280   -14.5050    64.8110     6.1560     6.7590     6.6210     2.1130 
  125.0000   122.4360    16.6900    -7.2510   -14.3380    63.8190     6.3980     7.0370     6.8490     2.1160 
  125.1250   122.5520    16.7320    -7.2730   -14.0920    62.1700     6.6820     7.3640     7.2800     2.1210 
  125.2500   122.6670    16.7740    -7.2950   -13.8060    60.8390     6.9410     7.6660     7.4930     2.1330 
  125.3750   122.7830    16.8170    -7.3180   -13.5720    61.5240     7.1020     7.8540     7.4490     2.1600 
  125.5000   122.8980    16.8590    -7.3400   -13.4630    63.6900     7.0990     7.8540     7.4570     2.1880 
  125.6250   123.0140    16.9010    -7.3620   -13.4940    66.2710     6.9680     7.7080     7.4110     2.1870 
  125.7500   123.1290    16.9430    -7.3850   -13.5920    67.0200     6.7850     7.5190     7.1520     2.1580 
  125.8750   123.2450    16.9850    -7.4070   -13.6830    66.7160     6.6150     7.3680     7.0000     2.1270 
  126.0000   123.3600    17.0270    -7.4300   -13.7400    66.2150     6.5080     7.2770     7.1180     2.1110 
  126.1250   123.4760    17.0690    -7.4520   -13.7770    66.8880     6.4270     7.2030     7.4340     2.1020 
  126.2500   123.5910    17.1110    -7.4750   -13.8120    68.2270     6.3390     7.0950     7.6240     2.0940 
  126.3750   123.7070    17.1530    -7.4970   -13.8480    69.0370     6.2420     6.9610     7.2490     2.0910 
  126.5000   123.8230    17.1950    -7.5200   -13.8860    67.0650     6.1620     6.8580     6.8280     2.0920 
  126.6250   123.9380    17.2370    -7.5430   -13.9350    64.2240     6.1120     6.8010     6.8040     2.0980 
  126.7500   124.0540    17.2790    -7.5650   -13.9930    64.1680     6.0940     6.7970     6.7970     2.1030 
  126.8750   124.1690    17.3210    -7.5880   -14.0310    67.1110     6.1180     6.8520     6.6720     2.1050 
  127.0000   124.2850    17.3630    -7.6110   -14.0170    68.1310     6.1770     6.9570     6.5860     2.1050 
  127.1250   124.4000    17.4050    -7.6330   -13.9310    66.2840     6.2520     7.0880     6.7050     2.1030 
  127.2500   124.5160    17.4470    -7.6560   -13.8000    64.0860     6.2890     7.1290     7.0540     2.0980 
  127.3750   124.6320    17.4890    -7.6780   -13.6560    63.8630     6.1880     6.9660     7.2990     2.0960 
  127.5000   124.7470    17.5310    -7.7000   -13.5100    65.6990     6.0000     6.6970     7.2480     2.1050 
  127.6250   124.8630    17.5730    -7.7230   -13.3570    68.9380     5.7760     6.4020     7.1860     2.1230 
  127.7500   124.9790    17.6150    -7.7450   -13.2220    72.1170     5.5980     6.2190     6.7150     2.1400 
  127.8750   125.0940    17.6570    -7.7660   -13.1670    74.4690     5.5470     6.2040     5.9630     2.1510 
  128.0000   125.2100    17.6990    -7.7880   -13.2240    76.0990     5.6090     6.3350     6.1930     2.1460 
  128.1250   125.3250    17.7410    -7.8100   -13.3700    75.4200     5.7640     6.5580     6.9660     2.1270 
  128.2500   125.4410    17.7830    -7.8320   -13.5140    72.1230     5.9420     6.7800     7.2250     2.1080 
  128.3750   125.5570    17.8250    -7.8540   -13.5510    67.7040     6.0830     6.9430     7.1950     2.0990 
  128.5000   125.6720    17.8670    -7.8760   -13.4550    64.3340     6.1530     7.0040     7.2030     2.0990 
  128.6250   125.7880    17.9090    -7.8980   -13.2720    62.4670     6.1540     6.9840     7.2260     2.1070 
  128.7500   125.9040    17.9510    -7.9200   -13.0860    62.7040     6.1050     6.9080     7.0840     2.1210 
  128.8750   126.0190    17.9930    -7.9420   -12.9570    65.8270     5.9900     6.7470     6.8800     2.1320 
  129.0000   126.1350    18.0350    -7.9640   -12.9120    68.4850     5.8530     6.5600     6.8500     2.1370 
  129.1250   126.2510    18.0770    -7.9860   -12.9870    68.8780     5.7280     6.3970     6.6780     2.1360 
  129.2500   126.3660    18.1190    -8.0080   -13.1580    66.9430     5.6650     6.3040     6.5080     2.1280 
  129.3750   126.4820    18.1610    -8.0300   -13.3510    64.3960     5.6540     6.2800     6.7330     2.1170 
  129.5000   126.5980    18.2030    -8.0520   -13.4730    64.0260     5.6920     6.3120     6.8610     2.1100 
  129.6250   126.7140    18.2450    -8.0730   -13.4630    65.5130     5.7660     6.3910     6.8220     2.1110 
  129.7500   126.8290    18.2860    -8.0950   -13.3490    65.5890     5.8360     6.4710     6.9540     2.1140 
  129.8750   126.9450    18.3280    -8.1170   -13.1930    63.2150     5.8500     6.4870     7.0080     2.1110 
  130.0000   127.0610    18.3700    -8.1390   -13.0540    61.4630     5.8200     6.4500     6.8570     2.1060 
  130.1250   127.1770    18.4110    -8.1610   -12.9490    63.2910     5.7630     6.3670     6.6510     2.1030 
  130.2500   127.2930    18.4530    -8.1830   -12.8550    66.2240     5.7110     6.2910     6.2460     2.1100 
