~V
VERS. 2.00: Ver 2.00
~W
STRT.M 35.0000:
STOP.M 279.0000:
STEP.M 0.1250:
NULL. -999.2500:
UWI. FD11183:
~C
DEPT.M :
TVD. :
DX. :
DY. :
SP.MV :
GR.API :
RI. :
RML.OHMM :
RXO.OHMM :
DEN.GM/CC :
~A
# ...
  126.2500   124.3140   -13.2590     4.3480  -103.4130    99.7030     3.7110     4.2190     3.7460     2.2090 
  126.3750   124.4300   -13.3050     4.3560  -103.2820    99.7940     3.9680     4.5580     4.1420     2.1790 
  126.5000   124.5460   -13.3510     4.3640  -103.3650    97.3290     4.1570     4.8010     4.6740     2.1570 
  126.6250   124.6620   -13.3970     4.3730  -103.6080    92.9850     4.1960     4.8350     5.1570     2.1490 
  126.7500   124.7770   -13.4440     4.3810  -103.8670    89.5150     4.1120     4.7020     5.2040     2.1660 
  126.8750   124.8930   -13.4900     4.3890  -104.0610    92.4730     3.9580     4.4890     4.6810     2.2060 
  127.0000   125.0090   -13.5360     4.3980  -104.0610    98.4690     3.8080     4.3080     4.1050     2.2390 
  127.1250   125.1250   -13.5830     4.4060  -103.9220   100.4450     3.7050     4.2080     4.1410     2.2500 
  127.2500   125.2400   -13.6290     4.4150  -103.7120    97.7700     3.6510     4.1650     4.4650     2.2520 
  127.3750   125.3560   -13.6760     4.4230  -103.4790    95.8810     3.6240     4.1350     4.3480     2.2550 
  127.5000   125.4720   -13.7220     4.4310  -103.3430    96.9590     3.6050     4.0750     3.9940     2.2570 
  127.6250   125.5880   -13.7680     4.4400  -103.3590    98.6290     3.5880     4.0210     3.8290     2.2510 
  127.7500   125.7030   -13.8150     4.4480  -103.4760    97.5420     3.6130     4.0300     3.8390     2.2360 
  127.8750   125.8190   -13.8610     4.4560  -103.6760    95.2090     3.6980     4.1310     3.9700     2.2170 
  128.0000   125.9350   -13.9080     4.4640  -103.8860    92.8140     3.8420     4.3170     4.1440     2.2040 
  128.1250   126.0510   -13.9540     4.4730  -104.1200    92.1170     3.9980     4.4990     4.2480     2.1990 
  128.2500   126.1660   -14.0010     4.4810  -104.4460    91.0090     4.1190     4.6290     4.4360     2.1930 
  128.3750   126.2820   -14.0470     4.4890  -104.8280    87.7620     4.1310     4.6270     4.8020     2.1850 
  128.5000   126.3980   -14.0940     4.4970  -105.1210    83.7590     4.0250     4.4860     5.1020     2.1820 
  128.6250   126.5140   -14.1400     4.5050  -105.2470    83.7580     3.8370     4.2650     5.0240     2.1980 
  128.7500   126.6290   -14.1870     4.5130  -105.2780    88.2100     3.6260     4.0170     4.4800     2.2270 
  128.8750   126.7450   -14.2330     4.5210  -105.2750    93.2930     3.4620     3.8290     3.9000     2.2460 
  129.0000   126.8610   -14.2800     4.5290  -105.2370    94.6340     3.3590     3.7210     3.6970     2.2460 
  129.1250   126.9770   -14.3260     4.5370  -105.1610    93.5860     3.3590     3.7210     3.7400     2.2430 
  129.2500   127.0930   -14.3720     4.5460  -105.0610    91.8880     3.4150     3.7650     3.8150     2.2520 
  129.3750   127.2080   -14.4190     4.5540  -104.9360    89.4010     3.4930     3.8070     3.9300     2.2570 
  129.5000   127.3240   -14.4650     4.5620  -104.8750    87.5380     3.6330     3.8860     4.1070     2.2450 
  129.6250   127.4400   -14.5120     4.5700  -104.8550    88.2540     3.8830     4.0760     4.3020     2.2300 
  129.7500   127.5560   -14.5580     4.5770  -104.8690    90.9380     4.1600     4.3050     4.3660     2.2450 
  129.8750   127.6710   -14.6050     4.5850  -104.8300    92.3330     4.3430     4.4550     4.8660     2.3020 
  130.0000   127.7870   -14.6510     4.5930  -104.7370    90.0470     4.3510     4.4290     6.6140     2.3630 
  130.1250   127.9030   -14.6980     4.6010  -104.5690    86.9850     4.0850     4.1200     7.7080     2.3800 
  130.2500   128.0190   -14.7440     4.6090  -104.3510    86.1210     3.7040     3.7000     6.2520     2.3550 
  130.3750   128.1350   -14.7910     4.6170  -104.0580    89.6880     3.3210     3.3100     4.2870     2.3290 
  130.5000   128.2500   -14.8370     4.6250  -103.7750    96.5250     3.0770     3.1010     3.5600     2.3260 
  130.6250   128.3660   -14.8840     4.6330  -103.5850   101.9130     3.0930     3.1870     3.4620     2.3330 
  130.7500   128.4820   -14.9300     4.6410  -103.5000   103.0190     3.3660     3.5130     3.4590     2.3360 
  130.8750   128.5970   -14.9770     4.6480  -103.6570    97.3110     3.8410     4.0150     3.7190     2.3250 
  131.0000   128.7130   -15.0240     4.6560  -103.9720    88.4900     4.3150     4.4870     4.3630     2.2860 
  131.1250   128.8290   -15.0710     4.6650  -104.4080    80.1890     4.6690     4.8200     4.9180     2.2320 
  131.2500   128.9440   -15.1170     4.6730  -104.9320    75.1040     4.7890     4.9100     5.0490     2.1970 
  131.3750   129.0600   -15.1640     4.6810  -105.5440    73.8500     4.7490     4.8400     4.8790     2.1990 
  131.5000   129.1760   -15.2110     4.6890  -106.1400    74.6610     4.6780     4.7450     4.6380     2.2150 
  131.6250   129.2910   -15.2580     4.6970  -106.5740    76.3620     4.7010     4.7660     4.4920     2.2210 
  131.7500   129.4070   -15.3050     4.7060  -106.7570    77.8870     4.8040     4.8690     4.5040     2.2180 
  131.8750   129.5220   -15.3520     4.7140  -106.7780    77.1480     4.9550     5.0510     4.7410     2.2090 
  132.0000   129.6380   -15.3990     4.7210  -106.8250    75.0310     5.0770     5.2110     5.0660     2.2000 
  132.1250   129.7530   -15.4460     4.7290  -106.9680    73.8480     5.1540     5.3090     5.3170     2.1950 
  132.2500   129.8690   -15.4930     4.7370  -107.1340    71.1900     5.2710     5.4320     5.4880     2.1960 
  132.3750   129.9840   -15.5400     4.7450  -107.2620    65.6770     5.5330     5.6770     5.4730     2.2060 
  132.5000   130.1000   -15.5870     4.7530  -107.3040    60.7200     6.0400     6.2270     5.2590     2.2410 
  132.6250   130.2160   -15.6340     4.7600  -107.3280    62.2850     6.8530     7.1550     5.7290     2.3320 
  132.7500   130.3310   -15.6810     4.7680  -107.3280    67.9350     7.8070     8.2770     9.1740     2.4680 
  132.8750   130.4470   -15.7280     4.7760  -107.2930    71.1740     8.6550     9.2590    14.7520     2.5660 
  133.0000   130.5620   -15.7750     4.7840  -107.1830    70.9170     9.0250     9.6300    17.2450     2.5420 
  133.1250   130.6780   -15.8220     4.7910  -106.9730    71.0070     8.7640     9.2620    14.7270     2.4080 
  133.2500   130.7930   -15.8690     4.7990  -106.7700    72.1590     8.0550     8.4370    10.2110     2.2720 
  133.3750   130.9090   -15.9170     4.8060  -106.6730    72.5110     7.2590     7.6340     7.1280     2.2040 
  133.5000   131.0240   -15.9640     4.8140  -106.7320    69.8380     6.6910     7.1560     6.1970     2.1790 
  133.6250   131.1400   -16.0110     4.8220  -106.8600    66.5690     6.4310     6.9920     6.0540     2.1630 
  133.7500   131.2550   -16.0580     4.8290  -106.9870    65.6180     6.3440     6.9460     5.9790     2.1500 
  133.8750   131.3710   -16.1050     4.8370  -107.0650    68.0270     6.3310     6.9100     5.9540     2.1480 
  134.0000   131.4860   -16.1530     4.8440  -107.0690    72.2390     6.3380     6.8700     6.0360     2.1550 
  134.1250   131.6020   -16.2000     4.8520  -107.1370    73.3800     6.3300     6.8140     6.1840     2.1560 
  134.2500   131.7170   -16.2470     4.8590  -107.2970    69.7480     6.2960     6.6980     6.1910     2.1470 
  134.3750   131.8330   -16.2940     4.8670  -107.4190    64.9930     6.2330     6.5180     6.0500     2.1380 
  134.5000   131.9480   -16.3420     4.8750  -107.4940    63.3700     6.1570     6.3390     5.9160     2.1370 
  134.6250   132.0640   -16.3890     4.8830  -107.5580    64.9520     6.0910     6.1840     5.7930     2.1450 
  134.7500   132.1790   -16.4360     4.8900  -107.6330    66.9580     6.0520     6.1120     5.7350     2.1510 
  134.8750   132.2950   -16.4830     4.8980  -107.7110    68.4620     6.0520     6.1200     5.8590     2.1480 
  135.0000   132.4100   -16.5300     4.9060  -107.8300    68.6400     6.0840     6.1640     6.0360     2.1410 
  135.1250   132.5260   -16.5780     4.9130  -107.9330    65.2800     6.1080     6.2130     6.0800     2.1340 
  135.2500   132.6410   -16.6250     4.9210  -108.1020    61.9220     6.0870     6.2300     6.0540     2.1310 
