~V
VERS. 2.00: Ver 2.00
~W
STRT.M 45.0000:
STOP.M 272.0000:
STEP.M 0.1250:
NULL. -999.2500:
UWI. FD11191:
~C
DEPT.M :
TVD. :
DX. :
DY. :
SP.MV :
GR.API :
RI. :
RML.OHMM :
RXO.OHMM :
DEN.GM/CC :
~A
# ...
  218.3750   213.0170   -34.1090     1.4320   -29.0160    95.3120     2.7440     3.2250     3.1140     2.3280 
  218.5000   213.1310   -34.1620     1.4360   -29.3830    93.4190     3.0360     3.5960     3.5960     2.3020 
  218.6250   213.2440   -34.2140     1.4390   -29.8550    92.0610     3.3660     4.0080     4.1650     2.2790 
  218.7500   213.3570   -34.2670     1.4420   -30.4320    88.6910     3.7280     4.4380     4.8600     2.2590 
  218.8750   213.4710   -34.3190     1.4450   -31.1130    83.1350     4.1140     4.8770     5.3750     2.2420 
  219.0000   213.5840   -34.3720     1.4490   -31.8650    80.5920     4.5870     5.4210     5.7870     2.2300 
  219.1250   213.6980   -34.4240     1.4520   -32.6560    82.0360     5.3010     6.2790     6.2850     2.2330 
  219.2500   213.8110   -34.4760     1.4550   -33.4480    83.1620     6.2690     7.4750     6.8090     2.2480 
  219.3750   213.9240   -34.5290     1.4580   -34.2070    79.2930     7.6720     9.2120     9.4170     2.2580 
  219.5000   214.0380   -34.5810     1.4610   -34.9110    73.3490     9.3780    11.2970    14.7520     2.2460 
  219.6250   214.1510   -34.6340     1.4640   -35.5330    69.3220    10.9980    13.2260    18.0250     2.2090 
  219.7500   214.2650   -34.6860     1.4680   -36.0670    68.0310    12.3090    14.7650    17.6310     2.1750 
  219.8750   214.3780   -34.7390     1.4710   -36.4980    69.1390    12.9480    15.4810    16.5970     2.1660 
  220.0000   214.4910   -34.7910     1.4750   -36.8350    70.1910    13.0670    15.5700    16.1770     2.1780 
  220.1250   214.6050   -34.8440     1.4780   -37.0810    68.8880    12.8860    15.3230    16.7530     2.1920 
  220.2500   214.7180   -34.8960     1.4810   -37.2640    65.9850    12.6560    15.0250    16.6830     2.1990 
  220.3750   214.8320   -34.9490     1.4850   -37.4070    63.9210    12.5240    14.8670    14.3590     2.2170 
  220.5000   214.9450   -35.0010     1.4880   -37.5450    63.9430    12.5120    14.8620    11.7820     2.2500 
  220.6250   215.0590   -35.0530     1.4920   -37.6960    65.0370    12.6930    15.0890    10.9900     2.2640 
  220.7500   215.1720   -35.1060     1.4950   -37.8590    66.3810    13.0320    15.4800    11.8640     2.2370 
  220.8750   215.2850   -35.1580     1.4980   -38.0130    66.5420    13.4370    15.8890    12.9490     2.1830 
  221.0000   215.3990   -35.2110     1.5010   -38.1290    66.2950    13.7950    16.2180    13.2830     2.1460 
  221.1250   215.5120   -35.2630     1.5050   -38.1790    65.9500    14.0310    16.3730    13.2620     2.1350 
  221.2500   215.6260   -35.3150     1.5080   -38.1640    65.7680    14.1620    16.4290    13.5050     2.1350 
  221.3750   215.7390   -35.3680     1.5110   -38.0890    65.4720    14.2860    16.5030    13.8640     2.1400 
  221.5000   215.8530   -35.4200     1.5140   -37.9750    65.8800    14.2430    16.3500    13.9120     2.1520 
  221.6250   215.9660   -35.4730     1.5170   -37.8380    67.2390    13.8880    15.8260    13.7600     2.1590 
  221.7500   216.0800   -35.5250     1.5200   -37.6910    67.2540    13.3670    15.1180    13.5390     2.1590 
  221.8750   216.1930   -35.5770     1.5220   -37.5450    65.1030    12.8470    14.4390    12.8390     2.1520 
  222.0000   216.3070   -35.6300     1.5250   -37.4070    62.9770    12.5850    14.1130    11.8640     2.1500 
  222.1250   216.4200   -35.6820     1.5280   -37.2850    64.2750    12.5990    14.1240    11.4940     2.1650 
  222.2500   216.5340   -35.7340     1.5310   -37.1880    66.1820    12.7630    14.2860    11.8510     2.2010 
  222.3750   216.6470   -35.7870     1.5330   -37.1250    65.3400    12.9990    14.4800    12.2870     2.2380 
  222.5000   216.7600   -35.8390     1.5360   -37.1000    62.5880    13.1880    14.5700    12.3590     2.2390 
  222.6250   216.8740   -35.8910     1.5390   -37.1110    62.8530    13.2630    14.5200    12.1240     2.1950 
  222.7500   216.9880   -35.9440     1.5410   -37.1480    66.7770    13.2690    14.4300    11.9910     2.1530 
  222.8750   217.1010   -35.9960     1.5440   -37.2000    69.4610    13.3530    14.4470    12.3210     2.1370 
  223.0000   217.2150   -36.0480     1.5460   -37.2600    68.6810    13.5030    14.5450    12.5820     2.1370 
  223.1250   217.3280   -36.1000     1.5490   -37.3280    65.9750    13.6990    14.6910    12.7970     2.1390 
  223.2500   217.4420   -36.1530     1.5510   -37.4070    64.3150    13.8960    14.8260    13.4160     2.1410 
  223.3750   217.5550   -36.2050     1.5540   -37.5030    64.6570    13.9530    14.8040    13.7080     2.1420 
  223.5000   217.6690   -36.2570     1.5570   -37.6150    65.8140    13.8770    14.6480    13.6040     2.1340 
  223.6250   217.7820   -36.3090     1.5600   -37.7390    66.5030    13.6620    14.3580    13.6030     2.1250 
  223.7500   217.8960   -36.3610     1.5620   -37.8610    67.0820    13.3330    13.9640    13.4870     2.1260 
  223.8750   218.0090   -36.4140     1.5650   -37.9660    68.4700    12.9780    13.5620    13.2130     2.1400 
  224.0000   218.1230   -36.4660     1.5680   -38.0440    69.5410    12.6970    13.2610    12.5770     2.1550 
  224.1250   218.2360   -36.5180     1.5700   -38.0900    68.6970    12.5290    13.1030    11.5750     2.1590 
  224.2500   218.3500   -36.5710     1.5730   -38.1090    68.1850    12.5320    13.1530    11.0850     2.1510 
  224.3750   218.4630   -36.6230     1.5760   -38.1060    69.0830    12.7120    13.3870    11.3910     2.1360 
  224.5000   218.5770   -36.6760     1.5790   -38.0920    68.3010    12.9670    13.6760    11.8710     2.1250 
  224.6250   218.6900   -36.7280     1.5820   -38.0770    66.3620    13.2290    13.9620    11.9240     2.1260 
  224.7500   218.8030   -36.7810     1.5850   -38.0730    67.0230    13.5110    14.2690    11.8450     2.1320 
  224.8750   218.9170   -36.8330     1.5880   -38.0880    69.1000    13.8700    14.6680    12.1230     2.1360 
  225.0000   219.0300   -36.8860     1.5920   -38.1150    68.9690    14.3400    15.2010    12.4200     2.1310 
  225.1250   219.1430   -36.9390     1.5950   -38.1410    65.8650    15.0150    15.9770    12.9670     2.1210 
  225.2500   219.2570   -36.9910     1.5980   -38.1480    64.2270    15.8580    16.9440    14.5880     2.1270 
  225.3750   219.3700   -37.0440     1.6010   -38.1190    64.6870    16.7140    17.9290    16.8950     2.1650 
  225.5000   219.4830   -37.0970     1.6050   -38.0560    64.5710    17.5370    18.8730    18.0260     2.2090 
  225.6250   219.5970   -37.1490     1.6080   -37.9660    62.3670    18.3250    19.7800    17.8540     2.2170 
  225.7500   219.7100   -37.2020     1.6120   -37.8640    59.7340    18.9480    20.5110    17.5710     2.1790 
  225.8750   219.8230   -37.2550     1.6150   -37.7630    58.9630    19.4360    21.1290    17.4420     2.1240 
  226.0000   219.9360   -37.3080     1.6190   -37.6690    61.3370    19.7620    21.5650    18.4660     2.0930 
  226.1250   220.0490   -37.3610     1.6230   -37.5810    64.7730    19.9530    21.8310    20.1840     2.0950 
  226.2500   220.1630   -37.4140     1.6260   -37.4960    67.4080    19.9420    21.8390    20.8350     2.1040 
  226.3750   220.2760   -37.4670     1.6290   -37.4040    66.3300    19.7230    21.5710    20.5280     2.1000 
  226.5000   220.3890   -37.5200     1.6330   -37.3000    62.9540    19.3840    21.1500    20.3130     2.0880 
  226.6250   220.5020   -37.5730     1.6360   -37.1720    61.1360    19.0630    20.7470    20.2780     2.0850 
  226.7500   220.6150   -37.6260     1.6390   -37.0120    62.8810    18.9810    20.6200    19.9370     2.0870 
  226.8750   220.7280   -37.6790     1.6430   -36.8030    66.3470    19.1320    20.7560    20.1480     2.0840 
  227.0000   220.8420   -37.7320     1.6460   -36.5360    66.9280    19.5030    21.1500    21.1040     2.0790 
  227.1250   220.9550   -37.7850     1.6490   -36.1910    63.1360    20.0720    21.7630    21.7170     2.0760 
  227.2500   221.0680   -37.8380     1.6520   -35.7670    59.4230    20.5510    22.2400    21.5280     2.0750 
  227.3750   221.1810   -37.8910     1.6560   -35.2660    58.7720    20.4510    22.0140    20.9090     2.0740 
