~V
VERS. 2.00: Ver 2.00
~W
STRT.M 25.0000:
STOP.M 287.0000:
STEP.M 0.1250:
NULL. -999.2500:
UWI. FD11174:
~C
DEPT.M :
TVD. :
DX. :
DY. :
SP.MV :
GR.API :
RI. :
RML.OHMM :
RXO.OHMM :
DEN.GM/CC :
~A
# ...
  125.3750   123.3430    -6.4130   -14.4300   -20.4250   110.5950     2.5830     3.0280     3.8330     2.2630 
  125.5000   123.4590    -6.4320   -14.4740   -20.6120   113.1290     2.6170     3.0540     4.6420     2.3080 
  125.6250   123.5740    -6.4510   -14.5180   -20.7420   111.5610     2.6390     3.0540     5.1880     2.3240 
  125.7500   123.6900    -6.4690   -14.5620   -20.8850   107.6940     2.6590     3.0570     4.6550     2.2950 
  125.8750   123.8050    -6.4880   -14.6060   -21.1110   105.9650     2.7130     3.1200     3.7980     2.2390 
  126.0000   123.9210    -6.5070   -14.6510   -21.4430   105.0570     2.8230     3.2710     3.6770     2.1880 
  126.1250   124.0360    -6.5250   -14.6950   -21.8500   101.8830     2.9630     3.4560     4.1110     2.1550 
  126.2500   124.1510    -6.5430   -14.7390   -22.3090    97.7270     3.0880     3.5980     4.5440     2.1350 
  126.3750   124.2670    -6.5620   -14.7840   -22.8710    95.5810     3.1180     3.6030     4.8620     2.1380 
  126.5000   124.3820    -6.5800   -14.8280   -23.3850    94.8940     3.0330     3.4700     5.0050     2.1720 
  126.6250   124.4980    -6.5980   -14.8720   -23.5640    95.1800     2.9210     3.3360     4.7690     2.2230 
  126.7500   124.6130    -6.6170   -14.9170   -23.3660    97.3100     2.8430     3.2640     4.4090     2.2590 
  126.8750   124.7280    -6.6350   -14.9610   -22.8790   101.0190     2.8280     3.2730     4.3940     2.2510 
  127.0000   124.8440    -6.6530   -15.0060   -22.3710   104.2480     2.8400     3.3110     4.5290     2.2140 
  127.1250   124.9590    -6.6720   -15.0500   -22.1170   105.1710     2.8500     3.3230     4.4870     2.1860 
  127.2500   125.0740    -6.6900   -15.0950   -22.1220   104.2040     2.8360     3.2970     4.3190     2.1890 
  127.3750   125.1900    -6.7080   -15.1400   -22.2710   102.0530     2.8080     3.2510     4.0950     2.2110 
  127.5000   125.3050    -6.7270   -15.1840   -22.2760    99.6600     2.7870     3.2180     4.0240     2.2200 
  127.6250   125.4200    -6.7450   -15.2290   -22.1360    98.6100     2.7970     3.2340     4.2430     2.2090 
  127.7500   125.5360    -6.7630   -15.2730   -22.0160    98.8690     2.8420     3.2900     4.4950     2.1950 
  127.8750   125.6510    -6.7820   -15.3180   -22.0220    98.3540     2.9000     3.3660     4.5680     2.1910 
  128.0000   125.7660    -6.8000   -15.3630   -22.0790    94.8710     2.9410     3.4140     4.6790     2.1930 
  128.1250   125.8820    -6.8190   -15.4070   -22.0050    89.9020     2.9530     3.4260     5.1450     2.1900 
  128.2500   125.9970    -6.8370   -15.4520   -21.8160    87.7470     2.9470     3.4160     5.4700     2.1840 
  128.3750   126.1120    -6.8560   -15.4970   -21.6640    88.6470     2.9230     3.3750     4.9950     2.1820 
  128.5000   126.2270    -6.8740   -15.5410   -21.6140    91.0560     2.8680     3.2930     4.2690     2.1910 
  128.6250   126.3430    -6.8920   -15.5860   -21.6690    94.1380     2.8110     3.2080     3.9410     2.2070 
  128.7500   126.4580    -6.9110   -15.6310   -21.6900    97.0030     2.7820     3.1600     3.8400     2.2210 
  128.8750   126.5730    -6.9300   -15.6750   -21.6360    98.6920     2.7860     3.1590     3.7220     2.2240 
  129.0000   126.6880    -6.9480   -15.7200   -21.6380    98.2520     2.8370     3.2150     3.6670     2.2110 
  129.1250   126.8040    -6.9660   -15.7650   -21.8160    97.4270     2.9280     3.3190     3.9830     2.1910 
  129.2500   126.9190    -6.9850   -15.8100   -22.1880    96.5120     3.0690     3.4760     4.4990     2.1770 
  129.3750   127.0340    -7.0030   -15.8550   -22.5930    92.8670     3.2160     3.6220     4.6220     2.1710 
  129.5000   127.1490    -7.0210   -15.9000   -22.9660    88.1330     3.3240     3.7120     4.5470     2.1640 
  129.6250   127.2650    -7.0390   -15.9440   -23.1200    86.1680     3.3470     3.6930     4.8280     2.1610 
  129.7500   127.3800    -7.0580   -15.9890   -23.0730    88.0950     3.2730     3.5660     5.1280     2.1740 
  129.8750   127.4950    -7.0760   -16.0340   -22.7870    91.9790     3.1400     3.3850     4.9010     2.2000 
  130.0000   127.6100    -7.0940   -16.0790   -22.2400    96.0960     2.9900     3.2010     4.3610     2.2250 
  130.1250   127.7250    -7.1130   -16.1240   -21.5100    97.9270     2.8560     3.0470     3.9470     2.2430 
  130.2500   127.8410    -7.1310   -16.1690   -20.8790    96.4730     2.7740     2.9650     3.7960     2.2570 
  130.3750   127.9560    -7.1500   -16.2140   -20.4300    96.4390     2.7210     2.9180     3.7650     2.2710 
  130.5000   128.0710    -7.1680   -16.2580   -20.1310   101.7320     2.6620     2.8680     3.7420     2.2810 
  130.6250   128.1860    -7.1870   -16.3030   -19.8740   108.3280     2.5830     2.8020     3.7250     2.2880 
  130.7500   128.3010    -7.2050   -16.3480   -19.6310   108.7860     2.4970     2.7230     3.5930     2.2990 
  130.8750   128.4170    -7.2240   -16.3930   -19.4990   102.7010     2.4330     2.6690     3.3460     2.3150 
  131.0000   128.5320    -7.2420   -16.4380   -19.4700    96.1560     2.4190     2.6540     3.2200     2.3210 
  131.1250   128.6470    -7.2610   -16.4830   -19.5080    93.6110     2.4550     2.6850     3.2890     2.3030 
  131.2500   128.7620    -7.2790   -16.5280   -19.6240    94.1290     2.6080     2.8330     3.5820     2.2750 
  131.3750   128.8770    -7.2980   -16.5730   -19.8430    94.0330     3.0490     3.2840     4.1200     2.2710 
  131.5000   128.9930    -7.3160   -16.6170   -20.2290    92.1160     3.8450     4.1220     4.6660     2.3150 
  131.6250   129.1080    -7.3350   -16.6620   -20.7190    87.4750     5.1910     5.5550     5.6490     2.4080 
  131.7500   129.2230    -7.3530   -16.7070   -21.1590    79.7760     7.2060     7.7040     8.6350     2.5170 
  131.8750   129.3380    -7.3720   -16.7520   -21.3720    71.5840    10.0430    10.7060    13.9590     2.6020 
  132.0000   129.4530    -7.3900   -16.7970   -21.3470    68.5860    12.9400    13.7560    18.9540     2.6490 
  132.1250   129.5680    -7.4080   -16.8420   -21.2750    70.5810    15.1060    16.0130    22.7520     2.6720 
  132.2500   129.6830    -7.4260   -16.8880   -21.3460    73.3330    15.4380    16.2720    26.1160     2.6830 
  132.3750   129.7990    -7.4450   -16.9330   -21.5400    76.1970    13.7920    14.4560    26.4800     2.6520 
  132.5000   129.9140    -7.4630   -16.9780   -21.8050    78.7580    11.3900    11.8250    22.2520     2.5450 
  132.6250   130.0290    -7.4810   -17.0230   -22.1840    77.8390     8.9710     9.2200    16.2150     2.3830 
  132.7500   130.1440    -7.4990   -17.0680   -22.7560    73.5440     7.3290     7.5060    11.6440     2.2430 
  132.8750   130.2590    -7.5170   -17.1130   -23.5230    69.3950     6.4650     6.6520     8.9330     2.1690 
  133.0000   130.3740    -7.5360   -17.1590   -24.3040    67.4720     5.9650     6.2170     7.5300     2.1400 
  133.1250   130.4890    -7.5540   -17.2040   -24.9180    67.4990     5.8830     6.2030     7.0560     2.1280 
  133.2500   130.6040    -7.5730   -17.2490   -25.3020    68.2830     5.9640     6.3460     6.8910     2.1250 
  133.3750   130.7200    -7.5910   -17.2940   -25.5590    68.5990     6.0920     6.5320     6.9650     2.1340 
  133.5000   130.8350    -7.6100   -17.3390   -25.7540    68.2920     6.2540     6.7390     7.2790     2.1500 
  133.6250   130.9500    -7.6290   -17.3840   -26.0050    69.6750     6.4840     7.0330     7.8100     2.1670 
  133.7500   131.0650    -7.6480   -17.4290   -26.2110    75.8810     6.7340     7.3360     9.1650     2.1780 
  133.8750   131.1800    -7.6660   -17.4740   -26.3570    84.2430     6.9380     7.5340    17.5200     2.1780 
  134.0000   131.2950    -7.6850   -17.5190   -26.4770    88.1210     6.9880     7.5680    37.4270     2.1670 
  134.1250   131.4100    -7.7040   -17.5640   -26.5810    83.7770     6.8500     7.4020    52.6500     2.1530 
  134.2500   131.5250    -7.7220   -17.6090   -26.7190    77.6490     6.5750     7.1180    41.8900     2.1440 
  134.3750   131.6400    -7.7410   -17.6540   -26.8600    75.2590     6.2160     6.7540    18.2210     2.1420 
