~V
VERS. 2.00: Ver 2.00
~W
STRT.M 35.0000:
STOP.M 279.0000:
STEP.M 0.1250:
NULL. -999.2500:
UWI. FD11183:
~C
DEPT.M :
TVD. :
DX. :
DY. :
SP.MV :
GR.API :
RI. :
RML.OHMM :
RXO.OHMM :
DEN.GM/CC :
~A
# ...
   53.2500    53.2500    -0.0780    -0.0600  -110.9970    75.3710     4.2540     4.6380     5.5480     2.1290 
   53.3750    53.3750    -0.0790    -0.0600  -110.7690    75.0960     4.3280     4.8130     5.6630     2.1310 
   53.5000    53.5000    -0.0800    -0.0600  -110.3560    72.9810     4.6310     5.4960     5.7620     2.1260 
   53.6250    53.6250    -0.0810    -0.0600  -109.7980    72.2530     5.1130     6.1050     7.6250     2.1260 
   53.7500    53.7500    -0.0820    -0.0600  -109.0920    73.5830     5.5490     6.5790    14.1910     2.1480 
   53.8750    53.8750    -0.0830    -0.0600  -108.2490    72.5360     5.6960     6.6460    22.6050     2.1890 
   54.0000    54.0000    -0.0850    -0.0600  -107.3010    69.6790     5.4230     6.2160    22.8740     2.2210 
   54.1250    54.1250    -0.0860    -0.0600  -106.2390    69.3190     4.8310     5.4240    13.6850     2.2270 
   54.2500    54.2500    -0.0870    -0.0610  -105.1110    73.1100     4.1630     4.6010     5.7860     2.2210 
   54.3750    54.3750    -0.0880    -0.0610  -103.9210    79.6600     3.6420     4.0150     3.5350     2.2230 
   54.5000    54.5000    -0.0890    -0.0610  -102.7690    87.7330     3.3670     3.7550     3.4490     2.2330 
   54.6250    54.6250    -0.0900    -0.0610  -101.7470    95.3260     3.3260     3.7740     3.7020     2.2400 
   54.7500    54.7500    -0.0910    -0.0610  -100.8630    97.8990     3.3680     3.8650     3.9460     2.2430 
   54.8750    54.8750    -0.0920    -0.0610  -100.2220    95.2120     3.3740     3.8780     3.9590     2.2520 
   55.0000    55.0000    -0.0940    -0.0610   -99.8470    93.6630     3.2930     3.7550     3.7360     2.2690 
   55.1250    55.1250    -0.0950    -0.0610   -99.7760    95.2500     3.1320     3.5240     3.5050     2.2800 
   55.2500    55.2500    -0.0960    -0.0610   -99.8670    95.8980     2.9700     3.2850     3.4100     2.2810 
   55.3750    55.3750    -0.0970    -0.0610  -100.0400    96.4290     2.8800     3.1500     3.3500     2.2780 
   55.5000    55.5000    -0.0990    -0.0610  -100.2680   100.9960     2.9790     3.2830     3.2800     2.2710 
   55.6250    55.6250    -0.1000    -0.0610  -100.5420   104.5330     3.5010     3.9530     3.5820     2.2710 
   55.7500    55.7500    -0.1010    -0.0600  -100.8850   102.3840     4.5270     5.2070     6.5730     2.3020 
   55.8750    55.8750    -0.1030    -0.0600  -101.4520    94.8420     5.8050     6.7390    14.1690     2.3750 
   56.0000    56.0000    -0.1040    -0.0600  -102.1670    86.5810     6.9040     7.9720    19.2930     2.4480 
   56.1250    56.1250    -0.1050    -0.0600  -102.9690    77.7180     7.2620     8.2630    15.5840     2.4480 
   56.2500    56.2500    -0.1070    -0.0600  -103.8190    70.3010     6.8180     7.6280     9.5440     2.3600 
   56.3750    56.3750    -0.1080    -0.0600  -104.7920    65.4240     5.9560     6.5660     6.6540     2.2340 
   56.5000    56.5000    -0.1100    -0.0600  -105.8170    60.9810     5.1850     5.6660     5.7370     2.1460 
   56.6250    56.6250    -0.1110    -0.0590  -106.7460    59.0490     4.7680     5.2420     5.6480     2.1220 
   56.7500    56.7500    -0.1130    -0.0590  -107.5120    62.4980     4.6750     5.2090     5.8300     2.1290 
   56.8750    56.8750    -0.1150    -0.0590  -108.0550    67.9790     4.6970     5.3090     5.9880     2.1440 
   57.0000    57.0000    -0.1160    -0.0590  -108.4520    69.2610     4.7230     5.3720     6.0290     2.1540 
   57.1250    57.1240    -0.1180    -0.0590  -108.7060    65.9380     4.7440     5.3840     5.9820     2.1470 
   57.2500    57.2490    -0.1190    -0.0580  -108.8250    65.3990     4.7910     5.4120     5.8740     2.1270 
   57.3750    57.3740    -0.1210    -0.0580  -108.7660    70.8440     4.9020     5.5470     5.7390     2.1100 
   57.5000    57.4990    -0.1230    -0.0580  -108.6080    75.0240     5.0490     5.7390     5.7430     2.1050 
   57.6250    57.6240    -0.1250    -0.0570  -108.3630    71.3940     5.1480     5.8260     5.8530     2.1080 
   57.7500    57.7490    -0.1260    -0.0570  -108.0670    65.3780     5.1570     5.7390     5.7710     2.1120 
   57.8750    57.8740    -0.1280    -0.0560  -107.7260    64.2440     5.0300     5.4860     5.4650     2.1230 
   58.0000    57.9990    -0.1300    -0.0560  -107.3410    68.0040     4.8340     5.2130     5.1710     2.1400 
   58.1250    58.1240    -0.1320    -0.0550  -106.9550    72.0580     4.6210     4.9940     5.1260     2.1530 
   58.2500    58.2490    -0.1340    -0.0550  -106.5620    73.6650     4.4220     4.8330     5.3470     2.1480 
   58.3750    58.3740    -0.1360    -0.0540  -106.1860    74.7590     4.3020     4.7280     5.4770     2.1360 
   58.5000    58.4990    -0.1380    -0.0540  -105.8330    77.0010     4.2570     4.6620     5.2080     2.1380 
   58.6250    58.6240    -0.1400    -0.0530  -105.5020    77.0250     4.2790     4.6310     4.7210     2.1640 
   58.7500    58.7490    -0.1420    -0.0530  -105.2500    73.8750     4.3440     4.6240     4.6830     2.2170 
   58.8750    58.8740    -0.1440    -0.0520  -105.0230    72.4460     4.4420     4.6660     5.3500     2.2890 
   59.0000    58.9990    -0.1470    -0.0510  -104.8610    76.3690     4.5870     4.7710     5.9580     2.3290 
   59.1250    59.1240    -0.1490    -0.0510  -104.9460    78.9080     4.7620     4.9350     6.1280     2.2860 
   59.2500    59.2490    -0.1510    -0.0500  -105.4370    74.7470     4.9670     5.1680     6.1640     2.1960 
   59.3750    59.3740    -0.1530    -0.0490  -106.2920    66.7760     5.2640     5.5130     6.0460     2.1500 
   59.5000    59.4990    -0.1560    -0.0480  -107.1430    62.1010     5.6720     5.9340     6.1910     2.1990 
   59.6250    59.6240    -0.1580    -0.0470  -107.7660    63.2340     6.0850     6.3220     7.7740     2.3270 
   59.7500    59.7490    -0.1610    -0.0460  -108.1540    65.9920     6.3690     6.5210     9.0490     2.4650 
   59.8750    59.8740    -0.1630    -0.0450  -108.3320    66.2760     6.3200     6.3880     7.6100     2.5500 
   60.0000    59.9990    -0.1650    -0.0450  -108.4530    65.6190     5.9590     5.9940     5.9060     2.5470 
   60.1250    60.1240    -0.1680    -0.0440  -108.5800    68.2050     5.4390     5.5140     5.7630     2.4410 
   60.2500    60.2490    -0.1710    -0.0420  -108.6700    70.8200     4.9290     5.1140     5.9530     2.2860 
   60.3750    60.3740    -0.1730    -0.0410  -108.7790    69.4380     4.5880     4.8730     5.9170     2.1640 
   60.5000    60.4990    -0.1760    -0.0400  -108.8840    65.0140     4.4580     4.7470     5.7960     2.1160 
   60.6250    60.6240    -0.1790    -0.0390  -109.0080    63.0340     4.4610     4.6950     5.6200     2.1170 
   60.7500    60.7490    -0.1810    -0.0380  -109.1050    63.2380     4.5270     4.7210     5.3400     2.1200 
   60.8750    60.8740    -0.1840    -0.0370  -109.1950    62.1900     4.5920     4.7530     5.0380     2.1140 
   61.0000    60.9990    -0.1870    -0.0360  -109.2480    60.3220     4.6330     4.7560     4.9270     2.1080 
   61.1250    61.1240    -0.1900    -0.0340  -109.2580    58.8590     4.6560     4.7320     5.1230     2.1040 
   61.2500    61.2490    -0.1930    -0.0330  -109.2650    58.8170     4.6460     4.6860     5.4390     2.0970 
   61.3750    61.3740    -0.1960    -0.0320  -109.3200    58.5670     4.6030     4.7580     5.6620     2.0860 
   61.5000    61.4990    -0.1990    -0.0300  -109.3540    58.0220     4.5500     4.8340     5.6180     2.0800 
   61.6250    61.6240    -0.2020    -0.0290  -109.3760    59.0620     4.5140     4.8340     5.3260     2.0830 
   61.7500    61.7490    -0.2050    -0.0270  -109.3980    61.1250     4.5100     4.8340     5.1030     2.0870 
   61.8750    61.8730    -0.2080    -0.0260  -109.4490    62.0700     4.5250     4.8340     5.1910     2.0860 
   62.0000    61.9980    -0.2110    -0.0240  -109.4900    60.9620     4.5430     4.8340     5.5130     2.0860 
   62.1250    62.1230    -0.2150    -0.0220  -109.5110    59.7940     4.5520     4.8310     5.7950     2.0900 
   62.2500    62.2480    -0.2180    -0.0210  -109.4840    60.4110     4.5500     4.7880     5.9760     2.0960 
