~V
VERS. 2.00: Ver 2.00
~W
STRT.M 45.0000:
STOP.M 272.0000:
STEP.M 0.1250:
NULL. -999.2500:
UWI. FD11191:
~C
DEPT.M :
TVD. :
DX. :
DY. :
SP.MV :
GR.API :
RI. :
RML.OHMM :
RXO.OHMM :
DEN.GM/CC :
~A
# ...
   63.2500    63.2490    -0.0110    -0.1340   -64.6330    57.1530     4.5650     6.8770     7.3050     2.0600 
   63.3750    63.3740    -0.0120    -0.1350   -64.4120    58.9160     4.5280     6.7640     7.3420     2.0670 
   63.5000    63.4990    -0.0120    -0.1360   -64.1870    59.7740     4.6080     6.8260     7.6310     2.0720 
   63.6250    63.6240    -0.0120    -0.1370   -63.9570    59.1610     5.0210     7.4650     7.9830     2.0830 
   63.7500    63.7490    -0.0130    -0.1380   -63.7320    57.4510     5.7620     8.6530     8.6040     2.1400 
   63.8750    63.8740    -0.0130    -0.1390   -63.5280    57.8290     6.6020     9.9920    13.8490     2.2610 
   64.0000    63.9990    -0.0140    -0.1400   -63.3680    59.4000     7.2810    11.0160    22.8020     2.3690 
   64.1250    64.1240    -0.0140    -0.1410   -63.2720    60.5190     7.4190    11.0790    22.6090     2.3530 
   64.2500    64.2490    -0.0140    -0.1420   -63.2390    60.8470     7.0030    10.2480    13.7970     2.2290 
   64.3750    64.3740    -0.0150    -0.1420   -63.2550    60.3130     6.2140     8.8980     8.5080     2.1090 
   64.5000    64.4990    -0.0150    -0.1430   -63.2790    59.1030     5.3960     7.6000     7.4950     2.0610 
   64.6250    64.6240    -0.0160    -0.1440   -63.2600    59.2460     4.8080     6.7830     7.2160     2.0620 
   64.7500    64.7490    -0.0160    -0.1450   -63.1590    62.9570     4.5730     6.5270     7.0400     2.0690 
   64.8750    64.8740    -0.0170    -0.1460   -62.9300    66.6750     4.5250     6.4970     6.9410     2.0680 
   65.0000    64.9990    -0.0170    -0.1470   -62.5570    65.6540     4.5190     6.4840     6.9170     2.0600 
   65.1250    65.1240    -0.0180    -0.1480   -61.9980    61.2970     4.6200     6.6330     6.8290     2.0520 
   65.2500    65.2490    -0.0180    -0.1490   -61.2490    59.6640     4.9600     7.1490     6.7930     2.0750 
   65.3750    65.3740    -0.0190    -0.1490   -60.2960    61.7790     5.4660     7.9460     6.8710     2.1700 
   65.5000    65.4990    -0.0190    -0.1500   -59.1880    64.6150     5.9770     8.7640     6.8410     2.3200 
   65.6250    65.6240    -0.0200    -0.1510   -58.0000    67.4650     6.2160     9.1180     6.4410     2.4370 
   65.7500    65.7490    -0.0200    -0.1520   -56.8510    70.3120     6.1340     8.9210     5.7930     2.4390 
   65.8750    65.8740    -0.0210    -0.1530   -55.8760    75.3860     5.9010     8.4650     5.2790     2.3480 
   66.0000    65.9990    -0.0210    -0.1540   -55.1570    83.3120     5.7530     8.1830     5.1150     2.2840 
   66.1250    66.1240    -0.0220    -0.1550   -54.7560    91.2510     5.9160     8.5180     6.4710     2.3090 
   66.2500    66.2490    -0.0220    -0.1560   -54.6290    92.4390     6.3250     9.3340     9.9290     2.3500 
   66.3750    66.3740    -0.0230    -0.1560   -54.7300    84.5800     6.8970    10.3430    11.8940     2.3120 
   66.5000    66.4990    -0.0240    -0.1570   -54.9610    74.5210     7.2770    10.9300    10.0230     2.2040 
   66.6250    66.6240    -0.0240    -0.1580   -55.2540    68.0480     7.1720    10.6490     7.4590     2.1040 
   66.7500    66.7490    -0.0250    -0.1590   -55.5470    65.4970     6.7350     9.8450     6.5420     2.0660 
   66.8750    66.8740    -0.0250    -0.1600   -55.8050    66.2360     6.1610     8.8960     6.4150     2.0770 
   67.0000    66.9990    -0.0260    -0.1610   -56.0170    70.0410     5.8040     8.3440     6.2820     2.0910 
   67.1250    67.1240    -0.0270    -0.1620   -56.1780    73.5020     5.8020     8.3650     6.2190     2.0850 
   67.2500    67.2490    -0.0270    -0.1630   -56.2920    74.6340     5.9690     8.6320     6.3410     2.0680 
   67.3750    67.3740    -0.0280    -0.1640   -56.3610    72.8490     6.2200     8.9910     6.6000     2.0610 
   67.5000    67.4990    -0.0290    -0.1650   -56.3920    70.7670     6.4160     9.2390     6.7780     2.0670 
   67.6250    67.6240    -0.0290    -0.1650   -56.3900    69.1640     6.5040     9.2560     6.7030     2.0710 
   67.7500    67.7490    -0.0300    -0.1660   -56.3620    69.6840     6.4510     9.0750     6.5270     2.0680 
   67.8750    67.8740    -0.0310    -0.1670   -56.3140    73.4120     6.2870     8.8120     6.5780     2.0650 
   68.0000    67.9990    -0.0320    -0.1680   -56.2550    76.6870     6.1420     8.6490     6.8270     2.0650 
   68.1250    68.1240    -0.0320    -0.1690   -56.1890    76.6230     6.0860     8.6720     6.9590     2.0640 
   68.2500    68.2490    -0.0330    -0.1700   -56.1200    74.4560     6.1310     8.8310     6.9730     2.0600 
   68.3750    68.3740    -0.0340    -0.1710   -56.0480    72.2090     6.1710     8.9370     6.9790     2.0710 
   68.5000    68.4990    -0.0350    -0.1720   -55.9730    71.1150     6.1220     8.8880     6.9100     2.0930 
   68.6250    68.6240    -0.0360    -0.1730   -55.9070    70.8380     5.9410     8.6390     6.6560     2.1010 
   68.7500    68.7490    -0.0360    -0.1740   -55.8700    69.8920     5.6940     8.2770     6.2780     2.0840 
   68.8750    68.8740    -0.0370    -0.1750   -55.8860    71.1540     5.4460     7.9130     5.7550     2.0760 
   69.0000    68.9990    -0.0380    -0.1750   -55.9680    76.0980     5.2730     7.6590     5.3770     2.1000 
   69.1250    69.1240    -0.0390    -0.1760   -56.1170    81.5330     5.2060     7.5480     5.6050     2.1400 
   69.2500    69.2490    -0.0400    -0.1770   -56.3090    85.2970     5.2910     7.6840     6.2870     2.1700 
   69.3750    69.3740    -0.0410    -0.1780   -56.5100    89.2960     5.7690     8.4580     6.9210     2.1900 
   69.5000    69.4990    -0.0410    -0.1790   -56.6830    95.0960     6.6740     9.8970     7.1530     2.2230 
   69.6250    69.6240    -0.0420    -0.1800   -56.8030    98.7770     7.7900    11.6650    10.5410     2.2790 
   69.7500    69.7490    -0.0430    -0.1810   -56.8720    95.5800     8.6810    13.0340    40.6770     2.3000 
   69.8750    69.8740    -0.0440    -0.1820   -56.9060    85.2350     8.9850    13.3590    79.7530     2.2290 
   70.0000    69.9990    -0.0450    -0.1830   -56.9290    73.9310     8.5830    12.5130    66.4960     2.1150 
   70.1250    70.1240    -0.0460    -0.1840   -56.9550    66.7250     7.6320    10.8520    25.1560     2.0380 
   70.2500    70.2490    -0.0470    -0.1840   -56.9790    63.5000     6.5850     9.1480     8.1010     2.0150 
   70.3750    70.3740    -0.0480    -0.1850   -56.9760    61.9290     5.8020     8.0230     6.6760     2.0130 
   70.5000    70.4990    -0.0490    -0.1860   -56.9160    62.0250     5.4880     7.6570     6.4440     2.0100 
   70.6250    70.6240    -0.0500    -0.1870   -56.7840    63.3320     5.5490     7.8190     6.3180     2.0120 
   70.7500    70.7490    -0.0510    -0.1880   -56.6290    65.0410     5.6420     7.9740     6.3360     2.0210 
   70.8750    70.8740    -0.0520    -0.1890   -56.3190    68.0060     5.7030     7.9970     6.5520     2.0460 
   71.0000    70.9990    -0.0530    -0.1890   -55.9330    69.7360     5.6580     7.7860     6.8170     2.0850 
   71.1250    71.1240    -0.0540    -0.1900   -55.4990    70.6930     5.5270     7.3840     6.6080     2.1250 
   71.2500    71.2490    -0.0550    -0.1910   -55.0570    73.8790     5.3960     6.9560     5.9530     2.1460 
   71.3750    71.3740    -0.0560    -0.1920   -54.6360    79.0810     5.3130     6.6430     5.6670     2.1450 
   71.5000    71.4990    -0.0570    -0.1930   -54.2470    81.4000     5.2410     6.4090     5.8140     2.1410 
   71.6250    71.6240    -0.0580    -0.1930   -53.8870    79.7780     5.1360     6.1980     5.9260     2.1550 
   71.7500    71.7490    -0.0590    -0.1940   -53.5420    78.5280     4.9630     5.9210     6.0930     2.1760 
   71.8750    71.8740    -0.0600    -0.1950   -53.2110    78.8000     4.6710     5.4850     5.9370     2.1790 
   72.0000    71.9990    -0.0620    -0.1960   -52.9050    80.0550     4.4310     5.1060     5.3150     2.1700 
   72.1250    72.1240    -0.0630    -0.1970   -52.6580    83.9880     4.4630     5.0860     5.0180     2.1870 
   72.2500    72.2490    -0.0640    -0.1970   -52.4960    87.9060     4.9080     5.6210     5.0890     2.2660 
