~V
VERS. 2.00: Ver 2.00
~W
STRT.M 50.0000:
STOP.M 261.0000:
STEP.M 0.1250:
NULL. -999.2500:
UWI. FZI308:
~C
DEPT.M :
SP.MV :
GR.API :
RI. :
RML.OHMM :
RXO.OHMM :
DEN.GM/CC :
~A
# ...
  127.2500   -19.0570    76.8750     3.5140     4.2250     4.5340     2.2500 
  127.3750   -18.9080    76.2420     3.5390     4.2510     4.7170     2.2520 
  127.5000   -18.8600    77.0790     3.4670     4.1750     4.2350     2.2790 
  127.6250   -18.8680    77.3470     3.3920     4.0960     3.6740     2.2980 
  127.7500   -18.8890    75.4410     3.5110     4.2220     3.5970     2.2840 
  127.8750   -18.9030    72.5950     3.8940     4.6280     4.0720     2.2600 
  128.0000   -18.9090    73.0710     4.4280     5.1940     5.2590     2.2910 
  128.1250   -18.9090    74.0960     4.8420     5.6320     8.7270     2.3960 
  128.2500   -18.9040    70.9320     4.8820     5.6750    11.5010     2.4840 
  128.3750   -18.8840    65.3450     4.5290     5.3010     8.6090     2.4570 
  128.5000   -18.8380    64.1450     3.9740     4.7120     4.7270     2.3580 
  128.6250   -18.7560    68.7350     3.4360     4.1420     3.9290     2.2820 
  128.7500   -18.6480    72.8110     3.0640     3.7480     4.1260     2.2510 
  128.8750   -18.5320    72.4560     2.8780     3.5510     4.1800     2.2510 
  129.0000   -18.4250    71.5960     2.8600     3.5320     3.9310     2.2730 
  129.1250   -18.3350    74.0320     2.8920     3.5660     3.7310     2.3030 
  129.2500   -18.2530    79.8750     2.9280     3.6030     4.0090     2.3080 
  129.3750   -18.1630    84.9200     2.9900     3.6700     4.3430     2.2770 
  129.5000   -18.0580    85.5220     3.0580     3.7420     4.2510     2.2450 
  129.6250   -17.9380    82.6190     3.1180     3.8050     4.0220     2.2330 
  129.7500   -17.8160    79.5610     3.1660     3.8560     3.9240     2.2360 
  129.8750   -17.7080    77.7980     3.1920     3.8830     3.8970     2.2380 
  130.0000   -17.6260    77.6900     3.1850     3.8760     3.9430     2.2310 
  130.1250   -17.5770    79.3450     3.1670     3.8570     4.0510     2.2270 
  130.2500   -17.5600    81.6710     3.1310     3.8190     3.9740     2.2430 
  130.3750   -17.5720    83.7380     3.0840     3.7690     3.6570     2.2690 
  130.5000   -17.6030    83.7220     3.0290     3.7110     3.5830     2.2770 
  130.6250   -17.6420    82.1330     2.9410     3.6180     3.7460     2.2580 
  130.7500   -17.6770    79.0580     2.8100     3.4780     3.6150     2.2380 
  130.8750   -17.7000    79.0120     2.6500     3.3090     3.2420     2.2430 
  131.0000   -17.7140    83.3380     2.4750     3.1240     2.9630     2.2700 
  131.1250   -17.7270    89.8220     2.3220     2.9620     2.8030     2.3050 
  131.2500   -17.7570    92.9380     2.2420     2.8760     2.7650     2.3280 
  131.3750   -17.8270    91.9580     2.2480     2.8830     2.7490     2.3350 
  131.5000   -17.9590    92.2130     2.3420     2.9830     2.7480     2.3330 
  131.6250   -18.1800    93.2460     2.4940     3.1440     3.0670     2.3210 
  131.7500   -18.5030    92.4740     2.6970     3.3590     3.5350     2.2980 
  131.8750   -18.9540    89.0680     2.9160     3.5910     3.7810     2.2620 
  132.0000   -19.5290    84.5910     3.1610     3.8510     4.1360     2.2290 
  132.1250   -20.2350    79.2460     3.4800     4.1890     4.5860     2.2220 
  132.2500   -21.0420    74.0060     3.9620     4.6990     4.8220     2.2220 
  132.3750   -21.9200    71.1820     4.6940     5.4760     6.4510     2.2080 
  132.5000   -22.8160    68.2360     5.8110     6.6600     9.1610     2.1850 
  132.6250   -23.6750    63.4390     7.2280     8.1620    10.7960     2.1780 
  132.7500   -24.4500    58.9800     8.6870     9.7080    11.9240     2.1920 
  132.8750   -25.0850    55.3610    10.1530    11.2620    12.6650     2.2160 
  133.0000   -25.5510    51.9700    11.3700    12.5520    13.0830     2.2410 
  133.1250   -25.8000    49.6750    12.0430    13.2650    14.2430     2.2440 
  133.2500   -25.8260    50.4110    11.7130    12.9150    15.3240     2.2230 
  133.3750   -25.6030    52.6450    10.2670    11.3830    15.1150     2.2300 
  133.5000   -25.1640    53.6260     8.0360     9.0190    12.4980     2.2860 
  133.6250   -24.5230    54.8690     5.9630     6.8210     7.9180     2.3340 
  133.7500   -23.7460    58.2280     4.3970     5.1610     5.2520     2.3280 
  133.8750   -22.8890    64.5930     3.5390     4.2520     4.8710     2.3000 
  134.0000   -22.0270    70.5850     3.1650     3.8550     4.1840     2.2910 
  134.1250   -21.2290    74.4920     3.0440     3.7270     3.6280     2.2810 
  134.2500   -20.5440    76.2480     3.0940     3.7800     3.7030     2.2510 
  134.3750   -20.0120    76.8990     3.1870     3.8780     3.9220     2.2300 
  134.5000   -19.6300    76.3270     3.2700     3.9660     4.0720     2.2300 
  134.6250   -19.3950    73.2100     3.3390     4.0390     4.1330     2.2390 
  134.7500   -19.2710    69.4410     3.3980     4.1020     4.3390     2.2440 
  134.8750   -19.2350    68.1300     3.5510     4.2640     4.6150     2.2320 
  135.0000   -19.2520    69.4630     3.8480     4.5790     4.7890     2.2140 
  135.1250   -19.2970    70.4890     4.1810     4.9320     5.2650     2.2240 
  135.2500   -19.3390    68.7460     4.4510     5.2180     6.1360     2.2750 
  135.3750   -19.3480    65.1970     4.6720     5.4530     6.7020     2.3290 
  135.5000   -19.3010    62.6260     4.8130     5.6020     6.0840     2.3520 
  135.6250   -19.1790    62.8000     4.7580     5.5440     6.5320     2.3610 
  135.7500   -18.9890    64.7680     4.5850     5.3600     8.6340     2.3680 
  135.8750   -18.7450    67.1240     4.2210     4.9740     7.9550     2.3500 
  136.0000   -18.4800    68.7450     3.8170     4.5460     5.3170     2.3060 
  136.1250   -18.2220    70.0010     3.4600     4.1680     4.0910     2.2710 
  136.2500   -17.9930    71.2150     3.1440     3.8330     3.9530     2.2570 
  136.3750   -17.8080    72.5200     2.9490     3.6260     4.0390     2.2590 
  136.5000   -17.6630    74.3100     2.9270     3.6020     4.0190     2.2610 
  136.6250   -17.5590    76.2460     3.1390     3.8270     4.1380     2.2640 
  136.7500   -17.4840    76.0250     3.5410     4.2540     4.3690     2.2730 
  136.8750   -17.4320    74.0330     4.1440     4.8930     5.2030     2.2850 
  137.0000   -17.3940    72.5150     5.0510     5.8550     7.4650     2.2810 
  137.1250   -17.3630    71.5830     6.2080     7.0810     8.9750     2.2630 
  137.2500   -17.3310    69.3430     7.3090     8.2480     8.8000     2.2630 
  137.3750   -17.2950    65.9230     7.6230     8.5800     9.3800     2.2960 
  137.5000   -17.2520    63.2500     7.1300     8.0580     9.8420     2.3270 
  137.6250   -17.2040    62.3620     5.8340     6.6840     7.9830     2.3150 
  137.7500   -17.1560    63.7520     4.5600     5.3330     5.2060     2.2740 
  137.8750   -17.1170    67.9160     3.6700     4.3900     3.8860     2.2400 
  138.0000   -17.0920    71.9790     3.1590     3.8490     3.8670     2.2270 
  138.1250   -17.0880    74.1780     3.0040     3.6840     3.9220     2.2190 
  138.2500   -17.1020    73.8720     3.1220     3.8090     4.0110     2.2020 
  138.3750   -17.1360    71.3690     3.5200     4.2310     4.7180     2.1960 
  138.5000   -17.1860    67.2710     4.4030     5.1670     5.8250     2.2400 
  138.6250   -17.2550    63.2340     6.0840     6.9490     9.0300     2.3470 
  138.7500   -17.3410    60.4470     8.2570     9.2530    16.2060     2.4700 
  138.8750   -17.4460    58.2540    10.2830    11.4000    21.9020     2.5460 
  139.0000   -17.5650    56.2660    11.1020    12.2680    21.6230     2.5550 
  139.1250   -17.6930    54.8140    10.5270    11.6590    18.6600     2.5180 
  139.2500   -17.8210    54.3530     9.1990    10.2510    14.6470     2.4640 
  139.3750   -17.9430    55.4070     7.8760     8.8490    10.2760     2.4120 
  139.5000   -18.0550    57.7850     7.2560     8.1910    13.0620     2.3790 
  139.6250   -18.1570    60.1370     7.3430     8.2840    19.1860     2.3750 
  139.7500   -18.2550    60.5810     7.6640     8.6240    16.3340     2.3880 
  139.8750   -18.3550    59.4180     7.9960     8.9760    10.7670     2.3760 
  140.0000   -18.4620    58.8130     8.1460     9.1350     9.4960     2.3140 
