~V
VERS. 2.00: Ver 2.00
~W
STRT.M 50.0000:
STOP.M 261.0000:
STEP.M 0.1250:
NULL. -999.2500:
UWI. FZI308:
~C
DEPT.M :
SP.MV :
GR.API :
RI. :
RML.OHMM :
RXO.OHMM :
DEN.GM/CC :
~A
# ...
  191.6250   -20.2000    49.0690    19.6940    21.3760    19.4420     2.2400 
  191.7500   -19.8330    48.5730    19.3100    20.9690    17.7800     2.2410 
  191.8750   -19.4600    49.0230    19.1390    20.7870    17.2890     2.2400 
  192.0000   -19.0960    49.6710    19.2780    20.9340    17.7350     2.2330 
  192.1250   -18.7620    49.2460    19.9160    21.6110    18.9760     2.2200 
  192.2500   -18.4770    48.6910    20.9820    22.7410    20.8860     2.2080 
  192.3750   -18.2630    49.0630    22.3450    24.1860    22.8780     2.2030 
  192.5000   -18.1190    49.6840    23.7330    25.6570    24.1940     2.2110 
  192.6250   -18.0360    48.8550    24.9430    26.9400    24.7900     2.2250 
  192.7500   -17.9840    47.7050    25.9170    27.9720    24.5820     2.2360 
  192.8750   -17.9360    48.5520    26.6390    28.7370    23.7900     2.2420 
  193.0000   -17.8660    49.1740    27.3030    29.4410    24.0040     2.2510 
  193.1250   -17.7600    47.9360    27.8930    30.0660    25.1970     2.2590 
  193.2500   -17.6150    46.2430    28.4550    30.6630    25.5560     2.2550 
  193.3750   -17.4340    45.5210    28.8960    31.1300    24.6340     2.2370 
  193.5000   -17.2230    45.1620    29.1380    31.3860    24.0590     2.2190 
  193.6250   -16.9840    44.6900    29.2350    31.4890    24.7370     2.2120 
  193.7500   -16.7210    45.7710    29.3370    31.5970    25.3120     2.2060 
  193.8750   -16.4370    47.9230    29.4770    31.7460    25.2190     2.1970 
  194.0000   -16.1380    48.8630    29.5530    31.8260    25.2080     2.1820 
  194.1250   -15.8350    48.7190    29.2380    31.4920    25.5820     2.1670 
  194.2500   -15.5410    48.1880    28.0260    30.2080    26.4290     2.1640 
  194.3750   -15.2670    48.2030    25.8490    27.9000    26.5210     2.1740 
  194.5000   -15.0170    50.0280    23.0130    24.8930    24.5080     2.1910 
  194.6250   -14.7850    55.0120    20.0670    21.7710    21.1230     2.2020 
  194.7500   -14.5610    59.8100    17.8610    19.4330    18.0380     2.2050 
  194.8750   -14.3340    61.0800    16.4360    17.9220    16.2020     2.2020 
  195.0000   -14.1050    59.7200    16.0880    17.5540    15.9060     2.2000 
  195.1250   -13.8830    58.4900    16.9170    18.4320    17.5850     2.2010 
  195.2500   -13.6860    57.9150    18.5100    20.1210    20.2090     2.1980 
  195.3750   -13.5340    57.3950    20.4190    22.1440    22.7760     2.1890 
  195.5000   -13.4380    55.3750    21.8680    23.6800    24.3070     2.1860 
  195.6250   -13.4030    53.3140    22.3130    24.1520    23.4520     2.1920 
  195.7500   -13.4170    54.3720    21.8370    23.6470    21.1950     2.1950 
  195.8750   -13.4680    57.3670    20.7950    22.5420    18.5840     2.1830 
  196.0000   -13.5430    57.8710    19.6350    21.3140    16.8600     2.1600 
  196.1250   -13.6360    55.7020    18.7720    20.3990    16.8230     2.1440 
  196.2500   -13.7500    55.3360    18.5380    20.1500    17.4120     2.1460 
  196.3750   -13.8920    56.7860    18.8440    20.4740    18.0200     2.1590 
  196.5000   -14.0680    57.8020    19.7020    21.3840    18.5080     2.1650 
  196.6250   -14.2840    58.2310    21.1230    22.8900    19.4650     2.1610 
  196.7500   -14.5330    58.6990    23.2270    25.1210    21.8320     2.1640 
  196.8750   -14.8070    57.3100    25.8040    27.8520    24.7650     2.1840 
  197.0000   -15.0890    53.8070    28.2170    30.4100    26.4940     2.2020 
  197.1250   -15.3640    50.0840    29.9360    32.2320    26.8940     2.2000 
  197.2500   -15.6170    47.8090    30.5810    32.9160    26.9750     2.1930 
  197.3750   -15.8360    48.5440    30.2420    32.5570    26.7100     2.1990 
  197.5000   -16.0200    50.1320    29.3220    31.5810    25.9350     2.2120 
  197.6250   -16.1700    50.1040    28.2100    30.4030    25.2710     2.2200 
  197.7500   -16.2920    49.5120    27.3630    29.5040    24.9080     2.2260 
  197.8750   -16.3890    50.5880    27.0890    29.2140    25.0070     2.2280 
  198.0000   -16.4650    51.6740    27.6850    29.8460    25.7650     2.2140 
  198.1250   -16.5200    49.7560    29.5150    31.7850    27.1790     2.1950 
  198.2500   -16.5550    48.1590    32.6100    35.0670    29.3380     2.1990 
  198.3750   -16.5660    48.9500    37.0930    39.8180    51.5990     2.2380 
  198.5000   -16.5510    48.7770    42.0310    45.0530    76.5060     2.3020 
  198.6250   -16.5000    46.5610    45.7590    49.0040    58.9500     2.3570 
  198.7500   -16.4020    45.2940    47.1590    50.4890    32.8690     2.3620 
  198.8750   -16.2390    47.0740    45.7790    49.0250    29.8990     2.3060 
  199.0000   -16.0020    48.9450    42.7160    45.7790    31.7520     2.2400 
  199.1250   -15.6790    50.6840    39.3380    42.1990    30.6550     2.2030 
  199.2500   -15.2860    53.4480    36.4250    39.1100    28.7930     2.1880 
  199.3750   -14.8420    55.5300    33.9680    36.5060    27.7590     2.1830 
  199.5000   -14.3830    55.1080    31.9030    34.3170    26.3260     2.1850 
  199.6250   -13.9370    53.8440    29.9440    32.2410    24.4600     2.1840 
  199.7500   -13.5180    53.7940    28.1220    30.3100    25.2390     2.1840 
  199.8750   -13.1260    52.9640    26.8000    28.9080    28.3900     2.1970 
  200.0000   -12.7480    50.8570    25.9590    28.0160    26.7440     2.2170 
  200.1250   -12.3740    50.4920    25.6520    27.6920    21.4590     2.2300 
  200.2500   -11.9980    51.1830    25.7420    27.7860    20.7150     2.2350 
  200.3750   -11.6180    49.8510    26.1760    28.2470    23.5410     2.2300 
  200.5000   -11.2320    48.1460    26.9110    29.0260    24.3320     2.2240 
  200.6250   -10.8290    47.9220    27.6600    29.8200    23.0900     2.2300 
  200.7500   -10.3990    48.2370    28.0770    30.2620    22.7360     2.2440 
  200.8750    -9.9240    46.8210    28.0070    30.1880    22.2890     2.2530 
  201.0000    -9.4010    45.2680    27.3970    29.5410    20.0930     2.2550 
  201.1250    -8.8290    45.3090    26.5080    28.5990    18.7880     2.2600 
  201.2500    -8.2170    46.4550    25.4820    27.5100    19.5640     2.2600 
  201.3750    -7.5770    48.2250    24.6360    26.6140    19.4920     2.2450 
  201.5000    -6.9300    50.3970    24.0920    26.0370    18.3820     2.2220 
  201.6250    -6.3040    51.5320    23.8660    25.7980    18.2540     2.2050 
  201.7500    -5.7270    51.8540    24.0100    25.9510    18.7630     2.1950 
  201.8750    -5.2360    51.6530    24.5880    26.5630    18.8440     2.1850 
  202.0000    -4.8480    52.4690    25.6850    27.7260    18.9870     2.1760 
  202.1250    -4.5810    52.3850    27.4420    29.5880    19.6270     2.1860 
  202.2500    -4.4200    50.3620    29.8040    32.0920    19.5450     2.2270 
  202.3750    -4.3550    48.0000    32.1810    34.6120    18.4540     2.2850 
  202.5000    -4.3570    46.7080    34.2210    36.7750    26.8390     2.3080 
  202.6250    -4.4120    45.5790    35.0630    37.6670    40.9350     2.2690 
  202.7500    -4.5010    44.0340    34.6380    37.2160    38.1280     2.2090 
  202.8750    -4.6170    44.1900    33.4360    35.9420    26.6770     2.1750 
  203.0000    -4.7490    47.7530    31.9500    34.3670    22.8860     2.1730 
  203.1250    -4.8930    51.9520    31.0430    33.4050    22.3780     2.1810 
  203.2500    -5.0410    53.2650    30.7180    33.0610    22.2590     2.1840 
  203.3750    -5.1890    52.7740    30.8660    33.2180    23.0660     2.1780 
  203.5000    -5.3390    51.6920    31.1750    33.5450    24.6320     2.1710 
  203.6250    -5.4950    50.6720    31.7230    34.1260    26.9950     2.1730 
  203.7500    -5.6630    50.3430    32.6940    35.1550    28.8580     2.1830 
  203.8750    -5.8470    51.4020    34.0160    36.5570    29.3110     2.1910 
  204.0000    -6.0410    52.7520    35.5850    38.2200    30.6640     2.1920 
  204.1250    -6.2390    51.9490    37.1080    39.8340    32.9810     2.1900 
  204.2500    -6.4310    50.4390    38.3850    41.1880    34.2310     2.1880 
  204.3750    -6.6060    49.6270    39.0210    41.8630    34.8080     2.1860 
