~V
VERS. 2.00: Ver 2.00
~W
STRT.M 50.0000:
STOP.M 249.0000:
STEP.M 0.1250:
NULL. -999.2500:
UWI. FZI307:
~C
DEPT.M :
SP.MV :
GR.API :
RI. :
RML.OHMM :
RXO.OHMM :
DEN.GM/CC :
~A
# ...
  114.3750   -47.7380    48.5100     5.7030     6.7930     7.1560     2.1620 
  114.5000   -47.4810    50.4060     5.6940     6.7620     7.0670     2.1520 
  114.6250   -47.1010    52.1830     5.6780     6.7080     7.0660     2.1470 
  114.7500   -46.7530    53.5320     5.6490     6.6340     7.0520     2.1480 
  114.8750   -46.5040    53.4310     5.6300     6.5720     7.0060     2.1510 
  115.0000   -46.3770    53.0710     5.6480     6.5610     7.0360     2.1590 
  115.1250   -46.3790    52.7830     5.6940     6.5950     7.1810     2.1890 
  115.2500   -46.4640    52.8540     5.7640     6.6860     7.2930     2.2420 
  115.3750   -46.5680    52.9750     5.8320     6.7900     7.2760     2.2670 
  115.5000   -46.6400    53.6100     5.9000     6.8920     7.0900     2.2430 
  115.6250   -46.7450    54.0140     5.9330     6.9470     6.8300     2.1940 
  115.7500   -46.9530    53.3710     5.9290     6.9620     6.7270     2.1620 
  115.8750   -47.1950    51.6050     5.9040     6.9630     6.7600     2.1500 
  116.0000   -47.3450    49.8190     5.8140     6.9120     6.7360     2.1440 
  116.1250   -47.3610    49.0000     5.5840     6.6540     6.5910     2.1430 
  116.2500   -47.2310    49.8330     5.2580     6.2450     6.3600     2.1510 
  116.3750   -46.8090    51.3070     4.8940     5.7800     5.9050     2.1850 
  116.5000   -46.0110    50.8490     4.6590     5.4790     5.2740     2.2400 
  116.6250   -44.9260    50.6870     4.6950     5.5420     5.1040     2.2710 
  116.7500   -43.9270    53.4120     4.9620     5.9270     5.9460     2.2550 
  116.8750   -43.4830    57.1820     5.5120     6.6620     7.2560     2.2080 
  117.0000   -43.7770    56.9200     6.2260     7.5540     8.1370     2.1640 
  117.1250   -44.7030    53.8750     6.9550     8.3860     8.5590     2.1330 
  117.2500   -45.8520    52.1640     7.5610     9.0230     8.9590     2.1120 
  117.3750   -46.8490    50.4460     8.0250     9.4660     9.6020     2.1050 
  117.5000   -47.4640    47.9750     8.2990     9.6940     9.9430     2.1220 
  117.6250   -47.6500    47.0700     8.3890     9.7340     9.3080     2.1610 
  117.7500   -47.5760    48.4360     8.2900     9.5290     8.3450     2.1910 
  117.8750   -47.4300    49.0980     7.9900     9.1200     8.0380     2.1920 
  118.0000   -47.3250    48.7350     7.6180     8.6660     8.3170     2.1840 
  118.1250   -47.2700    51.1310     7.3200     8.3540     8.5180     2.1870 
  118.2500   -47.2530    54.2150     7.2090     8.3210     8.3980     2.1930 
  118.3750   -47.2850    55.1750     7.3280     8.5660     8.3330     2.1870 
  118.5000   -47.3480    53.1570     7.6130     8.9560     8.4460     2.1670 
  118.6250   -47.4240    51.3040     7.8730     9.2200     9.3400     2.1440 
  118.7500   -47.5070    50.9120     8.0070     9.2440    14.1410     2.1370 
  118.8750   -47.6110    50.8160     7.9490     8.9830    17.8800     2.1510 
  119.0000   -47.7690    50.4680     7.7280     8.5200    13.6680     2.1640 
  119.1250   -48.0140    48.5840     7.4350     8.0280     8.8010     2.1640 
  119.2500   -48.3140    47.4830     7.1520     7.6290     7.9170     2.1590 
  119.3750   -48.5340    47.2660     6.9760     7.4100     8.0790     2.1550 
  119.5000   -48.5050    48.3150     6.8820     7.3300     8.1340     2.1510 
  119.6250   -48.1080    51.1030     6.8120     7.3480     7.8810     2.1440 
  119.7500   -47.4290    53.9560     6.7380     7.3650     7.7890     2.1380 
  119.8750   -46.7010    55.2920     6.6310     7.3590     7.9670     2.1340 
  120.0000   -46.2500    54.0840     6.5080     7.2980     7.9380     2.1370 
  120.1250   -46.2910    50.8600     6.3770     7.1720     7.5710     2.1390 
  120.2500   -46.6720    48.0540     6.2540     7.0470     7.3180     2.1330 
  120.3750   -47.1860    47.2080     6.1440     6.9220     7.2980     2.1240 
  120.5000   -47.6180    48.5550     6.1180     6.8850     7.2940     2.1280 
  120.6250   -47.7160    49.2060     6.3850     7.2090     7.3800     2.1620 
  120.7500   -47.4630    48.4500     7.0140     8.0030     7.6710     2.2310 
  120.8750   -47.0580    48.1480     7.9170     9.1090     9.4260     2.3470 
  121.0000   -46.7140    49.8640     8.7140    10.0360    13.6700     2.4570 
  121.1250   -46.4920    51.2870     9.1260    10.4250    15.2120     2.4640 
  121.2500   -46.4590    50.9490     9.0460    10.1640    11.5920     2.3590 
  121.3750   -46.6860    50.2970     8.5890     9.5090     8.8670     2.2610 
  121.5000   -47.0500    50.6320     8.0140     8.8060     8.5740     2.2860 
  121.6250   -47.4390    50.0280     7.5750     8.3770     8.4550     2.3860 
  121.7500   -47.8020    48.3090     7.3950     8.2570     8.4880     2.4010 
  121.8750   -48.1260    47.4030     7.3830     8.2380     8.7010     2.2880 
  122.0000   -48.4670    47.7960     7.3410     8.1420     8.9890     2.1730 
  122.1250   -48.8390    48.4910     7.2330     7.9640     9.2000     2.1530 
  122.2500   -49.1960    48.8900     7.1350     7.8350     9.0970     2.2070 
  122.3750   -49.5490    49.0170     7.1050     7.7960     8.7760     2.2760 
  122.5000   -49.8590    48.8510     7.1260     7.7730     8.6440     2.3020 
  122.6250   -49.9280    48.3300     7.0960     7.6460     8.7480     2.2580 
  122.7500   -49.6390    48.8360     7.0190     7.4480     8.7290     2.1840 
  122.8750   -48.9880    50.9010     6.9620     7.3270     8.5810     2.1380 
  123.0000   -48.1900    51.5400     6.9240     7.2730     8.4750     2.1360 
  123.1250   -47.5660    50.6830     6.8750     7.3010     8.4140     2.1600 
  123.2500   -47.3430    51.1620     6.8610     7.3920     8.3370     2.1860 
  123.3750   -47.5590    54.1710     6.7980     7.3910     8.1950     2.2070 
  123.5000   -48.0070    55.4510     6.6520     7.2570     8.0420     2.2160 
  123.6250   -48.4270    53.4880     6.3650     6.9270     7.8270     2.2070 
  123.7500   -48.5360    50.5970     5.9390     6.4440     7.5400     2.1920 
  123.8750   -48.1500    49.1780     5.4650     5.9240     7.1670     2.2000 
  124.0000   -47.4120    48.9750     4.9510     5.3510     6.5350     2.2280 
  124.1250   -46.4950    49.1830     4.4660     4.8100     5.8350     2.2530 
  124.2500   -45.5840    50.3540     4.0350     4.3370     5.3960     2.2680 
  124.3750   -44.8500    53.1770     3.6750     3.9570     5.0200     2.2700 
  124.5000   -44.3310    56.6790     3.3970     3.6990     4.6960     2.2530 
  124.6250   -43.9930    59.6380     3.1980     3.5560     4.6410     2.2290 
  124.7500   -43.7840    63.0160     3.0490     3.4660     4.6220     2.2160 
  124.8750   -43.7290    66.7900     2.9620     3.4210     4.4260     2.2120 
  125.0000   -43.7810    67.4300     2.9440     3.4410     4.2170     2.2010 
  125.1250   -43.8890    63.8680     2.9950     3.5180     4.1490     2.1860 
  125.2500   -44.0620    59.6750     3.0520     3.5920     4.3520     2.2060 
  125.3750   -44.2970    58.4750     3.0740     3.6130     4.9410     2.2850 
  125.5000   -44.5340    59.4590     3.0260     3.5380     5.4780     2.3620 
  125.6250   -44.6700    60.9490     2.9040     3.3720     5.2320     2.3640 
  125.7500   -44.5500    63.1990     2.7640     3.1990     4.3230     2.3040 
  125.8750   -44.0500    65.3780     2.6300     3.0580     3.8540     2.2420 
  126.0000   -43.3480    64.8100     2.5710     3.0390     4.2100     2.2150 
  126.1250   -42.6790    63.2300     2.5820     3.1330     4.4640     2.2260 
  126.2500   -42.2360    63.5540     2.6230     3.2540     4.1940     2.2600 
  126.3750   -42.1820    65.2400     2.6190     3.2840     3.9660     2.2850 
  126.5000   -42.4300    64.2800     2.5290     3.1780     3.9020     2.2760 
  126.6250   -42.8390    62.0320     2.3700     2.9670     3.7920     2.2550 
  126.7500   -43.2500    62.3530     2.2190     2.7710     3.5400     2.2620 
  126.8750   -43.4950    65.0120     2.1300     2.6620     3.2550     2.2930 
  127.0000   -43.4760    68.7200     2.1260     2.6690     3.1860     2.2970 
  127.1250   -43.2330    72.0470     2.1990     2.7980     3.3130     2.2530 
