~V
VERS. 2.00: Ver 2.00
~W
STRT.M 50.0000:
STOP.M 249.0000:
STEP.M 0.1250:
NULL. -999.2500:
UWI. FZI307:
~C
DEPT.M :
SP.MV :
GR.API :
RI. :
RML.OHMM :
RXO.OHMM :
DEN.GM/CC :
~A
# ...
  204.5000   -49.6580    55.5340     6.4060     6.2560     6.0920     2.3140 
  204.6250   -50.1980    60.2560     7.0120     6.7480     6.5660     2.3150 
  204.7500   -50.2670    63.0270     7.3700     7.0100     7.2390     2.3530 
  204.8750   -49.9660    65.1690     7.5170     7.0800     7.7440     2.3920 
  205.0000   -49.5540    67.2370     7.3450     6.8490     7.4330     2.4010 
  205.1250   -49.2320    69.6320     6.9760     6.4690     6.9930     2.3830 
  205.2500   -49.2240    72.5880     6.5590     6.0900     6.9100     2.3580 
  205.3750   -49.6610    76.6710     6.1840     5.8210     6.8270     2.3420 
  205.5000   -50.3110    80.1680     6.0320     5.8440     6.8650     2.3320 
  205.6250   -50.9260    81.1530     6.3240     6.3660     7.0760     2.3210 
  205.7500   -51.4210    78.5710     7.3760     7.7960     8.9650     2.3060 
  205.8750   -51.6500    73.6130     9.2190    10.1520    14.0900     2.2850 
  206.0000   -51.6010    67.8640    11.8220    13.4260    20.1350     2.2660 
  206.1250   -51.5010    61.3670    15.0230    17.3660    23.8770     2.2620 
  206.2500   -51.5040    55.7620    17.5620    20.2790    26.2410     2.2740 
  206.3750   -51.5790    53.7760    19.4130    22.2580    27.9550     2.2910 
  206.5000   -51.7000    54.8070    20.3890    23.1280    26.2480     2.2930 
  206.6250   -51.8070    57.8130    21.0830    23.8200    23.6460     2.2750 
  206.7500   -51.8940    59.6580    22.6830    25.8970    27.8580     2.2470 
  206.8750   -52.0610    58.3290    24.9590    29.0180    38.1880     2.2310 
  207.0000   -52.3380    53.9450    27.6470    32.6120    44.1190     2.2510 
  207.1250   -52.6980    49.9690    29.3570    34.7850    42.8620     2.3200 
  207.2500   -53.0650    48.1550    29.8240    35.2880    39.7680     2.3920 
  207.3750   -53.4420    47.8500    29.4280    34.6580    36.7450     2.3960 
  207.5000   -53.8600    48.9290    29.0890    34.2770    33.7550     2.3290 
  207.6250   -54.1890    51.9170    30.0020    35.5590    36.9320     2.2520 
  207.7500   -54.2980    53.6110    32.5770    38.9260    48.4790     2.2120 
  207.8750   -54.0660    51.5950    37.0490    44.5270    56.8600     2.2070 
  208.0000   -53.5260    48.6480    42.5890    51.1480    56.5540     2.2060 
  208.1250   -52.9120    48.4980    48.4150    57.8920    55.3550     2.2050 
  208.2500   -52.5620    50.0090    53.2990    63.3320    63.8300     2.2130 
  208.3750   -52.7520    49.3890    56.7020    66.8580    77.8030     2.2240 
  208.5000   -53.2510    46.1220    57.3650    67.0150    82.4720     2.2310 
  208.6250   -53.6430    43.7450    54.4420    62.7760    77.3780     2.2270 
  208.7500   -53.8270    44.3300    48.5060    55.0660    66.1740     2.2190 
  208.8750   -53.8720    46.2360    41.8660    46.9630    50.9060     2.2180 
  209.0000   -53.7870    47.7180    36.8370    41.1670    40.5740     2.2200 
  209.1250   -53.5510    48.9510    35.2260    39.7980    37.4070     2.2220 
  209.2500   -53.1970    50.5490    37.0120    42.5530    40.2710     2.2200 
  209.3750   -52.7650    51.9080    41.1350    48.0540    54.9070     2.2190 
  209.5000   -52.4050    51.9980    46.5710    54.7350    74.7810     2.2210 
  209.6250   -52.2660    50.7280    50.1080    58.4830    81.8440     2.2180 
  209.7500   -52.2440    48.8770    50.5400    58.1850    73.7470     2.2060 
  209.8750   -52.1700    49.2550    48.7060    55.1330    59.8630     2.1900 
  210.0000   -51.9610    51.3320    46.4600    51.9190    47.6120     2.1870 
  210.1250   -51.7580    52.7860    46.5490    51.8990    43.6750     2.2140 
  210.2500   -51.7240    52.8450    49.5490    55.4290    51.9660     2.2650 
  210.3750   -51.7210    51.3030    54.3520    61.0280    67.7360     2.3010 
  210.5000   -51.6450    50.5210    58.8670    65.9370    79.6190     2.2900 
  210.6250   -51.6320    51.2400    60.2430    66.8420    77.8580     2.2480 
  210.7500   -51.5300    53.1110    56.2600    61.0770    65.8190     2.2270 
  210.8750   -50.9680    53.5430    46.4460    49.5100    68.8370     2.2540 
  211.0000   -49.9750    53.1150    35.7570    37.4230    82.3040     2.3070 
  211.1250   -48.7600    53.9490    26.1740    27.1400    64.9240     2.3470 
  211.2500   -47.7030    55.3760    20.4210    21.2660    30.8980     2.3450 
  211.3750   -47.1000    55.9620    17.2480    17.9510    17.3480     2.3010 
  211.5000   -46.9470    55.8690    15.7500    16.4610    16.5970     2.2600 
  211.6250   -47.1360    56.6040    15.4520    16.2460    16.2900     2.2570 
  211.7500   -47.4480    57.7260    16.0280    16.8470    16.4160     2.2820 
  211.8750   -47.6430    57.6190    16.9670    17.6940    18.0020     2.2910 
  212.0000   -47.5120    56.2460    17.9040    18.4930    20.0650     2.2650 
  212.1250   -47.0610    54.5870    18.8770    19.3480    21.3660     2.2380 
  212.2500   -46.5000    53.6060    19.7170    20.1610    23.3610     2.2530 
  212.3750   -45.9770    53.0340    20.5080    20.9980    25.2660     2.2960 
  212.5000   -45.5930    52.4760    21.1360    21.7080    25.5280     2.3140 
  212.6250   -45.4280    51.8600    21.4360    22.1130    24.7840     2.2910 
  212.7500   -45.4160    49.9800    21.2350    22.0050    23.8120     2.2500 
  212.8750   -45.5940    47.4220    20.4040    21.2770    22.6330     2.2150 
  213.0000   -45.8680    44.5520    19.2790    20.2490    22.0120     2.2000 
  213.1250   -46.1320    44.1710    18.1250    19.2150    21.7410     2.2090 
  213.2500   -46.4650    46.4020    17.5840    18.8530    20.2560     2.2390 
  213.3750   -46.8360    49.0210    17.8090    19.3330    19.0790     2.2610 
  213.5000   -47.1540    50.6750    18.7970    20.6610    21.2260     2.2600 
  213.6250   -47.4700    51.8840    20.3090    22.5340    27.3580     2.2360 
  213.7500   -47.8020    53.1190    21.8730    24.3720    31.6160     2.2090 
  213.8750   -47.9800    52.3680    23.0840    25.6670    30.2580     2.1900 
  214.0000   -47.8860    49.7140    23.5110    25.9900    28.0320     2.1810 
  214.1250   -47.4760    47.6650    23.3330    25.6280    27.2530     2.1810 
  214.2500   -46.8300    47.0790    23.0340    25.2110    26.9320     2.1910 
  214.3750   -46.2220    48.3890    23.0270    25.2220    26.5270     2.2050 
  214.5000   -45.9560    50.6830    23.3610    25.6450    26.9680     2.2060 
  214.6250   -46.0940    51.8580    23.5050    25.8410    29.0060     2.1910 
  214.7500   -46.4320    51.5250    23.0800    25.3710    30.1590     2.1780 
  214.8750   -46.7860    50.5890    21.9010    23.9860    28.4280     2.1900 
  215.0000   -46.9380    50.6820    20.1780    21.9730    24.7330     2.2150 
  215.1250   -46.7920    51.7760    18.4320    19.9660    21.2080     2.2290 
  215.2500   -46.4500    52.0070    17.2400    18.6750    18.9810     2.2280 
  215.3750   -45.9700    50.9540    16.9100    18.4340    18.3670     2.2220 
  215.5000   -45.5410    50.1290    17.3410    19.0580    20.0200     2.2170 
  215.6250   -45.3660    50.2530    18.1160    20.0070    23.1380     2.2090 
  215.7500   -45.4120    51.7480    18.9940    20.9890    24.7170     2.1960 
  215.8750   -45.5340    52.9450    19.6660    21.6660    23.7230     2.1840 
  216.0000   -45.6760    51.9440    20.0630    22.0160    22.5660     2.1800 
  216.1250   -45.8870    49.1510    20.3790    22.3320    23.2640     2.1880 
  216.2500   -46.0920    46.8400    20.8120    22.8300    24.4880     2.2060 
  216.3750   -46.2300    46.0080    21.4160    23.5220    25.0930     2.2210 
  216.5000   -46.3720    45.7880    22.1080    24.3230    26.4760     2.2200 
  216.6250   -46.6250    45.6670    22.7240    25.0290    27.6880     2.2050 
  216.7500   -47.0620    45.9250    23.3400    25.7750    26.8720     2.2010 
  216.8750   -47.5220    46.2390    24.0910    26.7220    25.1180     2.2240 
  217.0000   -47.7310    48.8550    24.9040    27.7190    26.0830     2.2580 
  217.1250   -47.4860    54.4020    25.7330    28.7200    29.5510     2.2750 
  217.2500   -46.8830    58.5460    26.8800    30.0700    30.7930     2.2700 
