~V
VERS. 2.00: Ver 2.00
~W
STRT.M 50.0000:
STOP.M 261.0000:
STEP.M 0.1250:
NULL. -999.2500:
UWI. FZI308:
~C
DEPT.M :
SP.MV :
GR.API :
RI. :
RML.OHMM :
RXO.OHMM :
DEN.GM/CC :
~A
# ...
  217.3750    -0.8060    51.8760    70.8830    75.6360    67.5150     2.2590 
  217.5000    -0.6760    51.4170    68.8740    73.5060    66.0420     2.2540 
  217.6250    -0.5280    54.2690    68.3660    72.9680    68.6820     2.2580 
  217.7500    -0.3690    55.8310    70.0400    74.7430    67.0890     2.2670 
  217.8750    -0.2020    53.9360    72.5540    77.4070    73.9900     2.2680 
  218.0000    -0.0270    51.1310    74.3790    79.3420    87.8190     2.2540 
  218.1250     0.1600    50.6020    73.7820    78.7090    89.5580     2.2350 
  218.2500     0.3640    52.1380    70.9810    75.7390    81.6750     2.2280 
  218.3750     0.5970    52.8000    65.7150    70.1580    74.4230     2.2370 
  218.5000     0.8640    51.2580    59.2830    63.3400    67.2510     2.2520 
  218.6250     1.1710    50.2170    51.7520    55.3570    54.5550     2.2630 
  218.7500     1.5120    51.7680    44.7790    47.9660    40.1020     2.2710 
  218.8750     1.8760    55.2210    38.8100    41.6390    31.9350     2.2700 
  219.0000     2.2470    57.1540    34.5220    37.0930    27.1380     2.2590 
  219.1250     2.6090    55.4670    32.3050    34.7440    26.0360     2.2470 
  219.2500     2.9520    52.8530    31.2750    33.6510    30.5620     2.2520 
  219.3750     3.2700    52.2780    30.3330    32.6530    34.0430     2.2760 
  219.5000     3.5650    53.0820    28.5780    30.7930    32.4970     2.2950 
  219.6250     3.8410    52.7100    25.8790    27.9320    28.6030     2.2990 
  219.7500     4.1020    50.2820    22.7040    24.5660    23.3990     2.2910 
  219.8750     4.3480    48.7770    20.1780    21.8890    18.1030     2.2740 
  220.0000     4.5760    51.1790    18.9690    20.6080    16.7450     2.2640 
  220.1250     4.7800    55.4050    19.2120    20.8650    18.2130     2.2980 
  220.2500     4.9580    57.1450    20.6570    22.3960    19.4230     2.3850 
  220.3750     5.1040    54.6640    22.4870    24.3360    25.2790     2.4610 
  220.5000     5.2210    50.9840    24.0670    26.0120    32.1110     2.4530 
  220.6250     5.3060    48.7310    24.6870    26.6680    29.1090     2.3720 
  220.7500     5.3630    47.3020    24.0740    26.0180    22.7370     2.3010 
  220.8750     5.3910    47.8670    22.5560    24.4100    20.9560     2.2840 
  221.0000     5.3980    49.5680    20.8330    22.5830    20.7470     2.2870 
  221.1250     5.3880    51.2500    19.8310    21.5210    20.9800     2.2930 
  221.2500     5.3690    51.1370    19.7720    21.4590    20.9090     2.3220 
  221.3750     5.3420    49.4900    20.5430    22.2750    18.4880     2.4000 
  221.5000     5.3080    47.9100    21.9750    23.7940    21.5220     2.4770 
  221.6250     5.2580    47.2780    24.0810    26.0260    32.4680     2.4640 
  221.7500     5.1910    47.7450    26.0940    28.1600    36.9030     2.3660 
  221.8750     5.1070    49.0870    27.3130    29.4510    34.1210     2.2700 
  222.0000     5.0140    49.9400    27.7150    29.8780    33.6590     2.2380 
  222.1250     4.9260    49.9910    27.3440    29.4850    32.9140     2.2400 
  222.2500     4.8550    50.8770    27.1300    29.2580    30.2180     2.2340 
  222.3750     4.8120    53.3100    27.5830    29.7380    30.9540     2.2210 
  222.5000     4.7960    54.0930    28.6380    30.8560    34.8910     2.2070 
  222.6250     4.8040    52.0100    30.4730    32.8010    39.5230     2.1980 
  222.7500     4.8240    51.1000    32.5350    34.9870    43.9950     2.1890 
  222.8750     4.8470    52.9590    34.2180    36.7710    47.1730     2.1830 
  223.0000     4.8660    54.4050    34.8910    37.4850    48.2230     2.1810 
  223.1250     4.8770    53.8580    34.5420    37.1140    45.7640     2.1860 
  223.2500     4.8800    51.6770    33.5680    36.0820    42.8970     2.1980 
  223.3750     4.8790    49.1620    32.4710    34.9200    41.4110     2.2120 
  223.5000     4.8760    48.2730    31.7060    34.1080    39.4570     2.2190 
  223.6250     4.8760    49.8160    31.3180    33.6970    37.9550     2.2160 
  223.7500     4.8810    51.9980    31.1440    33.5130    37.5270     2.2120 
  223.8750     4.8900    53.4190    31.0380    33.4000    37.3740     2.2130 
  224.0000     4.9030    55.1160    30.7790    33.1260    36.5130     2.2160 
  224.1250     4.9150    57.0670    29.8370    32.1270    33.5780     2.2200 
  224.2500     4.9250    58.3060    27.8630    30.0350    31.9820     2.2330 
  224.3750     4.9290    57.9040    24.4610    26.4280    32.8060     2.2650 
  224.5000     4.9260    57.8490    20.8170    22.5660    29.0080     2.3060 
  224.6250     4.9160    60.6640    18.0540    19.6370    19.9830     2.3330 
  224.7500     4.9010    64.8580    16.8620    18.3740    14.7990     2.3260 
  224.8750     4.8810    66.9090    18.1870    19.7790    22.3640     2.2840 
  225.0000     4.8570    64.9110    21.5250    23.3160    35.4460     2.2420 
  225.1250     4.8290    60.0980    26.2810    28.3580    39.6730     2.2240 
  225.2500     4.7940    55.2700    30.6270    32.9640    38.2440     2.2240 
  225.3750     4.7480    52.7480    33.0080    35.4890    38.5480     2.2270 
  225.5000     4.6900    52.4610    33.6200    36.1380    38.7320     2.2230 
  225.6250     4.6200    53.5740    32.9800    35.4590    38.9540     2.2140 
  225.7500     4.5440    54.5620    32.2600    34.6960    39.9750     2.2060 
  225.8750     4.4700    54.1330    31.6540    34.0530    38.1990     2.2040 
  226.0000     4.4050    53.2550    31.2150    33.5870    34.0580     2.2020 
  226.1250     4.3550    52.5800    30.8810    33.2340    30.9840     2.1920 
  226.2500     4.3220    52.4000    30.4400    32.7670    29.9700     2.1810 
  226.3750     4.3030    53.4140    29.8670    32.1590    29.2450     2.1740 
  226.5000     4.2980    56.3440    29.1360    31.3850    28.1290     2.1680 
  226.6250     4.3020    58.3020    28.2340    30.4280    27.2910     2.1690 
  226.7500     4.3120    57.3920    27.3080    29.4460    26.0710     2.1840 
  226.8750     4.3220    54.9990    26.3580    28.4390    24.6910     2.2080 
  227.0000     4.3270    52.9190    25.6450    27.6840    24.4500     2.2260 
  227.1250     4.3210    50.8760    25.3760    27.3980    24.9460     2.2300 
  227.2500     4.2980    50.0360    25.4320    27.4580    24.8830     2.2230 
  227.3750     4.2540    50.1860    25.6530    27.6930    25.5420     2.2060 
  227.5000     4.1910    49.6710    25.6810    27.7220    27.5340     2.1950 
  227.6250     4.1160    49.8860    25.3320    27.3520    26.6750     2.2290 
  227.7500     4.0430    53.3080    24.5520    26.5250    23.6070     2.3180 
  227.8750     3.9930    59.3670    23.4740    25.3820    25.0310     2.4110 
  228.0000     3.9820    65.4780    22.4420    24.2890    27.6760     2.4470 
  228.1250     4.0250    69.6100    21.8980    23.7110    25.2130     2.4210 
  228.2500     4.1270    70.9770    22.2980    24.1360    22.0710     2.3840 
  228.3750     4.2940    71.3560    23.6740    25.5940    22.6530     2.3680 
  228.5000     4.5180    71.2760    26.1990    28.2710    25.8130     2.3770 
  228.6250     4.8000    71.2660    29.8830    32.1760    31.3120     2.4150 
  228.7500     5.1280    71.6510    33.2620    35.7580    35.8820     2.4750 
  228.8750     5.4920    71.3920    33.5960    36.1120    37.2830     2.5480 
  229.0000     5.8740    67.2350    30.5280    32.8590    35.3500     2.6120 
  229.1250     6.2560    60.1020    24.0300    25.9720    28.6050     2.6390 
  229.2500     6.6190    55.0550    17.3740    18.9160    22.9640     2.6130 
  229.3750     6.9430    54.4080    12.1880    13.4200    17.6930     2.5250 
  229.5000     7.2170    54.7300     9.0640    10.1080     9.5440     2.4120 
  229.6250     7.4290    54.0530     7.5490     8.5020     7.0770     2.3370 
  229.7500     7.5820    52.9450     7.0530     7.9770    19.6270     2.3210 
  229.8750     7.6760    53.3380     7.2550     8.1910    34.8200     2.3340 
  230.0000     7.7220    54.9960     7.7370     8.7020    30.0670     2.3470 
  230.1250     7.7250    57.0780     8.2780     9.2750    16.3710     2.3680 
