~V
VERS. 2.00: Ver 2.00
~W
STRT.M 50.0000:
STOP.M 249.0000:
STEP.M 0.1250:
NULL. -999.2500:
UWI. FZI307:
~C
DEPT.M :
SP.MV :
GR.API :
RI. :
RML.OHMM :
RXO.OHMM :
DEN.GM/CC :
~A
# ...
  140.1250   -43.0140    51.3830     6.7810     7.2070     9.0250     2.5070 
  140.2500   -42.9740    51.6570     6.9430     7.4210     9.3660     2.5050 
  140.3750   -43.0710    51.6350     7.1720     7.6890     9.6940     2.4920 
  140.5000   -43.2320    51.4810     7.4330     8.0160    10.6370     2.4700 
  140.6250   -43.4200    51.6710     7.6840     8.3550    11.4390     2.4460 
  140.7500   -43.6160    52.0460     7.8350     8.5770    11.5170     2.4280 
  140.8750   -43.7880    51.0410     7.8340     8.6160    11.6830     2.4170 
  141.0000   -43.9590    51.5190     7.6230     8.3870    11.7020     2.4130 
  141.1250   -44.1760    54.2080     7.2440     7.9440    11.1720     2.4210 
  141.2500   -44.4390    57.2030     6.8630     7.5030    10.7100     2.4310 
  141.3750   -44.7180    56.7400     6.5340     7.1440    10.3910     2.4290 
  141.5000   -44.8840    53.1570     6.3790     7.0060    10.3110     2.4210 
  141.6250   -44.7340    51.4190     6.4130     7.1140    10.2340     2.4150 
  141.7500   -44.2390    53.3150     6.6110     7.4140     9.7530     2.4060 
  141.8750   -43.5580    56.9660     6.8890     7.7870    10.0700     2.3960 
  142.0000   -43.0220    59.7960     7.0670     8.0140    11.0200     2.4000 
  142.1250   -42.9180    60.1170     7.0660     8.0020    10.7870     2.4140 
  142.2500   -43.2350    57.2640     6.8370     7.7030    10.1090     2.4120 
  142.3750   -43.8020    52.6740     6.4130     7.1730     9.3660     2.3990 
  142.5000   -44.3690    51.3810     5.9830     6.6590     8.1920     2.4020 
  142.6250   -44.6850    53.5940     5.6590     6.3030     7.8580     2.4220 
  142.7500   -44.6430    54.8130     5.5430     6.2170     8.4650     2.4340 
  142.8750   -44.3260    53.2860     5.6620     6.4130     9.3680     2.4420 
  143.0000   -43.9330    51.1860     5.8700     6.7060     9.8880     2.4590 
  143.1250   -43.5770    49.9580     6.0870     6.9840     9.5240     2.4780 
  143.2500   -43.3290    48.7640     6.1780     7.0730     9.0440     2.4790 
  143.3750   -43.2190    47.5080     6.1380     6.9930     8.8490     2.4680 
  143.5000   -43.2010    47.0410     6.0250     6.8220     8.7890     2.4600 
  143.6250   -43.2850    47.0920     5.8770     6.6370     8.8100     2.4530 
  143.7500   -43.4330    47.3290     5.7980     6.5580     8.5590     2.4470 
  143.8750   -43.5870    48.2870     5.7960     6.5930     8.1620     2.4440 
  144.0000   -43.7640    50.4420     5.8330     6.6710     8.1420     2.4470 
  144.1250   -43.9990    51.2950     5.7790     6.6300     8.5770     2.4580 
  144.2500   -44.2720    51.4860     5.5940     6.4090     9.2000     2.4770 
  144.3750   -44.5660    51.7540     5.2820     6.0020     8.8830     2.4880 
  144.5000   -44.8670    52.2920     4.9570     5.5870     7.3390     2.4780 
  144.6250   -45.0630    52.4180     4.7910     5.3820     6.3800     2.4560 
  144.7500   -44.9580    52.9170     4.8530     5.4810     6.6190     2.4400 
  144.8750   -44.4310    54.0950     5.1080     5.8140     7.2580     2.4300 
  145.0000   -43.6600    54.8370     5.5370     6.3410     7.8520     2.4170 
  145.1250   -42.9170    54.3660     5.9790     6.8790     8.2060     2.3960 
  145.2500   -42.4610    53.9600     6.2740     7.1990     8.4940     2.3710 
  145.3750   -42.4530    54.6530     6.2860     7.1640     8.9130     2.3540 
  145.5000   -42.7740    55.6050     6.0610     6.8280     9.0700     2.3510 
  145.6250   -43.2130    56.1280     5.6840     6.3010     8.3540     2.3680 
  145.7500   -43.5190    57.0330     5.3240     5.8340     7.3140     2.3990 
  145.8750   -43.4780    58.9630     5.0940     5.5470     7.2200     2.4320 
  146.0000   -43.1300    59.7660     5.0430     5.4860     7.7290     2.4510 
  146.1250   -42.6400    58.0170     5.1720     5.6340     7.7590     2.4460 
  146.2500   -42.2070    56.0910     5.4150     5.9000     7.5450     2.4310 
  146.3750   -41.9420    55.7360     5.6990     6.2030     7.6660     2.4140 
  146.5000   -41.8530    55.5430     5.9110     6.4100     8.0540     2.4070 
  146.6250   -41.9040    53.9110     6.0040     6.4840     8.3650     2.4160 
  146.7500   -42.0200    52.8010     5.9910     6.4360     8.4330     2.4340 
  146.8750   -42.2150    54.1440     5.8700     6.2740     7.9960     2.4530 
  147.0000   -42.5180    55.4060     5.7410     6.1260     7.2660     2.4690 
  147.1250   -42.9390    54.2090     5.6330     6.0280     7.3690     2.4740 
  147.2500   -43.4620    51.9700     5.6000     6.0200     8.0170     2.4590 
  147.3750   -44.1090    50.3270     5.6410     6.0880     8.0880     2.4310 
  147.5000   -44.8790    49.0900     5.7270     6.1850     8.2480     2.4070 
  147.6250   -45.8110    48.8080     5.9160     6.3810     8.6800     2.3940 
  147.7500   -46.8750    50.4420     6.3290     6.8430     8.5420     2.3820 
  147.8750   -47.9370    51.0860     7.2160     7.8580     8.8330     2.3610 
  148.0000   -48.8380    49.4710     8.6940     9.5520    11.5280     2.3180 
  148.1250   -49.4710    47.2350    10.6410    11.7530    15.7980     2.2620 
  148.2500   -49.9400    46.2850    12.9320    14.2650    18.7540     2.2170 
  148.3750   -50.5000    46.5610    15.0330    16.4960    19.6360     2.1940 
  148.5000   -51.2910    45.9680    16.7840    18.2780    19.6920     2.1890 
  148.6250   -52.2450    45.0430    18.3610    19.8890    20.4280     2.2100 
  148.7500   -53.1900    45.4730    19.8610    21.4650    22.5070     2.2510 
  148.8750   -53.9360    47.4950    21.6090    23.3520    23.9160     2.2750 
  149.0000   -54.3330    48.0180    23.2920    25.1700    23.7250     2.2670 
  149.1250   -54.3330    45.4900    24.7860    26.7690    25.0270     2.2430 
  149.2500   -54.1200    43.7880    26.0920    28.1570    27.2520     2.2260 
  149.3750   -53.8720    44.9670    27.2540    29.3340    27.7080     2.2060 
  149.5000   -53.7090    46.3880    28.0940    30.1400    28.0730     2.1850 
  149.6250   -53.6860    46.1710    28.5550    30.5190    30.0190     2.1810 
  149.7500   -53.7670    45.8640    28.6160    30.4300    30.4710     2.1880 
  149.8750   -53.9140    46.8700    28.3920    30.0550    27.8150     2.1910 
  150.0000   -54.1320    48.2560    27.9480    29.4720    25.8670     2.1950 
  150.1250   -54.4130    47.2890    27.6330    29.0770    25.4780     2.2050 
  150.2500   -54.6960    45.9380    27.7260    29.1600    23.6610     2.2170 
  150.3750   -55.0000    47.5270    28.6380    30.1490    21.5580     2.2230 
  150.5000   -55.3860    51.2820    30.2740    31.9090    23.0440     2.2210 
  150.6250   -55.8500    52.1290    32.3840    34.1850    26.2200     2.2150 
  150.7500   -56.3470    48.4510    34.3280    36.2370    27.9120     2.2130 
  150.8750   -56.8050    45.4660    35.7200    37.6440    28.3820     2.2150 
  151.0000   -57.0560    47.1270    36.0890    37.8920    27.3900     2.2050 
  151.1250   -56.8990    51.5840    35.5670    37.2380    25.5870     2.1880 
  151.2500   -56.3970    53.4000    34.8780    36.4870    24.7060     2.1820 
  151.3750   -55.7690    51.3010    34.3920    36.0290    24.5240     2.1920 
  151.5000   -55.3420    48.5070    34.3380    36.0720    24.4030     2.2050 
  151.6250   -55.3400    48.4780    34.6230    36.4740    24.5570     2.2140 
  151.7500   -55.6970    50.4670    35.1380    37.0980    24.8960     2.2180 
  151.8750   -56.2600    51.6350    35.6720    37.7130    25.3940     2.2160 
  152.0000   -56.7900    50.2690    36.1980    38.3060    26.3030     2.2160 
  152.1250   -57.0660    48.6810    36.5470    38.7110    27.2020     2.2160 
  152.2500   -57.0100    49.0820    36.7450    38.9780    27.2450     2.2160 
  152.3750   -56.7110    51.3860    36.8630    39.1720    26.6530     2.2160 
  152.5000   -56.3820    53.6150    36.8970    39.2890    25.9450     2.2180 
  152.6250   -56.1640    54.1020    36.8700    39.3470    25.2580     2.2210 
  152.7500   -56.1280    53.1400    36.8320    39.4010    25.1950     2.2250 
  152.8750   -56.2520    51.5890    36.8570    39.5210    25.3250     2.2280 
