~V
VERS. 2.00: Ver 2.00
~W
STRT.M 50.0000:
STOP.M 249.0000:
STEP.M 0.1250:
NULL. -999.2500:
UWI. FZI307:
~C
DEPT.M :
SP.MV :
GR.API :
RI. :
RML.OHMM :
RXO.OHMM :
DEN.GM/CC :
~A
# ...
  178.7500   -41.9050    35.8280     2.7700     4.5460     3.6660     2.3040 
  178.8750   -41.8160    32.9830     2.8010     4.5770     3.7580     2.3030 
  179.0000   -41.7440    32.1670     2.8410     4.6180     3.8410     2.3120 
  179.1250   -41.6390    33.4600     2.8970     4.6660     3.8960     2.3250 
  179.2500   -41.5670    34.8550     2.9670     4.7430     3.9480     2.3370 
  179.3750   -41.4790    34.9660     3.0610     4.8590     4.0850     2.3470 
  179.5000   -41.2630    34.0970     3.1670     5.0210     4.2710     2.3520 
  179.6250   -40.8100    34.0220     3.2740     5.1910     4.4490     2.3460 
  179.7500   -40.1740    35.2530     3.3350     5.2860     4.5520     2.3330 
  179.8750   -39.6110    36.6240     3.3320     5.2600     4.4820     2.3310 
  180.0000   -39.2900    36.5400     3.2620     5.1120     4.3550     2.3440 
  180.1250   -39.2180    34.6720     3.1400     4.8750     4.2700     2.3610 
  180.2500   -39.3030    33.7510     3.0100     4.6290     4.1970     2.3710 
  180.3750   -39.4430    35.3620     2.8990     4.4200     4.0400     2.3690 
  180.5000   -39.4830    37.5620     2.8310     4.2960     3.8530     2.3590 
  180.6250   -39.2080    38.5770     2.8410     4.3110     3.8290     2.3480 
  180.7500   -38.6310    40.7360     2.9070     4.4080     3.9270     2.3430 
  180.8750   -38.0350    45.2510     2.9990     4.5320     4.0470     2.3450 
  181.0000   -37.6920    50.1550     3.0680     4.5990     4.2880     2.3500 
  181.1250   -37.6350    53.2460     3.0770     4.5620     4.6470     2.3540 
  181.2500   -37.7260    55.4430     3.0370     4.4440     4.6540     2.3570 
  181.3750   -37.8640    57.0880     2.9680     4.2930     4.2150     2.3640 
  181.5000   -38.0810    57.8620     2.9030     4.1720     4.0200     2.3680 
  181.6250   -38.2890    59.2440     2.8680     4.1010     4.1920     2.3640 
  181.7500   -38.3920    61.0500     2.8620     4.0890     4.2620     2.3560 
  181.8750   -38.4600    61.5270     2.8660     4.0950     4.1900     2.3510 
  182.0000   -38.5680    60.1550     2.8570     4.0650     4.0940     2.3490 
  182.1250   -38.6830    59.6940     2.8240     4.0040     3.9230     2.3470 
  182.2500   -38.8760    61.8040     2.7910     3.9290     3.8170     2.3410 
  182.3750   -39.2330    63.1330     2.7730     3.8600     3.8280     2.3290 
  182.5000   -39.5220    61.7700     2.7770     3.8230     3.8420     2.3190 
  182.6250   -39.4330    59.2920     2.8520     3.8630     3.8750     2.3070 
  182.7500   -39.0290    59.8600     2.9910     4.0030     3.9190     2.2900 
  182.8750   -38.5320    62.7120     3.2590     4.3310     4.0840     2.2730 
  183.0000   -38.1890    63.8920     3.6750     4.8650     4.7130     2.2710 
  183.1250   -38.3040    61.4520     4.1500     5.4840     5.7200     2.2860 
  183.2500   -38.8710    58.7440     4.5940     6.0380     6.6930     2.3110 
  183.3750   -39.6870    58.5760     4.8390     6.3210     7.1930     2.3360 
  183.5000   -40.4950    60.6020     4.9160     6.3840     6.7750     2.3560 
  183.6250   -41.0550    62.7520     4.8120     6.2160     5.9710     2.3620 
  183.7500   -41.2900    63.0570     4.6610     6.0220     5.7130     2.3590 
  183.8750   -41.2400    60.7580     4.5260     5.8230     6.1760     2.3510 
  184.0000   -41.1270    58.9870     4.5200     5.7760     6.6350     2.3360 
  184.1250   -41.1800    58.9710     4.8120     6.0860     6.7660     2.3160 
  184.2500   -41.4590    59.1100     5.4630     6.8550     7.2610     2.3040 
  184.3750   -41.9670    57.6540     6.9520     8.7490     9.6930     2.3070 
  184.5000   -42.6980    56.4440     9.6650    12.1660    14.6750     2.3080 
  184.6250   -43.6500    55.1400    14.4000    18.0310    22.9020     2.2910 
  184.7500   -44.7540    51.5300    21.0600    26.1880    32.5650     2.2540 
  184.8750   -45.9990    47.9930    28.6020    35.0140    36.6670     2.2100 
  185.0000   -47.3370    47.0730    35.9860    43.2330    35.1030     2.1780 
  185.1250   -48.6930    46.4070    40.4240    47.6060    33.7890     2.1710 
  185.2500   -49.9990    45.3960    43.2800    50.0810    33.7760     2.1790 
  185.3750   -51.1740    46.3780    44.6190    51.1970    34.3610     2.1840 
  185.5000   -52.1660    47.1730    45.8550    52.5430    34.9570     2.1840 
  185.6250   -52.9160    46.3900    47.5330    54.5920    36.6920     2.1810 
  185.7500   -53.3830    45.6900    49.0170    56.3790    38.8390     2.1830 
  185.8750   -53.4660    46.9070    50.1420    57.5950    37.2760     2.1940 
  186.0000   -53.1940    47.3770    50.6840    57.9930    34.9020     2.2040 
  186.1250   -52.7170    46.3820    50.5850    57.4540    34.8430     2.1990 
  186.2500   -52.3750    45.2170    49.8780    56.1160    34.3580     2.1810 
  186.3750   -52.3630    44.3230    48.6830    54.2260    32.7400     2.1670 
  186.5000   -52.5700    43.7180    47.4510    52.3710    31.9870     2.1640 
  186.6250   -52.8330    44.2140    46.2400    50.6230    32.2530     2.1670 
  186.7500   -52.9560    45.1610    45.0730    49.0090    32.4640     2.1720 
  186.8750   -52.7170    46.0180    43.9390    47.4750    32.3670     2.1760 
  187.0000   -52.1620    46.7300    42.7190    45.8880    32.0030     2.1800 
  187.1250   -51.5340    46.6890    41.8010    44.6490    32.1210     2.1800 
  187.2500   -51.0280    47.2110    41.1510    43.6940    31.6380     2.1700 
  187.3750   -50.7280    49.9360    40.7830    43.0950    35.8820     2.1500 
  187.5000   -50.6000    52.9370    41.0600    43.2620    46.1530     2.1420 
  187.6250   -50.6060    53.2710    42.4070    44.6490    45.2960     2.1570 
  187.7500   -50.7410    50.5110    44.4990    46.7240    34.2880     2.1740 
  187.8750   -51.0260    48.6180    46.6920    48.8960    29.4300     2.1980 
  188.0000   -51.3780    48.1850    49.0320    51.2100    29.2940     2.2480 
  188.1250   -51.8290    48.9130    50.7620    52.7570    30.2240     2.2850 
  188.2500   -52.4510    49.3350    52.0580    53.8910    33.0120     2.2550 
  188.3750   -53.1460    49.2930    52.7400    54.2960    35.3980     2.1710 
  188.5000   -53.7110    48.2750    51.9720    53.1400    36.6540     2.1280 
  188.6250   -54.0200    47.5110    50.3410    51.1730    36.7210     2.1710 
  188.7500   -54.1370    48.4180    48.3520    48.8070    34.2160     2.2350 
  188.8750   -53.9910    50.4140    45.7130    45.7710    29.9240     2.2490 
  189.0000   -53.4550    52.3470    43.2130    43.0120    26.8740     2.2160 
  189.1250   -52.6450    53.0760    41.3750    41.0780    26.2120     2.1810 
  189.2500   -51.8890    53.5890    40.4820    40.2020    26.7740     2.1620 
  189.3750   -51.5660    53.1220    40.7980    40.6000    32.6730     2.1470 
  189.5000   -51.8490    51.3830    41.9710    41.8420    41.0930     2.1370 
  189.6250   -52.5210    49.7970    43.8110    43.7130    40.5830     2.1420 
  189.7500   -53.0950    49.7320    46.1660    46.1280    36.1130     2.1500 
  189.8750   -53.5390    50.2860    49.0980    49.2080    34.2780     2.1510 
  190.0000   -53.8720    50.0490    52.3230    52.6570    32.6870     2.1500 
  190.1250   -53.8860    48.4620    55.1950    55.8450    32.6460     2.1600 
  190.2500   -53.7120    47.0200    57.4440    58.4430    33.6630     2.1870 
  190.3750   -53.5770    46.5390    58.5910    59.8930    33.2170     2.2110 
  190.5000   -53.5590    46.2710    58.8000    60.3630    32.3120     2.2120 
  190.6250   -53.7050    46.0840    58.4040    60.2050    32.7550     2.1900 
  190.7500   -53.9840    46.3670    58.0530    60.0930    33.5940     2.1720 
  190.8750   -54.2240    47.7640    58.0740    60.3350    33.1740     2.1680 
  191.0000   -54.2620    48.8120    58.4890    60.8740    32.9230     2.1660 
  191.1250   -54.2380    47.4440    58.7380    61.0410    34.2670     2.1620 
  191.2500   -54.2550    44.2640    58.3610    60.4690    35.2420     2.1670 
  191.3750   -54.2900    41.0860    57.2510    59.0650    35.0390     2.1780 
  191.5000   -54.3970    39.8150    55.3900    56.8610    34.5620     2.1830 
