~V
VERS. 2.00: Ver 2.00
~W
STRT.M 50.0000:
STOP.M 261.0000:
STEP.M 0.1250:
NULL. -999.2500:
UWI. FZI308:
~C
DEPT.M :
SP.MV :
GR.API :
RI. :
RML.OHMM :
RXO.OHMM :
DEN.GM/CC :
~A
# ...
  165.8750   -21.3590    49.1620    88.2210    94.0150    53.4370     2.2030 
  166.0000   -21.6730    50.9550    95.7910   102.0390    57.1670     2.2050 
  166.1250   -21.9830    52.8750    99.8870   106.3800    58.3520     2.2090 
  166.2500   -22.2870    55.7410    99.1800   105.6310    58.4330     2.2130 
  166.3750   -22.5840    55.9350    94.5500   100.7230    56.4400     2.2130 
  166.5000   -22.8770    53.6960    88.0560    93.8390    50.2820     2.2040 
  166.6250   -23.1600    52.0430    81.5510    86.9440    44.8800     2.1900 
  166.7500   -23.4300    50.7050    76.7540    81.8590    43.6340     2.1850 
  166.8750   -23.6700    49.5580    73.2080    78.1000    43.3630     2.1880 
  167.0000   -23.8660    50.0600    70.5620    75.2960    43.0040     2.1900 
  167.1250   -23.9920    52.5730    68.3480    72.9490    43.0140     2.1920 
  167.2500   -24.0420    54.0120    66.2830    70.7600    43.0470     2.2000 
  167.3750   -24.0120    52.8430    64.9590    69.3560    43.0670     2.2110 
  167.5000   -23.9240    51.6080    64.9540    69.3510    42.9010     2.2200 
  167.6250   -23.8030    52.5280    66.8870    71.4000    43.3540     2.2170 
  167.7500   -23.6830    55.1160    70.4770    75.2060    45.2460     2.2040 
  167.8750   -23.5910    56.1750    75.4800    80.5090    47.7330     2.1870 
  168.0000   -23.5480    54.8900    80.2840    85.6010    49.4790     2.1810 
  168.1250   -23.5730    54.2570    83.1470    88.6360    50.6800     2.1850 
  168.2500   -23.6760    56.1020    82.8840    88.3570    50.5990     2.1890 
  168.3750   -23.8650    56.1300    79.0010    84.2410    48.9170     2.1880 
  168.5000   -24.1200    53.8550    73.4520    78.3590    47.6970     2.1880 
  168.6250   -24.4080    53.4660    67.7460    72.3100    46.4470     2.1970 
  168.7500   -24.6710    56.1410    63.6980    68.0200    43.3000     2.2070 
  168.8750   -24.8450    58.8770    62.3310    66.5700    40.2510     2.2110 
  169.0000   -24.8940    58.3630    63.6290    67.9470    40.1460     2.2080 
  169.1250   -24.8030    55.6730    66.8550    71.3660    42.6480     2.2020 
  169.2500   -24.6080    52.8610    71.4880    76.2770    47.4890     2.1910 
  169.3750   -24.3550    50.7040    76.2100    81.2830    51.4080     2.1760 
  169.5000   -24.0980    49.9780    77.9070    83.0810    48.6850     2.1580 
  169.6250   -23.8710    50.4990    75.5000    80.5300    44.0760     2.1440 
  169.7500   -23.6790    51.3380    67.6530    72.2120    46.8210     2.1530 
  169.8750   -23.5150    49.6810    57.5420    61.4940    46.9760     2.1930 
  170.0000   -23.3630    46.6550    48.8730    52.3060    33.9460     2.2350 
  170.1250   -23.2160    46.2130    43.7840    46.9110    21.9110     2.2470 
  170.2500   -23.0790    47.8380    43.6830    46.8040    21.6340     2.2320 
  170.3750   -22.9730    48.2570    48.5240    51.9350    28.5600     2.2110 
  170.5000   -22.9120    47.9850    59.3410    63.4010    38.4430     2.1960 
  170.6250   -22.9060    48.9930    73.9930    78.9330    48.9290     2.1840 
  170.7500   -22.9380    49.6380    89.1450    94.9940    56.9560     2.1780 
  170.8750   -22.9720    48.2100   100.3690   106.8910    60.6320     2.1860 
  171.0000   -22.9630    45.8710   106.2110   113.0840    61.7980     2.2130 
  171.1250   -22.8590    44.0260   108.1390   115.1270    62.9500     2.2460 
  171.2500   -22.6320    43.0440   109.9420   117.0390    62.5630     2.2700 
  171.3750   -22.2560    43.3710   113.8230   121.1520    66.4110     2.2990 
  171.5000   -21.7480    45.0760   118.9320   126.5680    91.0620     2.3530 
  171.6250   -21.1190    46.4800   120.9530   128.7100   131.7740     2.4280 
  171.7500   -20.4150    45.6740   114.7970   122.1850   156.6220     2.4940 
  171.8750   -19.6730    42.5250    99.8470   106.3380   155.1620     2.5220 
  172.0000   -18.9330    40.2150    80.6550    85.9950   126.9770     2.4990 
  172.1250   -18.2320    41.3740    62.4440    66.6900    76.8400     2.4250 
  172.2500   -17.5880    44.2210    50.6760    54.2170    42.7370     2.3490 
  172.3750   -17.0180    46.7830    45.6760    48.9160    36.2380     2.3330 
  172.5000   -16.5170    48.9970    45.0790    48.2830    40.2510     2.3750 
  172.6250   -16.0850    49.9600    47.3680    50.7100    51.2060     2.4040 
  172.7500   -15.7050    49.0500    50.5990    54.1350    56.0280     2.3660 
  172.8750   -15.3680    49.5330    52.7110    56.3730    46.0270     2.2830 
  173.0000   -15.0520    52.8490    53.4210    57.1270    38.5480     2.2170 
  173.1250   -14.7360    53.7330    53.0370    56.7190    39.6180     2.1930 
  173.2500   -14.3960    50.3910    52.8340    56.5040    39.1650     2.1960 
  173.3750   -14.0040    46.5560    51.6150    55.2110    51.6920     2.2500 
  173.5000   -13.5420    44.6670    47.6550    51.0140    77.2900     2.3640 
  173.6250   -12.9910    44.1470    40.8830    43.8360    72.3790     2.4890 
  173.7500   -12.3520    46.4840    32.4940    34.9440    38.4750     2.5550 
  173.8750   -11.6190    52.7920    24.0610    26.0050    20.1480     2.5520 
  174.0000   -10.8050    57.7060    17.3550    18.8960    16.4050     2.5310 
  174.1250    -9.9110    57.6510    11.2400    12.4150    17.3240     2.5200 
  174.2500    -8.9530    54.4690     6.8870     7.8000    15.6890     2.5020 
  174.3750    -7.9490    49.8210     4.5600     5.3340     8.3010     2.4630 
  174.5000    -6.9390    45.1810     3.3300     4.0300     3.2840     2.4260 
  174.6250    -5.9780    43.8690     2.6710     3.3310     3.0020     2.4170 
  174.7500    -5.1180    45.4890     2.4360     3.0830     3.0790     2.4320 
  174.8750    -4.4190    46.7520     2.4730     3.1210     3.1990     2.4510 
  175.0000    -3.8880    46.0470     2.5810     3.2360     3.2780     2.4820 
  175.1250    -3.5260    44.1120     2.6510     3.3100     3.0950     2.5150 
  175.2500    -3.2840    41.4170     2.6730     3.3340     2.8830     2.5120 
  175.3750    -3.1220    39.6680     2.6620     3.3220     2.8730     2.4530 
  175.5000    -2.9970    39.1440     2.6220     3.2800     2.9380     2.3850 
  175.6250    -2.8830    38.2190     2.5480     3.2010     2.9590     2.3540 
  175.7500    -2.7700    37.0120     2.4490     3.0960     2.9160     2.3380 
  175.8750    -2.6530    37.0270     2.3390     2.9790     2.8340     2.3080 
  176.0000    -2.5370    36.9850     2.2420     2.8770     2.7480     2.2770 
  176.1250    -2.4290    36.1790     2.2350     2.8690     2.7690     2.2640 
  176.2500    -2.3430    35.5470     2.3260     2.9650     2.9890     2.2670 
  176.3750    -2.2960    36.3100     2.4810     3.1300     3.2030     2.2800 
  176.5000    -2.3000    37.1470     2.6520     3.3110     3.2340     2.2970 
  176.6250    -2.3670    37.7700     2.7700     3.4360     3.2650     2.3160 
  176.7500    -2.4940    39.3050     2.8210     3.4900     3.3800     2.3370 
  176.8750    -2.6750    41.2510     2.8340     3.5050     3.4350     2.3470 
  177.0000    -2.8940    41.5170     2.8520     3.5230     3.4130     2.3440 
  177.1250    -3.1450    40.6460     2.8860     3.5590     3.4330     2.3430 
  177.2500    -3.4240    42.7740     2.9570     3.6350     3.6050     2.3630 
  177.3750    -3.7420    48.7990     3.0700     3.7540     3.8630     2.3940 
  177.5000    -4.1100    56.0130     3.1840     3.8750     4.0160     2.4140 
  177.6250    -4.5530    62.5130     3.2830     3.9800     4.1230     2.4150 
  177.7500    -5.0750    68.4090     3.3470     4.0480     4.2300     2.4010 
  177.8750    -5.6880    73.9750     3.3960     4.1000     4.2930     2.3740 
  178.0000    -6.3770    79.2310     3.4550     4.1620     4.4760     2.3460 
  178.1250    -7.1330    83.7320     3.5580     4.2710     4.6130     2.3310 
  178.2500    -7.9350    84.4220     3.6940     4.4160     4.7490     2.3320 
  178.3750    -8.7640    82.1490     3.8320     4.5620     5.2640     2.3370 
  178.5000    -9.5960    80.3180     3.9220     4.6580     5.7080     2.3380 
  178.6250   -10.3950    79.6940     3.9680     4.7060     5.7810     2.3340 
