~V
VERS. 2.00: Ver 2.00
~W
STRT.M 50.0000:
STOP.M 249.0000:
STEP.M 0.1250:
NULL. -999.2500:
UWI. FZI307:
~C
DEPT.M :
SP.MV :
GR.API :
RI. :
RML.OHMM :
RXO.OHMM :
DEN.GM/CC :
~A
   50.0000     0.9970    37.1630     0.1240     0.3210     2.6730     2.3180 
   50.1250     0.6390    37.7880     0.1240     0.3210     2.5880     2.3160 
   50.2500     0.5780    36.9280     0.1240     0.3160     2.3960     2.3180 
   50.3750     0.9590    36.1510     0.1240     0.3030     1.8530     2.3270 
   50.5000     1.6600    37.5840     0.1250     0.2900     1.3040     2.3400 
   50.6250     2.3870    38.8080     0.1260     0.2830     1.3360     2.3570 
   50.7500     2.8220    38.1760     0.1310     0.2890     1.4330     2.3690 
   50.8750     2.8670    37.5170     0.1440     0.3080     1.1170     2.3720 
   51.0000     2.7930    38.4120     0.1520     0.3210     0.8630     2.3720 
   51.1250     2.7700    38.8460     0.1530     0.3290     0.9290     2.3690 
   51.2500     2.7680    37.7750     0.1450     0.3240     1.1530     2.3600 
   51.3750     2.7680    36.6350     0.1470     0.3190     1.5830     2.3470 
   51.5000     2.7690    36.2560     0.1580     0.3240     2.0990     2.3250 
   51.6250     2.8080    37.1590     0.1690     0.3240     2.4490     2.2960 
   51.7500     3.1170    38.3330     0.1690     0.3160     2.5880     2.2800 
   51.8750     4.2520    37.1400     0.1620     0.3030     2.2800     2.2980 
   52.0000     6.1040    35.3310     0.1590     0.2890     1.6350     2.3290 
   52.1250     7.7110    35.0350     0.1570     0.2770     1.2050     2.3290 
   52.2500     8.6450    36.1160     0.1650     0.2680     1.1000     2.2980 
   52.3750     9.4200    37.8120     0.1660     0.2630     1.1240     2.2810 
   52.5000    10.2650    39.6650     0.1670     0.2580     1.1680     2.3000 
   52.6250    11.0860    40.3780     0.1580     0.2530     1.2120     2.3240 
   52.7500    11.7610    38.8170     0.1480     0.2510     1.2510     2.3310 
   52.8750    12.1770    36.7570     0.1370     0.2490     1.4150     2.3210 
   53.0000    12.5900    35.5630     0.1310     0.2510     1.6960     2.3190 
   53.1250    13.0820    34.8160     0.1310     0.2470     1.7530     2.3200 
   53.2500    13.4980    33.8310     0.1260     0.2270     1.5660     2.3180 
   53.3750    13.8360    33.0410     0.1220     0.1950     1.5180     2.3140 
   53.5000    14.2080    32.9240     0.1230     0.1620     1.7410     2.3110 
   53.6250    14.6660    34.1080     0.1270     0.1390     1.9950     2.3260 
   53.7500    15.1500    36.1390     0.1510     0.1360     2.0950     2.3570 
   53.8750    15.5100    37.6800     0.1650     0.1450     2.4200     2.3920 
   54.0000    15.7620    37.0160     0.1790     0.1530     3.1180     2.4130 
   54.1250    16.0300    34.2930     0.1850     0.1580     3.5300     2.4240 
   54.2500    16.4520    32.2830     0.1850     0.1660     3.4470     2.4300 
   54.3750    16.9750    32.5620     0.1850     0.1840     3.1030     2.4310 
   54.5000    17.4170    33.3050     0.1850     0.2130     2.7300     2.4310 
   54.6250    17.6320    33.4150     0.1850     0.2430     2.6300     2.4310 
   54.7500    17.6020    34.0740     0.1810     0.2640     2.6020     2.4300 
   54.8750    17.4250    34.8190     0.1690     0.2750     2.4730     2.4250 
   55.0000    17.3180    34.3310     0.1570     0.2850     2.4640     2.4190 
   55.1250    17.3670    32.8120     0.1420     0.2920     2.9440     2.4150 
   55.2500    17.5450    32.7440     0.1280     0.2690     3.8410     2.4070 
   55.3750    17.8060    34.5190     0.1070     0.2170     4.4560     2.3830 
   55.5000    18.1290    37.0410     0.0800     0.1460     5.3430     2.3520 
   55.6250    18.1200    38.7080     0.0590     0.0840     6.6210     2.3260 
   55.7500    17.4570    39.4990     0.0580     0.0560     8.9970     2.3280 
   55.8750    15.5710    40.2920     0.1070     0.0850    10.8460     2.3400 
   56.0000    11.5990    41.1960     0.2490     0.1960     8.6940     2.3160 
   56.1250     5.8510    40.6840     0.5640     0.4700     6.3480     2.2720 
   56.2500    -0.6380    39.7510     1.2400     1.1870     5.9480     2.2760 
   56.3750    -7.5150    40.5220     2.4850     3.0840     5.6560     2.3040 
   56.5000   -13.8010    42.7880     3.7730     4.6790     5.8700     2.2720 
   56.6250   -18.4220    45.2680     4.7560     5.6190     6.4470     2.1910 
   56.7500   -21.4470    47.7770     5.3070     5.7540     8.6970     2.1470 
   56.8750   -23.5790    49.2260     5.3810     4.9700    11.1050     2.1550 
   57.0000   -25.7170    49.5520     5.5540     4.8430    10.0190     2.1690 
   57.1250   -28.1920    50.2070     5.7350     4.9790     8.2530     2.1640 
   57.2500   -30.7210    52.8810     5.8250     5.1040     7.8530     2.1400 
   57.3750   -32.9230    55.6490     5.8390     5.1760     7.6580     2.1130 
   57.5000   -34.7470    55.0760     5.8200     5.1650     7.6920     2.1000 
   57.6250   -36.2190    50.9270     5.8310     5.1940     7.9800     2.1010 
   57.7500   -37.3710    46.8840     5.8270     5.2090     8.4080     2.0960 
   57.8750   -38.1860    45.9750     5.8160     5.2460     8.5500     2.0840 
   58.0000   -38.7780    46.3790     5.9030     5.4130     8.4790     2.0780 
   58.1250   -39.2550    47.3400     6.2840     5.9090     8.5680     2.0960 
   58.2500   -39.6480    48.8240     6.9260     6.6580     9.9110     2.1400 
   58.3750   -39.8650    51.1440     7.4770     7.3880    16.7710     2.1920 
   58.5000   -39.8800    53.3980     7.7310     7.8060    26.5030     2.2190 
   58.6250   -39.7250    54.8460     7.4070     7.6270    24.7540     2.2000 
   58.7500   -39.5100    55.4880     6.7190     7.0090    13.3010     2.1630 
   58.8750   -39.3780    55.2010     5.9710     6.2570     7.5000     2.1410 
   59.0000   -39.4420    54.8340     5.4000     5.7040     7.1340     2.1440 
   59.1250   -39.7100    55.0950     5.2180     5.4970     7.0790     2.1650 
   59.2500   -40.1320    55.7950     5.3350     5.5510     7.1300     2.1840 
   59.3750   -40.7820    57.5530     5.6030     5.6900     6.9530     2.1750 
   59.5000   -41.6740    58.8430     5.8550     5.8750     7.4090     2.1490 
   59.6250   -42.7220    58.0360     6.0840     6.2360     8.6160     2.1380 
   59.7500   -43.7750    55.2460     6.3030     6.6650     9.4550     2.1480 
   59.8750   -44.6360    53.0340     6.4660     7.0090     9.7800     2.1560 
   60.0000   -45.1180    52.8880     6.5500     7.1830     9.8060     2.1500 
   60.1250   -45.3110    52.2830     6.4940     7.1690     9.5820     2.1510 
   60.2500   -45.6290    50.3800     6.3600     7.1970     9.4520     2.1700 
   60.3750   -46.2690    49.6450     6.2110     7.3150     9.5240     2.1800 
   60.5000   -47.0820    50.1850     6.1170     7.4880     9.6250     2.1810 
   60.6250   -47.8480    49.3190     6.0710     7.6710     9.5600     2.2080 
   60.7500   -48.3260    46.7020     6.0560     7.7660     9.5040     2.2530 
   60.8750   -48.3080    46.1690     6.0580     7.8450    10.4270     2.2510 
   61.0000   -47.8990    48.4580     6.0510     7.9160    11.4170     2.1980 
   61.1250   -47.3130    50.9850     6.0300     7.9420    10.6250     2.1450 
   61.2500   -46.7030    52.5690     5.9990     7.9610     9.5260     2.1250 
   61.3750   -46.1440    55.0570     6.0000     8.0580     9.3680     2.1230 
   61.5000   -45.6740    58.4980     6.0280     8.1940     9.3050     2.1330 
   61.6250   -45.2270    59.5380     5.9920     8.2280     9.1040     2.1700 
   61.7500   -44.6770    56.6200     5.8320     8.0740     8.9500     2.2250 
   61.8750   -43.8630    52.7540     5.4900     7.5940     8.7630     2.2660 
   62.0000   -42.6560    52.2340     5.0640     7.0040     7.7330     2.2760 
   62.1250   -41.0030    56.9420     4.6400     6.4870     6.1130     2.2640 
   62.2500   -39.2030    63.5290     4.3440     6.2090     5.4110     2.2450 
   62.3750   -37.7160    68.2360     4.2020     6.1850     5.4460     2.2190 
   62.5000   -36.8310    68.8050     4.1510     6.2050     5.6940     2.2000 
   62.6250   -36.6000    66.6130     4.1620     6.1580     5.7920     2.2010 
   62.7500   -36.6310    65.4170     4.1930     6.0270     5.3660     2.2040 
