~V
VERS. 2.00: Ver 2.00
~W
STRT.M 50.0000:
STOP.M 249.0000:
STEP.M 0.1250:
NULL. -999.2500:
UWI. FZI307:
~C
DEPT.M :
SP.MV :
GR.API :
RI. :
RML.OHMM :
RXO.OHMM :
DEN.GM/CC :
~A
# ...
  153.0000   -56.4450    50.6870    36.9060    39.6480    24.1710     2.2280 
  153.1250   -56.7040    50.6690    36.8930    39.7180    22.1700     2.2300 
  153.2500   -57.0210    51.9000    36.8060    39.7160    20.8420     2.2250 
  153.3750   -57.3010    53.8440    36.5660    39.5580    20.1910     2.2120 
  153.5000   -57.5410    53.9900    36.3680    39.4410    19.9600     2.2000 
  153.6250   -57.8740    51.9410    36.3270    39.4970    20.1460     2.2030 
  153.7500   -58.3060    51.0700    36.5580    39.8750    20.0750     2.2140 
  153.8750   -58.7650    51.7510    37.2360    40.7810    20.4340     2.2190 
  154.0000   -59.2210    51.6150    38.3280    42.1910    21.7200     2.2180 
  154.1250   -59.5070    50.5700    39.6830    43.8760    22.8530     2.2170 
  154.2500   -59.4000    49.9180    40.9910    45.4910    23.6640     2.2220 
  154.3750   -58.8930    49.7550    42.0080    46.7790    24.3000     2.2310 
  154.5000   -58.2490    49.4870    42.6880    47.6960    25.0320     2.2320 
  154.6250   -57.7770    49.1890    42.9440    48.1850    25.8290     2.2240 
  154.7500   -57.6860    49.1880    43.0290    48.5450    26.0460     2.2190 
  154.8750   -58.0270    49.2290    43.1300    48.9810    26.2140     2.2200 
  155.0000   -58.6350    49.1280    43.3730    49.5760    26.6560     2.2230 
  155.1250   -59.3080    48.9950    43.8180    50.3770    27.6520     2.2260 
  155.2500   -59.7970    49.1620    44.3910    51.3040    29.4860     2.2310 
  155.3750   -59.9080    48.2740    45.0310    52.3500    31.2590     2.2340 
  155.5000   -59.7270    46.0140    45.8430    53.6880    32.2660     2.2300 
  155.6250   -59.4170    45.0960    46.7260    55.0700    32.8550     2.2210 
  155.7500   -59.1020    46.3940    47.5540    56.2780    33.8600     2.2130 
  155.8750   -58.8700    46.4980    48.2300    57.1680    33.9960     2.2050 
  156.0000   -58.7560    45.2890    48.6720    57.6770    32.1730     2.2030 
  156.1250   -58.7230    45.9320    48.7940    57.8000    29.7620     2.2000 
  156.2500   -58.7830    48.2650    48.5730    57.5390    28.1220     2.2010 
  156.3750   -58.9320    50.1390    48.0590    56.9980    27.0480     2.2180 
  156.5000   -59.0160    50.8970    47.3620    56.3290    26.1740     2.2470 
  156.6250   -59.0200    50.7450    46.6970    55.7510    25.3080     2.2610 
  156.7500   -59.0690    49.5610    46.0960    55.2800    24.1990     2.2510 
  156.8750   -59.1730    48.1160    45.6340    54.9950    23.7260     2.2410 
  157.0000   -59.2610    47.5670    45.4170    54.9640    24.1140     2.2410 
  157.1250   -59.3790    47.8960    45.5420    55.3220    25.7380     2.2480 
  157.2500   -59.4790    48.1250    46.0750    56.1210    27.8850     2.2650 
  157.3750   -59.3120    48.0650    47.0000    57.3770    29.4240     2.2770 
  157.5000   -58.7970    47.8510    48.1050    58.8320    31.5240     2.2700 
  157.6250   -58.0530    47.8690    49.1710    60.1880    33.4830     2.2460 
  157.7500   -57.3820    47.9080    50.0020    61.1660    33.8530     2.2270 
  157.8750   -57.0860    48.5450    50.2430    61.3120    33.2800     2.2240 
  158.0000   -57.2220    49.7870    49.8420    60.5800    32.4630     2.2300 
  158.1250   -57.7150    51.1700    48.8700    59.1650    31.9370     2.2300 
  158.2500   -58.2760    51.4250    47.6720    57.5300    31.5330     2.2250 
  158.3750   -58.5510    50.3500    46.7090    56.2500    30.6450     2.2310 
  158.5000   -58.4100    49.1830    46.2550    55.6400    30.1560     2.2450 
  158.6250   -57.9450    47.6480    46.2720    55.5840    30.8540     2.2430 
  158.7500   -57.3630    45.4340    46.5120    55.7220    31.9400     2.2240 
  158.8750   -56.7920    43.8770    46.3990    55.3470    32.5940     2.2060 
  159.0000   -56.3230    43.5410    45.0050    53.1430    32.4100     2.1960 
  159.1250   -56.0510    44.5850    41.6610    48.6220    31.2970     2.1830 
  159.2500   -55.9580    45.8270    37.1910    42.9000    30.1180     2.1770 
  159.3750   -56.0040    47.1100    32.6100    37.2510    27.5420     2.2050 
  159.5000   -56.1300    48.0980    29.5380    33.7050    23.8140     2.2510 
  159.6250   -56.3100    49.6180    28.2850    32.3040    20.9520     2.2770 
  159.7500   -56.5940    51.9360    28.5580    32.7140    19.3090     2.2880 
  159.8750   -56.9920    54.3460    29.7810    34.2010    24.5610     2.3110 
  160.0000   -57.4570    55.5410    31.2530    35.8610    32.9660     2.3390 
  160.1250   -58.0190    56.1170    32.3150    36.8630    31.9860     2.3400 
  160.2500   -58.6600    55.7350    32.5260    36.8350    26.0370     2.3120 
  160.3750   -59.2140    53.5970    31.9770    36.0190    23.5630     2.2820 
  160.5000   -59.5150    50.6870    31.1820    35.0510    23.4940     2.2670 
  160.6250   -59.5420    48.4630    30.4630    34.2320    23.8790     2.2590 
  160.7500   -59.4730    47.8100    29.4590    32.9720    23.2640     2.2410 
  160.8750   -59.5090    48.0980    27.4920    30.5290    21.4760     2.2190 
  161.0000   -59.8130    49.6020    24.8420    27.2780    20.1200     2.2190 
  161.1250   -60.5580    50.7000    21.6320    23.4600    18.5700     2.2530 
  161.2500   -61.5910    50.2410    18.5290    19.8640    15.7880     2.3220 
  161.3750   -62.5350    48.4150    16.1770    17.1990    13.5240     2.3920 
  161.5000   -63.1000    46.8870    14.4930    15.3330    12.6550     2.4200 
  161.6250   -63.1000    47.4270    13.9220    14.7540    12.8690     2.3930 
  161.7500   -62.6300    49.2880    14.2750    15.1890    13.9190     2.3430 
  161.8750   -61.9250    49.7320    15.1680    16.1670    15.0590     2.3020 
  162.0000   -61.2950    48.7040    16.1940    17.2240    15.9960     2.2900 
  162.1250   -60.9170    48.5660    17.0600    18.0560    16.7240     2.3160 
  162.2500   -60.7430    50.1160    17.6080    18.5220    16.7900     2.3410 
  162.3750   -60.6500    50.9460    17.8580    18.6910    16.3690     2.3300 
  162.5000   -60.5860    51.0460    18.0330    18.8240    16.4800     2.2980 
  162.6250   -60.6300    51.3180    18.2950    19.1010    17.3770     2.2740 
  162.7500   -60.7930    51.3320    18.6330    19.4920    18.3000     2.2670 
  162.8750   -61.0200    51.1240    19.1360    20.0570    19.0420     2.2720 
  163.0000   -61.2720    51.2980    19.6840    20.6570    19.8090     2.2760 
  163.1250   -61.5500    51.1240    20.0160    20.9850    20.4310     2.2690 
  163.2500   -61.8350    49.9000    19.9170    20.8220    20.5920     2.2600 
  163.3750   -62.1150    48.3040    19.4180    20.2270    19.9150     2.2500 
  163.5000   -62.3320    48.1490    18.7080    19.4140    18.3230     2.2400 
  163.6250   -62.3450    49.1750    17.8940    18.4990    17.0180     2.2420 
  163.7500   -62.1040    49.1450    17.0370    17.5760    17.9580     2.2670 
  163.8750   -61.6760    48.1300    16.3530    16.8430    19.1890     2.2960 
  164.0000   -61.3000    48.2560    15.9480    16.4230    17.7610     2.3090 
  164.1250   -61.2080    48.8600    16.0240    16.5340    16.4600     2.3100 
  164.2500   -61.4520    47.6540    16.4030    16.9840    17.8770     2.3050 
  164.3750   -61.9800    46.3310    17.0930    17.7920    20.3290     2.2980 
  164.5000   -62.6470    45.9820    18.1480    18.9870    22.2260     2.2840 
  164.6250   -63.2620    44.9670    19.8620    20.8510    22.5420     2.2570 
  164.7500   -63.6330    42.0710    21.9860    23.0940    22.4870     2.2250 
  164.8750   -63.6630    41.1100    24.9750    26.2550    25.8080     2.2100 
  165.0000   -63.4830    42.9800    28.4680    29.9780    30.3500     2.2170 
  165.1250   -63.2970    45.1930    31.9860    33.6640    31.4200     2.2400 
  165.2500   -63.1760    46.3200    34.8200    36.5580    31.1660     2.2570 
  165.3750   -63.0750    47.1370    36.5600    38.2010    31.6720     2.2530 
  165.5000   -62.9660    47.0150    37.1870    38.6790    30.9210     2.2370 
  165.6250   -62.9090    45.6650    37.3750    38.8400    30.1460     2.2240 
  165.7500   -62.9640    46.0250    37.7480    39.2950    30.5360     2.2160 
