~V
VERS. 2.00: Ver 2.00
~W
STRT.M 50.0000:
STOP.M 261.0000:
STEP.M 0.1250:
NULL. -999.2500:
UWI. FZI308:
~C
DEPT.M :
SP.MV :
GR.API :
RI. :
RML.OHMM :
RXO.OHMM :
DEN.GM/CC :
~A
# ...
  153.0000   -27.1010    56.2000    30.6800    33.0210    28.4060     2.2720 
  153.1250   -27.1650    56.3770    30.5910    32.9260    27.2980     2.2660 
  153.2500   -27.2190    57.1840    30.6440    32.9820    26.1950     2.2410 
  153.3750   -27.2690    57.9840    31.4910    33.8810    25.8690     2.2140 
  153.5000   -27.3210    58.0450    33.1790    35.6700    28.3270     2.2010 
  153.6250   -27.3740    57.0430    35.7480    38.3920    31.9500     2.2010 
  153.7500   -27.4210    55.1310    38.2730    41.0700    34.5900     2.2060 
  153.8750   -27.4550    53.6380    40.2660    43.1820    34.7180     2.2150 
  154.0000   -27.4740    51.7710    41.4660    44.4540    33.3760     2.2320 
  154.1250   -27.4780    49.7080    41.2520    44.2270    34.4040     2.2510 
  154.2500   -27.4700    48.5550    40.0580    42.9610    37.9240     2.2620 
  154.3750   -27.4540    50.4290    38.5990    41.4150    38.1580     2.2700 
  154.5000   -27.4320    54.3340    37.0890    39.8150    32.9430     2.2760 
  154.6250   -27.4010    57.3740    36.0190    38.6800    30.0480     2.2720 
  154.7500   -27.3580    58.7520    35.1270    37.7340    32.9050     2.2730 
  154.8750   -27.2950    58.7460    34.3390    36.8990    33.7960     2.2950 
  155.0000   -27.2120    57.3230    33.7830    36.3090    25.6280     2.3210 
  155.1250   -27.1040    54.8540    33.6010    36.1170    16.2190     2.3090 
  155.2500   -26.9790    52.1890    33.9050    36.4390    16.5660     2.2630 
  155.3750   -26.8440    50.7910    34.7460    37.3300    22.8690     2.2240 
  155.5000   -26.7110    50.3260    36.1150    38.7820    26.9520     2.2080 
  155.6250   -26.5920    51.1700    37.7940    40.5610    27.7020     2.2080 
  155.7500   -26.4970    53.1420    39.2870    42.1440    27.9500     2.2150 
  155.8750   -26.4330    55.1670    40.5510    43.4840    28.8410     2.2170 
  156.0000   -26.4000    56.0460    41.5810    44.5760    29.8090     2.2120 
  156.1250   -26.3980    55.4390    42.4450    45.4920    30.6520     2.2050 
  156.2500   -26.4220    54.8480    43.1390    46.2270    30.5400     2.2040 
  156.3750   -26.4700    54.6130    43.7080    46.8310    28.7330     2.2030 
  156.5000   -26.5390    56.2690    44.1020    47.2480    27.4390     2.1960 
  156.6250   -26.6210    59.2330    44.4180    47.5840    29.1890     2.1910 
  156.7500   -26.7070    61.0190    44.9070    48.1010    32.0380     2.1950 
  156.8750   -26.7800    60.3840    45.7380    48.9830    33.1890     2.2050 
  157.0000   -26.8220    58.4360    46.9020    50.2160    33.4450     2.2180 
  157.1250   -26.8100    57.1820    48.3240    51.7240    33.9470     2.2270 
  157.2500   -26.7370    54.8740    49.7370    53.2210    34.4760     2.2260 
  157.3750   -26.5960    52.6980    50.9200    54.4750    34.6890     2.2110 
  157.5000   -26.4000    53.5090    51.8900    55.5040    34.6740     2.1910 
  157.6250   -26.1610    55.9560    52.6410    56.2990    34.5700     2.1780 
  157.7500   -25.8950    57.0170    53.3600    57.0620    34.7560     2.1760 
  157.8750   -25.6050    54.3930    54.0980    57.8440    35.9340     2.1840 
  158.0000   -25.2930    50.7540    54.8260    58.6160    37.3590     2.1950 
  158.1250   -24.9500    48.7650    55.4140    59.2390    37.6530     2.2050 
  158.2500   -24.5720    48.1960    55.7440    59.5880    37.0570     2.2130 
  158.3750   -24.1500    49.0770    55.8410    59.6920    36.8040     2.2160 
  158.5000   -23.6840    51.5820    56.0610    59.9240    37.2380     2.2100 
  158.6250   -23.1660    54.8920    56.6440    60.5420    36.8650     2.2050 
  158.7500   -22.5940    54.9550    57.7250    61.6890    35.3930     2.2110 
  158.8750   -21.9540    52.1050    59.6820    63.7620    34.6210     2.2290 
  159.0000   -21.2420    51.0960    61.5380    65.7310    34.9420     2.2400 
  159.1250   -20.4460    52.6250    57.4730    61.4220    36.3420     2.2360 
  159.2500   -19.5740    53.6330    45.5780    48.8130    47.1300     2.2450 
  159.3750   -18.6350    53.8620    30.8230    33.1720    56.2880     2.3000 
  159.5000   -17.6680    55.1440    15.7620    17.2080    38.3970     2.3700 
  159.6250   -16.7230    58.5010     8.9780    10.0160    12.5320     2.3970 
  159.7500   -15.8580    62.6270     6.5280     7.4200     4.0740     2.3680 
  159.8750   -15.1490    67.1190     5.8400     6.6900     5.8310     2.3240 
  160.0000   -14.6320    69.7200     6.2880     7.1660     9.4230     2.3050 
  160.1250   -14.3550    69.3010     7.8250     8.7940    10.3940     2.3030 
  160.2500   -14.2970    68.5490    10.7110    11.8540    10.9980     2.2890 
  160.3750   -14.4490    68.4320    15.2070    16.6190    16.6000     2.2540 
  160.5000   -14.7510    66.1330    21.5440    23.3370    21.5830     2.2180 
  160.6250   -15.1600    59.3710    27.8860    30.0590    23.1570     2.1970 
  160.7500   -15.6200    54.1360    32.3600    34.8020    25.3390     2.1850 
  160.8750   -16.0870    54.4200    34.4300    36.9960    27.8580     2.1760 
  161.0000   -16.5270    56.2890    34.3530    36.9140    28.1260     2.1720 
  161.1250   -16.9140    56.1270    33.8700    36.4020    27.2340     2.1740 
  161.2500   -17.2410    55.3060    34.0710    36.6150    28.0640     2.1750 
  161.3750   -17.5000    55.7310    35.1000    37.7060    29.6810     2.1700 
  161.5000   -17.7000    57.3200    36.8960    39.6090    31.8150     2.1630 
  161.6250   -17.8410    58.5180    39.2890    42.1460    34.4680     2.1640 
  161.7500   -17.9320    59.0840    42.0020    45.0220    35.3420     2.1690 
  161.8750   -17.9750    59.1860    44.4390    47.6050    35.6220     2.1760 
  162.0000   -17.9830    58.9540    46.4290    49.7150    37.3840     2.1880 
  162.1250   -17.9570    58.3330    47.7670    51.1330    39.3440     2.1970 
  162.2500   -17.9060    55.8820    48.4900    51.9000    40.1400     2.1990 
  162.3750   -17.8290    53.0610    48.8650    52.2970    39.2850     2.1960 
  162.5000   -17.7260    52.0890    49.2470    52.7010    37.5050     2.1940 
  162.6250   -17.5910    53.4420    50.0150    53.5160    36.3170     2.1950 
  162.7500   -17.4230    55.5150    51.5540    55.1470    35.6380     2.1970 
  162.8750   -17.2170    56.4930    52.8710    56.5430    35.3120     2.2020 
  163.0000   -16.9770    55.6590    51.0700    54.6340    39.1140     2.2140 
  163.1250   -16.7030    55.3310    43.0570    46.1400    47.3470     2.2470 
  163.2500   -16.4030    55.7980    32.2900    34.7280    43.8510     2.2940 
  163.3750   -16.0830    56.8250    21.5240    23.3160    24.2840     2.3340 
  163.5000   -15.7520    57.5700    13.9690    15.3070    10.2110     2.3640 
  163.6250   -15.4250    60.2320    10.5950    11.7300     7.1650     2.3910 
  163.7500   -15.1220    66.0460     8.4130     9.4180     6.4820     2.4140 
  163.8750   -14.8730    72.3260     7.3090     8.2470     6.2840     2.4210 
  164.0000   -14.7080    74.4210     7.6770     8.6380     6.4320     2.4120 
  164.1250   -14.6730    72.2960     9.5610    10.6340     7.2600     2.3870 
  164.2500   -14.7880    69.2090    13.1690    14.4590    13.3840     2.3440 
  164.3750   -15.0870    65.4360    19.9830    21.6820    27.2490     2.2980 
  164.5000   -15.5560    60.0240    30.6030    32.9390    38.2790     2.2640 
  164.6250   -16.1810    55.5080    43.7500    46.8750    41.2400     2.2500 
  164.7500   -16.9000    53.4180    54.9030    58.6970    40.3400     2.2480 
  164.8750   -17.6490    53.0330    61.2760    65.4530    39.0130     2.2470 
  165.0000   -18.3640    53.9290    62.1860    66.4170    40.9670     2.2430 
  165.1250   -18.9970    57.0010    60.8750    65.0270    43.7010     2.2370 
  165.2500   -19.5350    58.6230    60.3650    64.4870    42.9010     2.2290 
  165.3750   -19.9820    54.9590    62.0920    66.3170    40.5220     2.2170 
  165.5000   -20.3670    48.3890    65.9890    70.4480    41.2880     2.2040 
  165.6250   -20.7120    44.8260    71.7210    76.5240    45.4790     2.2010 
  165.7500   -21.0400    46.4620    79.8670    85.1590    49.4600     2.2020 
