~V
VERS. 2.00: Ver 2.00
~W
STRT.M 50.0000:
STOP.M 249.0000:
STEP.M 0.1250:
NULL. -999.2500:
UWI. FZI307:
~C
DEPT.M :
SP.MV :
GR.API :
RI. :
RML.OHMM :
RXO.OHMM :
DEN.GM/CC :
~A
# ...
  127.2500   -42.9430    72.0450     2.3490     3.0360     3.5660     2.2010 
  127.3750   -42.7880    68.5270     2.5270     3.2980     3.9260     2.1740 
  127.5000   -42.8640    64.9870     2.6710     3.5030     4.3390     2.1720 
  127.6250   -43.1210    64.1500     2.7490     3.5730     4.5260     2.1860 
  127.7500   -43.3790    64.7360     2.7350     3.4830     4.3180     2.2080 
  127.8750   -43.5220    65.3010     2.6740     3.3420     4.1670     2.2320 
  128.0000   -43.5590    64.4950     2.6290     3.2660     4.5200     2.2540 
  128.1250   -43.5420    62.2490     2.6500     3.3570     4.7070     2.2570 
  128.2500   -43.5610    59.9610     2.7160     3.5460     4.4020     2.2280 
  128.3750   -43.6860    59.7270     2.7650     3.6980     4.4210     2.1850 
  128.5000   -43.8670    60.4480     2.7180     3.6710     4.5650     2.1670 
  128.6250   -44.0310    60.5420     2.5430     3.4300     4.2590     2.1820 
  128.7500   -44.1240    61.5990     2.2720     3.0460     3.7320     2.2110 
  128.8750   -44.0130    64.1080     1.9900     2.6450     3.1580     2.2430 
  129.0000   -43.5960    67.5480     1.7770     2.3570     2.8220     2.2700 
  129.1250   -42.9170    70.4220     1.6980     2.2580     2.8210     2.2810 
  129.2500   -42.1950    72.1050     1.7440     2.3240     2.7500     2.2780 
  129.3750   -41.7090    73.4010     1.8860     2.5210     2.7590     2.2700 
  129.5000   -41.6900    73.3940     2.1060     2.8140     3.1010     2.2720 
  129.6250   -42.2700    71.4640     2.3660     3.1540     3.5420     2.2660 
  129.7500   -43.2800    68.1650     2.5930     3.4320     4.0170     2.2340 
  129.8750   -44.5030    64.5520     2.7190     3.5610     4.4650     2.1850 
  130.0000   -45.6230    61.2790     2.7840     3.6050     4.5990     2.1540 
  130.1250   -46.2550    58.2890     2.9240     3.7790     4.3650     2.1640 
  130.2500   -46.2970    56.7340     3.2920     4.3160     4.2810     2.2190 
  130.3750   -45.9310    56.2790     3.7860     5.0150     5.7410     2.3190 
  130.5000   -45.5380    54.6850     4.1850     5.5260     8.2930     2.4120 
  130.6250   -45.3990    52.8240     4.2610     5.5210     8.8110     2.4260 
  130.7500   -45.4430    53.9450     3.8750     4.8370     6.6890     2.3680 
  130.8750   -45.3900    58.0570     3.3150     3.9840     4.4890     2.2900 
  131.0000   -45.1710    62.1780     2.8800     3.4040     3.7630     2.2410 
  131.1250   -44.9930    64.7800     2.8560     3.4850     3.9410     2.2210 
  131.2500   -45.0190    65.8870     3.3220     4.2220     4.5900     2.1980 
  131.3750   -45.2250    65.6600     3.9030     5.0380     7.2910     2.1510 
  131.5000   -45.4860    63.7430     4.3250     5.5280    10.9100     2.1130 
  131.6250   -45.6930    60.6720     4.3060     5.3410    10.4750     2.1410 
  131.7500   -45.8030    58.9590     3.8210     4.5740     6.6560     2.2060 
  131.8750   -45.8320    60.5700     3.1890     3.7090     4.1430     2.2390 
  132.0000   -45.7430    64.0380     2.5850     2.9730     3.4810     2.2270 
  132.1250   -45.3840    67.5710     2.2850     2.6860     3.2300     2.2110 
  132.2500   -44.7560    69.7760     2.2050     2.6560     3.9550     2.2120 
  132.3750   -44.0030    70.8130     2.2510     2.7220     5.0090     2.2210 
  132.5000   -43.3320    71.0440     2.3110     2.7600     4.4230     2.2320 
  132.6250   -43.0130    70.5740     2.4320     2.8710     3.7770     2.2410 
  132.7500   -43.1590    70.1950     2.7940     3.3040     4.2410     2.2480 
  132.8750   -43.6500    68.6990     3.3570     3.9860     4.7400     2.2690 
  133.0000   -44.2250    65.4700     3.8810     4.6080     7.4060     2.3120 
  133.1250   -44.6600    61.1760     4.2760     5.0600    11.7070     2.3440 
  133.2500   -44.7660    58.1400     4.3200     5.0270    10.8420     2.3310 
  133.3750   -44.4970    58.0630     4.0050     4.5940     6.0570     2.2820 
  133.5000   -44.0650    58.0540     3.6290     4.1240     4.3670     2.2370 
  133.6250   -43.6380    56.9610     3.1580     3.5860     5.1770     2.2050 
  133.7500   -43.3580    55.6570     2.8260     3.2240     5.2780     2.1820 
  133.8750   -43.3580    56.8270     2.6280     2.9740     4.5530     2.1790 
  134.0000   -43.5590    60.8750     2.5300     2.7970     3.8780     2.1910 
  134.1250   -43.8320    63.7610     2.6640     2.8980     3.7490     2.1940 
  134.2500   -44.1270    62.9560     3.2590     3.6080     4.1810     2.1830 
  134.3750   -44.4040    60.0970     4.4070     5.0120     6.2450     2.2140 
  134.5000   -44.6410    57.5910     5.9020     6.7680    12.1910     2.3220 
  134.6250   -44.8400    54.7880     6.9750     7.8390    18.4650     2.4330 
  134.7500   -44.9480    51.8140     7.1000     7.7560    17.1010     2.4430 
  134.8750   -44.9340    50.9890     6.0370     6.3820    10.4010     2.3580 
  135.0000   -44.8930    52.6170     4.5460     4.6860     6.2110     2.2810 
  135.1250   -44.8590    55.6890     3.2780     3.4080     4.4940     2.2440 
  135.2500   -44.7040    58.4880     2.6600     2.8690     3.7190     2.2150 
  135.3750   -44.2890    58.8600     2.4910     2.7730     4.2620     2.1990 
  135.5000   -43.6830    57.8340     2.4850     2.8010     5.1810     2.2220 
  135.6250   -43.1280    59.3610     2.5810     2.8990     5.2230     2.2650 
  135.7500   -42.8590    62.7490     2.8540     3.1630     4.2720     2.2770 
  135.8750   -43.0060    62.5030     3.3880     3.7200     4.2910     2.2490 
  136.0000   -43.4950    57.9380     4.3930     4.8750     6.0440     2.2410 
  136.1250   -44.2050    53.0620     5.9830     6.6940    10.7630     2.3050 
  136.2500   -44.8960    50.7590     7.8610     8.8260    17.1280     2.4120 
  136.3750   -45.2720    50.9070     9.7650    10.8980    18.1270     2.4900 
  136.5000   -45.2940    51.6600    10.6310    11.6790    14.0730     2.5150 
  136.6250   -45.1450    52.4800    10.1420    10.9690    12.4640     2.5040 
  136.7500   -45.0200    53.3160     8.5820     9.1070    13.8980     2.4780 
  136.8750   -45.0170    54.4510     6.6570     6.9410    12.5470     2.4190 
  137.0000   -45.1750    54.3780     5.2560     5.4260     8.2980     2.3350 
  137.1250   -45.5090    53.8580     4.6880     4.8550     5.5110     2.2530 
  137.2500   -46.0180    55.7800     4.7400     5.0070     5.9630     2.1840 
  137.3750   -46.7410    57.9150     5.5160     6.0340     8.3010     2.1400 
  137.5000   -47.6470    55.8390     6.9250     7.7580    10.0780     2.1340 
  137.6250   -48.6630    49.9440     8.5490     9.5500    10.9550     2.1490 
  137.7500   -49.6110    45.3700     9.9730    10.9900    10.9490     2.1470 
  137.8750   -50.3250    43.8470    10.7000    11.5390    10.4690     2.1340 
  138.0000   -50.8130    43.2940    10.9030    11.5380    10.3540     2.1370 
  138.1250   -51.1780    43.8200    10.8370    11.3480    10.5680     2.1470 
  138.2500   -51.4570    45.8610    10.6300    11.0810    10.9100     2.1420 
  138.3750   -51.4770    47.4990    10.3600    10.7890    10.9790     2.1280 
  138.5000   -51.1000    47.0250    10.0580    10.5200    10.6490     2.1200 
  138.6250   -50.3180    45.8080     9.7230    10.2230    10.3100     2.1220 
  138.7500   -49.3570    46.1430     9.1460     9.6440    10.2330     2.1360 
  138.8750   -48.4760    47.1460     8.4920     9.0130    10.3040     2.1710 
  139.0000   -47.8370    47.8840     7.9800     8.5140    10.3470     2.2350 
  139.1250   -47.4170    50.1140     7.7460     8.3170     9.7630     2.3210 
  139.2500   -47.0250    52.9910     7.7720     8.4000    10.4430     2.4070 
  139.3750   -46.5270    52.6530     7.8810     8.5330    13.5750     2.4650 
  139.5000   -45.9020    50.0760     7.8980     8.5230    14.3870     2.4850 
  139.6250   -45.1460    48.9590     7.7410     8.2960    11.9190     2.4780 
  139.7500   -44.3580    50.2680     7.4830     7.9490     9.8740     2.4710 
  139.8750   -43.6910    51.6050     7.1080     7.4990     8.8270     2.4810 
  140.0000   -43.2340    51.6060     6.8220     7.2090     8.5700     2.4980 
