~V
VERS. 2.00: Ver 2.00
~W
STRT.M 50.0000:
STOP.M 261.0000:
STEP.M 0.1250:
NULL. -999.2500:
UWI. FZI308:
~C
DEPT.M :
SP.MV :
GR.API :
RI. :
RML.OHMM :
RXO.OHMM :
DEN.GM/CC :
~A
# ...
  230.2500     7.6980    58.1840     8.7490     9.7730    10.5130     2.3900 
  230.3750     7.6430    57.7880     9.0330    10.0750     9.5790     2.4030 
  230.5000     7.5670    54.9210     9.1570    10.2070     9.7210     2.4090 
  230.6250     7.4740    52.2410     9.2180    10.2710     9.9420     2.4200 
  230.7500     7.3690    51.9750     9.2340    10.2880    10.3010     2.4280 
  230.8750     7.2570    53.4820     9.2380    10.2930    10.4000     2.4260 
  231.0000     7.1430    54.9310     9.2420    10.2960    10.5610     2.4230 
  231.1250     7.0300    56.1800     9.2400    10.2940    11.0840     2.4230 
  231.2500     6.9140    57.4330     9.2450    10.2990    12.1430     2.4240 
  231.3750     6.7900    57.7220     9.2780    10.3350    12.1470     2.4250 
  231.5000     6.6500    58.5530     9.3500    10.4110    10.2520     2.4270 
  231.6250     6.4790    60.8450     9.4070    10.4710     8.9800     2.4210 
  231.7500     6.2740    62.6220     9.4530    10.5200     8.9760     2.4070 
  231.8750     6.0270    62.4720     9.5020    10.5720     9.0260     2.3960 
  232.0000     5.7440    61.5950     9.5470    10.6190     8.4670     2.3900 
  232.1250     5.4290    59.8180     9.5680    10.6420     7.6950     2.3890 
  232.2500     5.1000    56.9710     9.5260    10.5980     8.1350     2.3980 
  232.3750     4.7770    54.8020     9.4570    10.5240     9.7540     2.4130 
  232.5000     4.4870    54.5260     9.3920    10.4560    10.2900     2.4190 
  232.6250     4.2730    54.4690     9.3510    10.4120     9.3570     2.4150 
  232.7500     4.1690    54.4900     9.3420    10.4030     9.9150     2.4160 
  232.8750     4.2240    55.9180     9.4550    10.5220    12.0650     2.4240 
  233.0000     4.4480    57.6950     9.7910    10.8790    12.6870     2.4390 
  233.1250     4.8530    57.3150    10.3700    11.4920    12.2220     2.4670 
  233.2500     5.3940    56.1120    11.1120    12.2790    11.7960     2.4990 
  233.3750     6.0270    55.6610    11.8780    13.0900    10.7530     2.5130 
  233.5000     6.6810    55.2540    12.4730    13.7220    11.8690     2.5060 
  233.6250     7.2950    53.6760    12.8940    14.1680    14.4260     2.4930 
  233.7500     7.8260    52.1950    13.0930    14.3790    16.8040     2.4860 
  233.8750     8.2430    51.9540    13.1840    14.4750    23.4970     2.4870 
  234.0000     8.5540    53.6310    13.3270    14.6270    52.4540     2.4970 
  234.1250     8.7650    55.2950    13.6400    14.9580    68.4250     2.5180 
  234.2500     8.9080    54.4890    14.0300    15.3720    39.2190     2.5390 
  234.3750     9.0040    51.5180    14.3960    15.7600    16.2600     2.5460 
  234.5000     9.0770    49.9430    14.6240    16.0010    15.1160     2.5450 
  234.6250     9.1430    50.7120    14.5990    15.9750    14.2910     2.5470 
  234.7500     9.2090    50.3820    14.3520    15.7140    14.2210     2.5450 
  234.8750     9.2790    48.7440    13.9430    15.2790    14.3390     2.5290 
  235.0000     9.3500    49.0010    13.4770    14.7860    14.7730     2.5170 
  235.1250     9.4160    52.3200    13.1000    14.3860    16.0900     2.5240 
  235.2500     9.4760    55.4910    12.8390    14.1100    16.2140     2.5430 
  235.3750     9.5270    55.4460    12.6710    13.9310    15.0680     2.5590 
  235.5000     9.5720    53.5810    12.5210    13.7720    15.3840     2.5650 
  235.6250     9.6130    52.6190    12.3490    13.5900    14.9760     2.5530 
  235.7500     9.6520    53.2600    12.0720    13.2960    13.2460     2.5260 
  235.8750     9.6900    54.0000    11.6870    12.8880    10.9580     2.5090 
  236.0000     9.7280    54.4810    11.3290    12.5090    11.2090     2.5090 
  236.1250     9.7640    54.4310    11.0680    12.2320    11.6000     2.5110 
  236.2500     9.7970    53.6370    10.9810    12.1400    10.9750     2.5100 
  236.3750     9.8270    52.0820    10.9890    12.1480    10.0990     2.5120 
  236.5000     9.8520    51.5920    11.0210    12.1830     9.5640     2.5150 
  236.6250     9.8740    53.7440    10.9890    12.1490    12.0960     2.5130 
  236.7500     9.8960    55.7720    10.9100    12.0650    14.3130     2.5170 
  236.8750     9.9200    55.0480    10.7940    11.9420    10.7670     2.5220 
  237.0000     9.9470    52.4980    10.7060    11.8490     7.6480     2.5110 
  237.1250     9.9750    52.9190    10.7370    11.8810     7.6320     2.4810 
  237.2500    10.0040    56.1500    10.8880    12.0410     7.9840     2.4520 
  237.3750    10.0350    58.6700    11.1560    12.3260     9.3910     2.4360 
  237.5000    10.0670    58.4510    11.4070    12.5920    11.2340     2.4370 
  237.6250    10.1040    57.4360    11.5160    12.7070    11.3680     2.4510 
  237.7500    10.1450    57.2820    11.3490    12.5300     9.9370     2.4680 
  237.8750    10.1910    57.3020    10.9230    12.0790     9.2030     2.4790 
  238.0000    10.2370    57.1850    10.4180    11.5430     9.3600     2.4820 
  238.1250    10.2810    57.7100     9.9910    11.0910     9.6240     2.4790 
  238.2500    10.3170    58.7120     9.7340    10.8190     9.9230     2.4740 
  238.3750    10.3420    58.2580     9.5690    10.6430    10.4000     2.4650 
  238.5000    10.3560    57.1310     9.3880    10.4510    11.4420     2.4570 
  238.6250    10.3600    56.2600     9.1090    10.1550    12.2230     2.4570 
  238.7500    10.3600    54.9140     8.7600     9.7850    11.9080     2.4680 
  238.8750    10.3600    53.2750     8.3980     9.4020    11.2180     2.4820 
  239.0000    10.3650    51.9220     8.1120     9.0990    10.8390     2.4860 
  239.1250    10.3750    51.6130     7.9660     8.9440     9.5160     2.4750 
  239.2500    10.3850    51.4880     7.9570     8.9340     8.4880     2.4600 
  239.3750    10.3950    52.0250     8.0430     9.0250     8.1710     2.4560 
  239.5000    10.4010    52.5870     8.1450     9.1330     8.2850     2.4600 
  239.6250    10.4070    52.5310     8.2710     9.2670     8.4920     2.4660 
  239.7500    10.4150    52.9870     8.4090     9.4130     8.7160     2.4690 
  239.8750    10.4300    54.4360     8.5160     9.5270     8.8540     2.4760 
  240.0000    10.4560    55.9170     8.5810     9.5960     8.8070     2.4890 
  240.1250    10.4920    56.7730     8.5410     9.5530     8.6060     2.4920 
  240.2500    10.5370    56.1220     8.4220     9.4270     8.3140     2.4800 
  240.3750    10.5840    53.6840     8.2370     9.2310     7.9590     2.4630 
  240.5000    10.6280    50.9490     8.0160     8.9960     7.7270     2.4520 
  240.6250    10.6630    51.3090     7.8130     8.7820     7.8640     2.4500 
  240.7500    10.6860    55.0440     7.6440     8.6030     7.9880     2.4530 
  240.8750    10.6930    57.5630     7.5480     8.5010     7.7180     2.4590 
  241.0000    10.6890    55.2000     7.5150     8.4660     7.4060     2.4620 
  241.1250    10.6780    49.5050     7.5350     8.4870     7.5260     2.4590 
  241.2500    10.6650    47.4700     7.5860     8.5410     7.7790     2.4550 
  241.3750    10.6540    51.8860     7.6200     8.5780     7.5480     2.4510 
  241.5000    10.6460    56.7850     7.6280     8.5850     7.2300     2.4510 
  241.6250    10.6350    57.0580     7.6130     8.5700     7.5080     2.4550 
  241.7500    10.6160    54.7680     7.5830     8.5380     8.0320     2.4560 
  241.8750    10.5880    53.8620     7.5560     8.5090     8.0200     2.4490 
  242.0000    10.5560    54.8050     7.5370     8.4900     7.6800     2.4410 
  242.1250    10.5320    55.7580     7.5160     8.4670     7.7640     2.4380 
  242.2500    10.5320    55.1140     7.5030     8.4530     8.3130     2.4420 
  242.3750    10.5680    53.9420     7.4790     8.4280     8.8730     2.4500 
  242.5000    10.6400    53.3730     7.4480     8.3950     9.6060     2.4660 
  242.6250    10.7470    56.1140     7.4220     8.3670    10.2450     2.4830 
  242.7500    10.8760    59.8890     7.3980     8.3410    10.8410     2.4850 
  242.8750    11.0140    59.7220     7.4000     8.3440    10.4170     2.4680 
  243.0000    11.1470    55.6810     7.4260     8.3710     9.9710     2.4520 
