~V
VERS. 2.00: Ver 2.00
~W
STRT.M 50.0000:
STOP.M 249.0000:
STEP.M 0.1250:
NULL. -999.2500:
UWI. FZI307:
~C
DEPT.M :
SP.MV :
GR.API :
RI. :
RML.OHMM :
RXO.OHMM :
DEN.GM/CC :
~A
# ...
  230.2500   -42.3410    47.8960    10.9590    13.5730    21.1220     2.4520 
  230.3750   -42.8130    49.3700    11.2830    13.8650    18.2790     2.4490 
  230.5000   -43.2270    49.7630    11.3300    13.7980    15.1030     2.4440 
  230.6250   -43.3630    49.9240    11.0030    13.2920    15.1340     2.4460 
  230.7500   -43.2750    50.4500    10.5250    12.6460    15.2200     2.4520 
  230.8750   -43.1170    51.1330    10.1780    12.2260    13.5660     2.4520 
  231.0000   -42.9330    51.6170    10.0160    12.0560    13.1330     2.4450 
  231.1250   -42.7550    51.0530    10.0250    12.1010    15.5080     2.4330 
  231.2500   -42.6140    48.9930    10.1600    12.3080    16.3650     2.4240 
  231.3750   -42.5240    46.6950    10.3810    12.5940    15.3040     2.4230 
  231.5000   -42.4380    45.4640    10.5460    12.7620    14.8650     2.4260 
  231.6250   -42.2380    44.6150    10.5540    12.7090    15.0090     2.4240 
  231.7500   -41.8770    44.8150    10.4120    12.4630    14.7690     2.4150 
  231.8750   -41.5910    46.7100    10.2220    12.1980    13.2960     2.4020 
  232.0000   -41.7170    49.4640    10.0810    12.0150    11.8250     2.3960 
  232.1250   -42.2730    50.6440    10.0050    11.9310    11.2810     2.4040 
  232.2500   -42.7200    49.5650     9.9840    11.9270    10.7950     2.4270 
  232.3750   -42.9530    47.9750    10.0050    11.9610    10.5510     2.4470 
  232.5000   -43.2540    47.9680    10.0850    12.0480    11.3980     2.4550 
  232.6250   -43.4210    49.5430    10.2080    12.1740    14.7510     2.4500 
  232.7500   -43.4930    50.5490    10.3840    12.3730    19.6110     2.4400 
  232.8750   -43.5060    49.4040    10.6940    12.7600    20.6880     2.4330 
  233.0000   -43.2470    48.5680    11.0330    13.1800    17.4250     2.4310 
  233.1250   -43.0270    49.5610    11.2980    13.4900    14.9360     2.4410 
  233.2500   -43.0680    51.0100    11.3990    13.5860    14.2160     2.4680 
  233.3750   -43.1880    51.4300    11.2890    13.4230    14.1650     2.4940 
  233.5000   -43.2850    51.2990    11.0370    13.0970    14.1930     2.4940 
  233.6250   -43.4110    50.2030    10.7010    12.7040    13.4040     2.4650 
  233.7500   -43.4440    48.4400    10.3570    12.3250    13.7540     2.4340 
  233.8750   -43.3440    47.3190    10.0680    12.0340    14.3140     2.4230 
  234.0000   -43.3190    47.3810     9.8660    11.8430    12.6490     2.4230 
  234.1250   -43.3440    47.8480     9.7030    11.6880    10.7510     2.4150 
  234.2500   -43.3510    47.8600     9.5600    11.5560     9.4540     2.3960 
  234.3750   -43.3510    48.2240     9.4950    11.5400     8.6540     2.3820 
  234.5000   -43.3510    48.8730     9.5430    11.6770     8.6320     2.3900 
  234.6250   -43.3510    49.0530     9.6730    11.9040     8.5370     2.4130 
  234.7500   -43.3510    48.5070     9.7920    12.1070     8.8030     2.4260 
  234.8750   -43.3510    47.5120     9.8320    12.1830     9.9020     2.4170 
  235.0000   -43.3510    47.7620     9.8050    12.1650    10.4470     2.4000 
  235.1250   -43.3510    49.5420     9.7200    12.0870     9.8830     2.3860 
  235.2500   -43.3510    51.8670     9.5920    11.9680     9.3150     2.3740 
  235.3750   -43.3510    53.7530     9.4340    11.8050     9.9250     2.3590 
  235.5000   -43.3510    53.8580     9.2690    11.6350    10.9690     2.3450 
  235.6250   -43.3510    52.0400     9.1490    11.5220    10.5970     2.3370 
  235.7500   -43.3510    49.9410     9.0890    11.4870     9.3220     2.3290 
  235.8750   -43.3510    48.7750     9.0570    11.4910     9.4010     2.3120 
  236.0000   -43.3510    48.3790     9.0640    11.5680    11.0800     2.2890 
  236.1250   -43.3510    47.5180     9.0870    11.6720    13.5350     2.2820 
  236.2500   -43.3510    47.2640     9.0820    11.7320    16.6330     2.2930 
  236.3750   -43.3510    47.6910     9.0190    11.7130    19.0460     2.3110 
  236.5000   -43.3510    48.2000     8.9110    11.6260    17.1230     2.3240 
  236.6250   -43.3510    48.6610     8.7660    11.4840    11.2340     2.3390 
  236.7500   -43.3510    49.0710     8.6620    11.3910     7.9970     2.3660 
  236.8750   -43.3510    49.5600     8.5560    11.2830     8.9280     2.4040 
  237.0000   -43.3510    50.5090     8.4720    11.2130    10.1690     2.4320 
  237.1250   -43.3510    51.4510     8.4500    11.2280    10.3140     2.4260 
  237.2500   -43.3510    51.7960     8.4770    11.3240     9.9930     2.3990 
  237.3750   -43.3510    51.3540     8.5130    11.4160     8.9360     2.3840 
  237.5000   -43.3510    51.2500     8.5320    11.4840     7.4940     2.3920 
  237.6250   -43.3510    51.4930     8.5320    11.5390     6.9930     2.4110 
  237.7500   -43.3510    51.1540     8.4690    11.4730     7.1550     2.4220 
  237.8750   -43.3510    49.9020     8.3600    11.3430     7.2760     2.4210 
  238.0000   -43.3510    48.7770     8.1670    11.1300     7.9310     2.4240 
  238.1250   -43.3510    49.3640     7.9580    10.8580     9.1890     2.4370 
  238.2500   -43.3510    50.7330     7.7450    10.6470     9.0690     2.4460 
  238.3750   -43.3510    50.1590     7.5370    10.6390     7.4350     2.4360 
  238.5000   -43.3510    48.0320     7.3340    10.3520     6.1580     2.4240 
  238.6250   -43.3510    46.9230     7.1750    10.2900     5.6300     2.4270 
  238.7500   -43.3510    47.6940     7.0960    10.1030     5.6120     2.4350 
  238.8750   -43.3510    49.4640     7.0690     9.9570     5.8870     2.4290 
  239.0000   -43.3510    50.5490     7.0690     9.9890     6.0450     2.4120 
  239.1250   -43.3510    50.0450     7.0740     9.8320     6.0990     2.3940 
  239.2500   -43.3510    48.7410     7.0720     9.8070     6.2400     2.3880 
  239.3750   -43.3510    48.3320     7.0740     9.7790     6.4280     2.3950 
  239.5000   -43.3510    48.5630     7.0700     9.7570     6.4800     2.4000 
  239.6250   -43.3510    48.7270     7.0710     9.7390     6.2830     2.3990 
  239.7500   -43.3510    48.8290     7.0720     9.7250     5.8700     2.4000 
  239.8750   -43.3510    49.1590     7.0710     9.7180     5.5340     2.4030 
  240.0000   -43.3510    49.1190     7.0730     9.7060     5.5370     2.3970 
  240.1250   -43.3510    48.4800     7.0690     9.7030     5.6040     2.3840 
  240.2500   -43.3510    48.0110     7.0640     9.7000     5.4910     2.3760 
  240.3750   -43.3510    48.0910     7.0650     9.6990     5.4340     2.3790 
  240.5000   -43.3510    48.5350     7.0650     9.6970     5.6780     2.3830 
  240.6250   -43.3510    49.0200     7.0670     9.6990     6.1520     2.3820 
  240.7500   -43.3510    48.8280     7.0690     9.7010     6.3930     2.3770 
  240.8750   -43.3510    47.6520     7.0690     9.7030     6.1130     2.3730 
  241.0000   -43.3510    46.6090     7.0720     9.7040     5.7670     2.3720 
  241.1250   -43.3510    46.1820     7.0710     9.7060     5.7880     2.3740 
  241.2500   -43.3510    46.3110     7.0680     9.7070     5.9640     2.3730 
  241.3750   -43.3510    46.2890     7.0710     9.7070     5.9180     2.3700 
  241.5000   -43.3510    46.2890     7.0690     9.7090     5.7940     2.3670 
  241.6250   -43.3510    46.2890     7.0660     9.7100     5.9780     2.3580 
  241.7500   -43.3510    46.2890     7.0610     9.7120     6.0400     2.3370 
  241.8750   -43.3510    46.2890     7.0560     9.7120     5.7440     2.3150 
  242.0000   -43.3510    46.2890     7.0550     9.7140     5.6990     2.3080 
  242.1250   -43.3510    46.2890     7.0580     9.7140     6.0550     2.3180 
  242.2500   -43.3510    46.2890     7.0600     9.7140     6.2040     2.3360 
  242.3750   -43.3510    46.2890     7.0640     9.7150     6.0100     2.3630 
  242.5000   -43.3510    46.2890     7.0650     9.7140     6.1300     2.3940 
  242.6250   -43.3510    46.2890     7.0650     9.7140     6.4860     2.4130 
  242.7500   -43.3510    46.2890     7.0650     9.7120     6.5320     2.4150 
  242.8750   -43.3510    46.2890     7.0630     9.7120     6.3600     2.4010 
  243.0000   -43.3510    46.2890     7.0620     9.7110     6.1940     2.3860 
