~V
VERS. 2.00: Ver 2.00
~W
STRT.M 50.0000:
STOP.M 249.0000:
STEP.M 0.1250:
NULL. -999.2500:
UWI. FZI307:
~C
DEPT.M :
SP.MV :
GR.API :
RI. :
RML.OHMM :
RXO.OHMM :
DEN.GM/CC :
~A
# ...
  191.6250   -54.4950    41.0530    53.0310    54.1550    34.2380     2.1760 
  191.7500   -54.5000    43.0480    50.0890    50.8470    33.9520     2.1670 
  191.8750   -54.3830    44.0980    46.6790    47.0690    33.0010     2.1640 
  192.0000   -54.0590    44.2680    43.1210    43.1340    32.0300     2.1620 
  192.1250   -53.4060    44.8950    39.5130    39.1640    30.5490     2.1560 
  192.2500   -52.4820    46.1030    36.2440    35.5930    28.0240     2.1530 
  192.3750   -51.4420    46.7980    33.4960    32.6530    26.5960     2.1600 
  192.5000   -50.6140    46.6610    31.5760    30.6120    26.0690     2.1690 
  192.6250   -50.2900    46.3750    30.4640    29.4140    25.7990     2.1640 
  192.7500   -50.3500    46.8970    29.9520    28.8420    30.7650     2.1470 
  192.8750   -50.6540    47.4290    29.9560    28.8130    34.4910     2.1370 
  193.0000   -51.0260    47.6780    30.2340    29.0790    27.5590     2.1440 
  193.1250   -51.2100    48.5350    30.5030    29.3670    21.8150     2.1570 
  193.2500   -51.1330    49.7880    30.5080    29.4340    25.0800     2.1710 
  193.3750   -50.9650    50.0610    30.0420    29.0500    30.2840     2.1810 
  193.5000   -50.8440    49.1480    29.1380    28.2240    29.5520     2.1830 
  193.6250   -50.7660    48.8950    28.0010    27.1530    24.6440     2.1790 
  193.7500   -50.7300    48.8420    27.0510    26.2800    22.7170     2.1720 
  193.8750   -50.8420    48.8860    27.0350    26.3930    23.4440     2.1670 
  194.0000   -51.1430    49.0450    28.6070    28.2740    24.7410     2.1660 
  194.1250   -51.5800    49.2850    32.2670    32.4280    27.6230     2.1700 
  194.2500   -52.1290    47.6160    38.2330    39.0980    32.8290     2.1680 
  194.3750   -52.7240    45.2070    44.8960    46.4970    38.3200     2.1560 
  194.5000   -53.3200    45.3610    50.8520    52.9570    40.1340     2.1460 
  194.6250   -54.0000    47.5230    54.6960    57.0320    37.9230     2.1410 
  194.7500   -54.7470    48.0900    55.9840    58.3370    34.0590     2.1400 
  194.8750   -55.5210    45.3800    55.9590    58.4180    31.4220     2.1340 
  195.0000   -56.1660    42.7790    55.6950    58.3890    33.1480     2.1280 
  195.1250   -56.4920    43.8150    56.2270    59.2590    36.1060     2.1260 
  195.2500   -56.4880    46.3370    57.3280    60.6060    36.3310     2.1310 
  195.3750   -56.0420    47.3290    58.1130    61.4120    36.2610     2.1430 
  195.5000   -55.3200    46.2930    58.2080    61.3700    38.9530     2.1610 
  195.6250   -54.6820    44.9930    57.6980    60.6620    41.5330     2.1860 
  195.7500   -54.4020    44.1510    57.4500    60.2370    38.6420     2.2060 
  195.8750   -54.5960    44.4970    57.7570    60.3960    33.4100     2.2110 
  196.0000   -55.0570    45.6470    57.9590    60.3840    33.1990     2.2040 
  196.1250   -55.4230    46.7290    57.1690    59.2660    38.8470     2.1900 
  196.2500   -55.4460    46.3890    54.8840    56.5230    45.5990     2.1780 
  196.3750   -55.1190    45.4640    50.7340    51.8130    44.5950     2.1780 
  196.5000   -54.6130    44.8350    46.5240    47.1430    35.2990     2.1880 
  196.6250   -54.0610    46.2740    43.0250    43.3960    28.3840     2.1960 
  196.7500   -53.6160    48.9970    42.0390    42.5070    27.0100     2.1870 
  196.8750   -53.3560    49.9990    43.5360    44.3530    28.4750     2.1670 
  197.0000   -53.2560    48.8590    47.2590    48.5670    33.6870     2.1530 
  197.1250   -53.2900    47.0260    52.0560    53.8500    40.9580     2.1550 
  197.2500   -53.3930    45.9040    56.6090    58.7600    44.5470     2.1640 
  197.3750   -53.5950    44.4330    59.8910    62.3510    44.1550     2.1740 
  197.5000   -53.8640    44.0030    61.8250    64.5640    42.4470     2.1830 
  197.6250   -54.0960    45.7000    62.6990    65.6990    40.5640     2.1810 
  197.7500   -54.3670    47.3500    62.4900    65.8470    41.7680     2.1700 
  197.8750   -54.7630    46.6070    61.7710    65.4920    48.4800     2.1590 
  198.0000   -55.1960    44.5580    60.8180    64.9270    52.0390     2.1580 
  198.1250   -55.6230    42.9990    59.8930    64.3400    44.5660     2.1740 
  198.2500   -55.8450    42.1960    58.9670    63.6790    38.5540     2.2080 
  198.3750   -55.6310    41.8620    58.0730    62.9790    40.1720     2.2440 
  198.5000   -55.1380    42.4740    57.4060    62.4750    39.7740     2.2440 
  198.6250   -54.4900    43.4490    56.9960    62.0930    37.1890     2.2080 
  198.7500   -53.8450    44.1730    56.7540    61.8270    35.9830     2.1720 
  198.8750   -53.5110    45.2630    56.5430    61.5640    35.2820     2.1590 
  199.0000   -53.6030    46.6540    56.4460    61.4950    34.6830     2.1550 
  199.1250   -54.0280    46.6720    56.6100    61.7390    34.4790     2.1510 
  199.2500   -54.5090    45.3070    56.5520    61.6750    35.5650     2.1480 
  199.3750   -54.8140    45.3200    56.0980    61.1310    37.3930     2.1540 
  199.5000   -54.8610    46.9640    55.3610    60.2640    37.3340     2.1620 
  199.6250   -54.6020    46.6880    54.7830    59.6040    35.2650     2.1570 
  199.7500   -54.1860    44.9650    55.1670    60.2320    34.3850     2.1420 
  199.8750   -53.8540    43.6550    57.5590    63.3200    37.1880     2.1260 
  200.0000   -53.7170    43.1700    61.2260    67.8460    41.6840     2.1250 
  200.1250   -53.7040    41.5950    64.8250    72.0950    64.4010     2.1810 
  200.2500   -53.7160    40.2340    66.8880    74.1790    84.8380     2.3020 
  200.3750   -53.7960    40.4710    66.4660    73.1640    61.8960     2.3970 
  200.5000   -53.9390    41.2520    64.0910    70.0360    38.5410     2.3710 
  200.6250   -54.0700    42.0210    61.4170    66.9250    39.1950     2.2500 
  200.7500   -54.1820    42.9580    59.6450    65.1140    41.5000     2.1530 
  200.8750   -54.4080    42.8480    59.6350    65.4370    44.2660     2.1250 
  201.0000   -54.7790    41.4860    61.5900    67.7790    46.5640     2.1230 
  201.1250   -55.1500    41.0120    64.2000    70.6470    46.1380     2.1210 
  201.2500   -55.5300    41.8010    66.7750    73.3610    44.7210     2.1210 
  201.3750   -55.8400    42.4380    68.3060    74.6540    44.0980     2.1330 
  201.5000   -55.7480    41.9800    67.9090    73.8930    54.7670     2.1830 
  201.6250   -55.0540    41.2260    65.1200    70.5470    76.3780     2.2970 
  201.7500   -53.9950    41.1040    60.2460    65.1530    77.3640     2.4440 
  201.8750   -52.9830    42.5970    54.2510    58.5650    56.5680     2.5290 
  202.0000   -52.3440    44.8810    48.7800    52.4660    42.1210     2.4950 
  202.1250   -52.1090    45.6770    44.4520    47.5670    37.8530     2.3850 
  202.2500   -52.0220    44.2490    42.8420    45.6200    42.6060     2.3100 
  202.3750   -52.0520    43.6890    44.5980    47.3950    56.0770     2.3320 
  202.5000   -52.2390    45.4420    49.3380    52.2340    61.4230     2.4150 
  202.6250   -52.3360    47.8700    58.6230    61.7880    71.2990     2.5220 
  202.7500   -52.0260    48.1360    71.1730    74.7390   114.8220     2.6340 
  202.8750   -51.3610    45.3610    82.7030    86.0570   158.4030     2.7290 
  203.0000   -50.6180    42.4420    88.2630    91.4390   168.4280     2.7630 
  203.1250   -49.9500    41.1070    85.4220    88.2550   141.9100     2.6820 
  203.2500   -49.4000    41.6900    73.3140    74.6520    90.0290     2.5150 
  203.3750   -48.9930    43.6680    53.5150    54.1580    53.7750     2.3570 
  203.5000   -48.7300    44.7140    34.6310    34.3430    43.9430     2.2920 
  203.6250   -48.4900    43.9800    17.8200    17.1010    40.2100     2.3340 
  203.7500   -48.2460    42.0900     8.8530     8.4680    29.2540     2.4010 
  203.8750   -48.0760    40.9780     5.9110     5.6370    12.9220     2.4240 
  204.0000   -47.9580    40.8250     4.6780     4.4980     5.2190     2.4080 
  204.1250   -48.0140    41.1320     4.4790     4.3870     6.0490     2.3920 
  204.2500   -48.3040    43.3060     4.8890     4.8530     6.8250     2.3800 
  204.3750   -48.8830    48.8490     5.6280     5.5610     6.2930     2.3490 
