~V
VERS. 2.00: Ver 2.00
~W
STRT.M 50.0000:
STOP.M 261.0000:
STEP.M 0.1250:
NULL. -999.2500:
UWI. FZI308:
~C
DEPT.M :
SP.MV :
GR.API :
RI. :
RML.OHMM :
RXO.OHMM :
DEN.GM/CC :
~A
# ...
  178.7500   -11.1250    79.8320     3.9720     4.7100     5.6410     2.3290 
  178.8750   -11.7350    79.2820     3.9100     4.6450     5.2080     2.3390 
  179.0000   -12.1970    77.8040     3.8570     4.5880     5.9790     2.3570 
  179.1250   -12.4750    76.2550     3.8300     4.5600     7.4600     2.3490 
  179.2500   -12.5810    74.6090     3.8490     4.5800     6.7880     2.3180 
  179.3750   -12.5150    72.4270     3.9120     4.6470     5.6470     2.3050 
  179.5000   -12.3190    70.1240     3.9710     4.7090     5.9380     2.3250 
  179.6250   -12.0160    70.6030     4.0330     4.7750     6.3610     2.3530 
  179.7500   -11.6380    73.5510     4.0440     4.7870     6.2600     2.3600 
  179.8750   -11.1840    76.6650     3.8950     4.6280     5.6000     2.3450 
  180.0000   -10.6470    78.3550     3.6100     4.3260     4.7960     2.3210 
  180.1250    -9.9920    75.5570     3.2220     3.9150     3.9680     2.3080 
  180.2500    -9.2100    67.6200     2.8730     3.5450     3.2570     2.3190 
  180.3750    -8.2950    57.9410     2.6300     3.2870     3.1170     2.3550 
  180.5000    -7.2960    50.8400     2.4860     3.1350     3.2150     2.3890 
  180.6250    -6.2790    48.1230     2.4320     3.0780     3.1950     2.3950 
  180.7500    -5.3190    48.1570     2.4230     3.0680     3.1240     2.3830 
  180.8750    -4.4890    49.2480     2.4350     3.0810     3.0810     2.3730 
  181.0000    -3.8140    49.2900     2.4330     3.0790     3.0290     2.3690 
  181.1250    -3.3060    48.8230     2.4290     3.0740     3.0200     2.3590 
  181.2500    -2.9280    49.4500     2.4390     3.0850     3.0940     2.3490 
  181.3750    -2.6550    50.6520     2.4450     3.0920     3.1120     2.3500 
  181.5000    -2.4470    50.3090     2.4420     3.0880     3.0700     2.3590 
  181.6250    -2.2860    47.6430     2.4310     3.0770     3.0720     2.3700 
  181.7500    -2.1510    44.8300     2.4160     3.0610     3.1080     2.3770 
  181.8750    -2.0330    43.1780     2.4020     3.0460     3.1070     2.3710 
  182.0000    -1.9210    42.5940     2.3890     3.0330     3.0940     2.3610 
  182.1250    -1.8010    43.0160     2.3690     3.0110     3.0870     2.3640 
  182.2500    -1.6570    43.2600     2.3350     2.9750     2.9660     2.3840 
  182.3750    -1.4680    43.4740     2.2860     2.9240     2.8040     2.3960 
  182.5000    -1.2210    43.7320     2.2350     2.8690     2.7650     2.3720 
  182.6250    -0.9070    43.7820     2.1860     2.8170     2.7800     2.3190 
  182.7500    -0.5440    42.9380     2.1590     2.7890     2.7440     2.2860 
  182.8750    -0.1630    43.2180     2.1600     2.7890     2.6810     2.3050 
  183.0000     0.1950    47.0770     2.1820     2.8130     2.6650     2.3440 
  183.1250     0.4890    53.1840     2.2030     2.8350     2.7230     2.3680 
  183.2500     0.7000    57.8070     2.2170     2.8500     2.7970     2.3780 
  183.3750     0.8160    60.8640     2.2150     2.8480     2.8030     2.3900 
  183.5000     0.8530    64.3920     2.2050     2.8370     2.7390     2.4040 
  183.6250     0.8220    68.4880     2.1890     2.8200     2.6830     2.4120 
  183.7500     0.7470    71.3520     2.1660     2.7960     2.7100     2.4080 
  183.8750     0.6410    73.4990     2.1500     2.7790     2.7290     2.3960 
  184.0000     0.5210    73.9670     2.1340     2.7620     2.6840     2.3880 
  184.1250     0.3990    72.3860     2.1100     2.7360     2.6470     2.3830 
  184.2500     0.2780    73.3000     2.0660     2.6900     2.6020     2.3740 
  184.3750     0.1580    77.0370     2.0100     2.6300     2.5920     2.3610 
  184.5000     0.0320    79.0280     1.9760     2.5940     2.6460     2.3560 
  184.6250    -0.1090    77.8090     1.9980     2.6180     2.6960     2.3550 
  184.7500    -0.2700    76.4550     2.0920     2.7170     2.9680     2.3450 
  184.8750    -0.4580    75.7810     2.2800     2.9170     3.3830     2.3290 
  185.0000    -0.6750    75.0390     2.5600     3.2140     3.5930     2.3250 
  185.1250    -0.9230    73.3270     2.8930     3.5670     3.8760     2.3320 
  185.2500    -1.1990    71.2760     3.2880     3.9850     4.1100     2.3330 
  185.3750    -1.5020    68.7700     3.6590     4.3780     4.3250     2.3210 
  185.5000    -1.8190    68.6960     3.9840     4.7230     5.0350     2.3080 
  185.6250    -2.1400    69.8360     4.2690     5.0250     5.7650     2.3040 
  185.7500    -2.4510    70.1580     4.4130     5.1780     5.4420     2.3010 
  185.8750    -2.7430    70.6940     4.4250     5.1900     4.6220     2.3010 
  186.0000    -3.0150    72.3590     4.3210     5.0800     4.7250     2.3080 
  186.1250    -3.2750    73.4140     4.1440     4.8920     5.2860     2.3160 
  186.2500    -3.5420    73.1860     4.0740     4.8190     5.4120     2.3210 
  186.3750    -3.8430    71.3450     4.2250     4.9780     5.0820     2.3250 
  186.5000    -4.2080    68.9780     4.6820     5.4630     4.7660     2.3430 
  186.6250    -4.6780    66.1660     5.6320     6.4700     5.4590     2.3700 
  186.7500    -5.2750    63.6990     6.9010     7.8150    10.0490     2.3750 
  186.8750    -6.0330    62.0680     8.6370     9.6550    19.0600     2.3310 
  187.0000    -6.9420    58.7620    10.1870    11.2990    21.5500     2.2660 
  187.1250    -7.9960    54.4380    11.2800    12.4570    18.6350     2.2210 
  187.2500    -9.1460    52.2250    12.1190    13.3460    14.8300     2.2070 
  187.3750   -10.3410    53.1210    12.8610    14.1330    12.6940     2.2150 
  187.5000   -11.5230    52.7450    13.9190    15.2540    15.8770     2.2340 
  187.6250   -12.6380    50.1590    15.4020    16.8260    21.0280     2.2450 
  187.7500   -13.6570    49.5230    16.9070    18.4220    22.3120     2.2350 
  187.8750   -14.5540    50.9160    18.1900    19.7820    21.1710     2.2190 
  188.0000   -15.3350    51.6470    19.0730    20.7170    20.6860     2.2210 
  188.1250   -15.9960    50.6030    19.5090    21.1800    20.5560     2.2290 
  188.2500   -16.5600    49.3580    19.6830    21.3640    20.4100     2.2220 
  188.3750   -17.0340    48.5900    19.8460    21.5370    20.3960     2.2030 
  188.5000   -17.4430    48.1830    20.0620    21.7650    20.4510     2.1970 
  188.6250   -17.8020    48.1480    20.5560    22.2890    20.6590     2.2150 
  188.7500   -18.1320    48.3700    21.4580    23.2460    20.7980     2.2520 
  188.8750   -18.4440    48.8250    23.2700    25.1660    21.4400     2.3210 
  189.0000   -18.7450    49.1140    25.4200    27.4460    25.0750     2.4270 
  189.1250   -19.0300    48.2100    27.4330    29.5790    38.1600     2.4930 
  189.2500   -19.2920    46.6310    28.9040    31.1390    48.0680     2.4420 
  189.3750   -19.5250    45.4270    29.0500    31.2930    38.6680     2.3090 
  189.5000   -19.7320    47.0810    28.3780    30.5810    27.3590     2.2210 
  189.6250   -19.9240    50.7870    27.3530    29.4940    24.3820     2.2270 
  189.7500   -20.1190    51.7560    26.7260    28.8290    22.6460     2.2550 
  189.8750   -20.3340    48.7680    26.8910    29.0040    22.2860     2.2460 
  190.0000   -20.5740    46.1450    27.5520    29.7050    23.9810     2.2210 
  190.1250   -20.8310    45.5940    28.0660    30.2500    25.3580     2.2150 
  190.2500   -21.0890    44.7780    28.0650    30.2490    25.3010     2.2260 
  190.3750   -21.3250    43.2670    27.6320    29.7900    25.0630     2.2320 
  190.5000   -21.5190    41.6320    26.9630    29.0810    24.3560     2.2320 
  190.6250   -21.6480    40.4320    26.2300    28.3030    22.8600     2.2340 
  190.7500   -21.7050    40.9960    25.4170    27.4420    22.0910     2.2370 
  190.8750   -21.6780    44.1090    24.5840    26.5590    22.6910     2.2440 
  191.0000   -21.5750    47.6720    23.7480    25.6730    23.7890     2.2490 
  191.1250   -21.3970    49.5810    22.8450    24.7160    23.8430     2.2410 
  191.2500   -21.1610    50.6210    21.9250    23.7410    22.5670     2.2270 
  191.3750   -20.8740    50.8300    21.0650    22.8290    21.7370     2.2260 
  191.5000   -20.5510    49.9930    20.2770    21.9930    21.1220     2.2340 
