~V
VERS. 2.00: Ver 2.00
~W
STRT.M 50.0000:
STOP.M 261.0000:
STEP.M 0.1250:
NULL. -999.2500:
UWI. FZI308:
~C
DEPT.M :
SP.MV :
GR.API :
RI. :
RML.OHMM :
RXO.OHMM :
DEN.GM/CC :
~A
# ...
  114.3750   -24.5590    52.5640     6.5600     7.4530    24.3870     2.3750 
  114.5000   -23.6780    53.9730     5.6200     6.4570    32.3940     2.4210 
  114.6250   -22.7600    57.2050     4.5400     5.3130    16.9330     2.3940 
  114.7500   -21.8570    60.0210     3.8030     4.5310     4.1650     2.3410 
  114.8750   -21.0420    64.4160     3.4470     4.1540     3.9980     2.3120 
  115.0000   -20.3890    69.7780     3.4190     4.1240     4.4210     2.3040 
  115.1250   -19.9830    72.7710     3.6660     4.3860     4.7870     2.3010 
  115.2500   -19.8460    71.6530     4.0540     4.7970     4.9450     2.2960 
  115.3750   -19.9980    70.3460     4.4520     5.2190     5.1410     2.2810 
  115.5000   -20.3850    70.8720     4.8150     5.6030     5.6450     2.2480 
  115.6250   -20.9640    69.7030     5.1010     5.9070     6.2050     2.2140 
  115.7500   -21.6520    66.2440     5.2990     6.1170     6.6350     2.2020 
  115.8750   -22.3790    64.3570     5.3860     6.2090     6.9380     2.2120 
  116.0000   -23.0710    64.4490     5.4230     6.2490     7.1020     2.2280 
  116.1250   -23.6590    62.5020     5.4720     6.3010     7.2160     2.2460 
  116.2500   -24.1010    59.0160     5.5240     6.3550     7.3510     2.2600 
  116.3750   -24.3540    58.0870     5.5020     6.3320     7.5180     2.2610 
  116.5000   -24.4180    58.4550     5.3560     6.1780     7.6260     2.2640 
  116.6250   -24.2750    56.7390     5.0240     5.8260     7.5640     2.3040 
  116.7500   -23.9460    56.0680     4.6050     5.3820     6.8480     2.3640 
  116.8750   -23.4380    58.7360     4.2240     4.9780     5.3530     2.3870 
  117.0000   -22.8010    63.4350     3.9490     4.6860     4.4080     2.3480 
  117.1250   -22.0930    67.3980     3.8150     4.5440     4.6430     2.2830 
  117.2500   -21.3970    70.4910     3.8000     4.5280     5.5450     2.2610 
  117.3750   -20.7950    70.8700     3.8320     4.5620     5.8680     2.2890 
  117.5000   -20.3260    68.7670     3.8360     4.5660     5.0020     2.3170 
  117.6250   -20.0160    66.3050     3.8200     4.5500     4.3480     2.3100 
  117.7500   -19.8400    66.2050     3.8700     4.6030     4.2870     2.2830 
  117.8750   -19.7900    68.4310     4.0290     4.7710     4.3910     2.2560 
  118.0000   -19.8490    71.4320     4.2680     5.0250     4.9530     2.2270 
  118.1250   -20.0280    72.9170     4.4360     5.2020     5.9300     2.2160 
  118.2500   -20.3110    71.2760     4.4610     5.2290     6.4300     2.2540 
  118.3750   -20.6810    67.6890     4.3670     5.1290     5.8610     2.3060 
  118.5000   -21.0900    64.5680     4.2330     4.9870     5.2080     2.3170 
  118.6250   -21.5010    63.8080     4.1830     4.9340     5.4300     2.2920 
  118.7500   -21.9050    64.6190     4.3710     5.1330     6.1450     2.2810 
  118.8750   -22.3240    63.5550     4.9810     5.7800     7.0310     2.2930 
  119.0000   -22.7900    61.3440     5.8210     6.6700     8.1960     2.3040 
  119.1250   -23.3310    60.0930     6.8520     7.7630     9.0510     2.3060 
  119.2500   -23.9350    60.3860     7.7740     8.7410     8.9690     2.3000 
  119.3750   -24.5670    60.5340     8.3780     9.3810     8.5110     2.2800 
  119.5000   -25.1760    58.4360     8.6910     9.7130     8.3140     2.2490 
  119.6250   -25.7120    55.4510     8.5930     9.6090     8.6490     2.2190 
  119.7500   -26.1560    53.5310     8.2690     9.2650     9.2770     2.2170 
  119.8750   -26.4920    53.1410     7.8920     8.8650     9.0590     2.2580 
  120.0000   -26.7400    53.8150     7.5370     8.4890     8.0920     2.3010 
  120.1250   -26.9100    54.3810     7.3110     8.2490     7.4740     2.2930 
  120.2500   -27.0310    54.9920     7.2760     8.2120     7.3380     2.2480 
  120.3750   -27.1200    55.7120     7.4730     8.4210     7.3610     2.2070 
  120.5000   -27.1950    56.2990     7.7830     8.7500     9.4070     2.1930 
  120.6250   -27.2650    55.9080     8.0770     9.0610    13.6580     2.2170 
  120.7500   -27.3350    54.0380     8.1640     9.1540    14.3390     2.2600 
  120.8750   -27.4020    53.4170     8.0140     8.9950    10.9120     2.2790 
  121.0000   -27.4620    54.8320     7.7330     8.6970     8.8420     2.2590 
  121.1250   -27.5090    55.9590     7.4620     8.4100     8.6300     2.2250 
  121.2500   -27.5390    55.4240     7.3090     8.2480     8.7300     2.2070 
  121.3750   -27.5420    53.5240     7.2460     8.1800     8.9070     2.1990 
  121.5000   -27.5100    51.0660     7.1230     8.0510     8.9050     2.1870 
  121.6250   -27.4250    48.2790     6.8010     7.7090     8.6850     2.1770 
  121.7500   -27.2810    48.4110     6.3510     7.2320     7.9530     2.1920 
  121.8750   -27.0720    52.5110     5.7850     6.6320     6.3040     2.2340 
  122.0000   -26.8170    58.1020     5.2990     6.1170     4.8950     2.2650 
  122.1250   -26.5520    60.5850     4.9670     5.7650     4.8280     2.2560 
  122.2500   -26.3340    59.3890     4.8460     5.6370     5.3800     2.2300 
  122.3750   -26.2340    57.2800     5.0220     5.8240     5.9950     2.2170 
  122.5000   -26.2920    55.6170     5.4010     6.2250     6.7990     2.2140 
  122.6250   -26.5420    53.7730     5.9910     6.8510     7.9860     2.2050 
  122.7500   -26.9520    51.7420     6.7300     7.6340     9.1800     2.1970 
  122.8750   -27.4770    50.3350     7.4390     8.3850    10.5910     2.2060 
  123.0000   -28.0380    49.4140     7.9870     8.9670    12.0330     2.2220 
  123.1250   -28.5650    47.8780     8.2570     9.2520    11.8320     2.2260 
  123.2500   -29.0120    46.9460     8.2900     9.2880    10.6290     2.2220 
  123.3750   -29.3450    47.1460     8.2200     9.2140    10.0750     2.2170 
  123.5000   -29.5670    48.3870     8.1560     9.1460     9.9680     2.2110 
  123.6250   -29.6760    49.6980     8.1460     9.1350     9.9250     2.1930 
  123.7500   -29.6990    50.9580     8.2040     9.1970     9.9970     2.1880 
  123.8750   -29.6500    50.5270     8.2590     9.2550    10.0010     2.2430 
  124.0000   -29.5560    49.1480     8.2500     9.2450     9.7550     2.3270 
  124.1250   -29.4320    50.3440     8.1480     9.1370     9.5970     2.3530 
  124.2500   -29.2870    53.7880     7.9900     8.9700     9.5340     2.3020 
  124.3750   -29.1220    55.0980     7.8410     8.8120     9.1730     2.2380 
  124.5000   -28.9370    53.6080     7.7570     8.7230     8.8340     2.2100 
  124.6250   -28.7310    53.7820     7.7650     8.7310     8.9010     2.2070 
  124.7500   -28.5120    56.1950     7.8490     8.8200     9.1510     2.2050 
  124.8750   -28.2880    56.8890     7.9610     8.9390     9.3290     2.1990 
  125.0000   -28.0690    54.9750     8.0330     9.0150     9.4160     2.1930 
  125.1250   -27.8580    52.5460     8.0330     9.0150     9.4830     2.1950 
  125.2500   -27.6500    51.7500     7.9520     8.9290     9.5850     2.2050 
  125.3750   -27.4310    52.7950     7.7980     8.7650     9.7920     2.2110 
  125.5000   -27.1880    55.9460     7.6130     8.5700     9.9450     2.2130 
  125.6250   -26.9050    59.6220     7.4300     8.3760     9.8910     2.2160 
  125.7500   -26.5760    60.7520     7.3580     8.2990     9.7260     2.2220 
  125.8750   -26.1860    57.7620     7.6630     8.6220     9.5470     2.2370 
  126.0000   -25.7290    54.8950     8.4880     9.4970    10.1990     2.2660 
  126.1250   -25.1840    55.3770     9.5880    10.6630    13.4530     2.3280 
  126.2500   -24.5470    56.7520    10.0470    11.1500    24.1320     2.4290 
  126.3750   -23.8090    56.5080     9.4600    10.5280    48.1310     2.5270 
  126.5000   -22.9910    56.3970     7.9420     8.9180    54.6860     2.5490 
  126.6250   -22.1260    60.3620     6.0770     6.9410    24.9070     2.4690 
  126.7500   -21.2690    68.3870     4.6790     5.4600     5.1080     2.3640 
  126.8750   -20.4890    75.9110     3.7840     4.5110     4.5010     2.3090 
  127.0000   -19.8360    79.4790     3.4650     4.1730     4.3880     2.2950 
  127.1250   -19.3620    78.7690     3.4390     4.1450     4.2880     2.2750 
