~V
VERS. 2.00: Ver 2.00
~W
STRT.M 50.0000:
STOP.M 261.0000:
STEP.M 0.1250:
NULL. -999.2500:
UWI. FZI308:
~C
DEPT.M :
SP.MV :
GR.API :
RI. :
RML.OHMM :
RXO.OHMM :
DEN.GM/CC :
~A
# ...
   75.7500   -25.0150    78.4970     4.8390     5.6290     5.4950     2.2190 
   75.8750   -25.9550    72.6510     5.4590     6.2860     6.4920     2.2040 
   76.0000   -27.0530    64.8700     6.1310     6.9990     7.9420     2.2140 
   76.1250   -28.2730    59.2800     6.6810     7.5820     9.1180     2.2240 
   76.2500   -29.5360    57.3540     7.0090     7.9300     9.6410     2.2170 
   76.3750   -30.7600    57.7440     7.0830     8.0080     9.6560     2.2120 
   76.5000   -31.8740    58.5210     6.9340     7.8500     9.5900     2.2230 
   76.6250   -32.8110    56.8880     6.6790     7.5790     9.6540     2.2410 
   76.7500   -33.5600    53.8180     6.4670     7.3550     9.7370     2.2530 
   76.8750   -34.1120    53.0170     6.3230     7.2020     9.5210     2.2600 
   77.0000   -34.5090    55.1080     6.2550     7.1300     9.1970     2.2590 
   77.1250   -34.7820    56.7530     6.2910     7.1680     9.2160     2.2550 
   77.2500   -34.9800    54.8690     6.3770     7.2590     9.5100     2.2540 
   77.3750   -35.1300    50.4270     6.4760     7.3650     9.7220     2.2570 
   77.5000   -35.2570    48.0160     6.5240     7.4150     9.6520     2.2520 
   77.6250   -35.3630    50.9490     6.5010     7.3910     9.3580     2.2330 
   77.7500   -35.4420    55.5950     6.4310     7.3170     9.1930     2.2090 
   77.8750   -35.4710    56.7210     6.3680     7.2500     9.2230     2.2040 
   78.0000   -35.4290    53.7410     6.3380     7.2190     9.2120     2.2100 
   78.1250   -35.2820    51.2280     6.3450     7.2250     9.1780     2.2010 
   78.2500   -35.0130    51.6300     6.3860     7.2690     9.1060     2.1780 
   78.3750   -34.5860    53.3590     6.3670     7.2490     8.9120     2.1710 
   78.5000   -33.9910    54.1160     6.1380     7.0060     8.7950     2.1910 
   78.6250   -33.1940    54.9280     5.7480     6.5930     8.9950     2.2260 
   78.7500   -32.1970    57.8590     5.4230     6.2480     8.6840     2.2740 
   78.8750   -30.9880    63.2660     5.2730     6.0890     6.8610     2.3440 
   79.0000   -29.6150    68.4840     5.3000     6.1180     7.6650     2.4180 
   79.1250   -28.1420    69.4210     5.4670     6.2950    14.3470     2.4500 
   79.2500   -26.6810    66.2590     5.5910     6.4260    16.6780     2.4060 
   79.3750   -25.3540    61.7330     5.5140     6.3450    10.4890     2.3210 
   79.5000   -24.2420    61.1560     5.2790     6.0960     6.2720     2.2660 
   79.6250   -23.4040    65.0320     4.9160     5.7110     5.5480     2.2580 
   79.7500   -22.7960    68.7820     4.5610     5.3350     5.2720     2.2560 
   79.8750   -22.3690    69.3560     4.4450     5.2110     5.6400     2.2540 
   80.0000   -22.0370    68.6700     4.4060     5.1700     5.3970     2.2720 
   80.1250   -21.7420    69.7940     4.3430     5.1040     4.6390     2.2930 
   80.2500   -21.4490    71.6710     4.2490     5.0040     4.3920     2.2930 
   80.3750   -21.1520    73.8590     4.1480     4.8960     4.4350     2.2830 
   80.5000   -20.8640    79.2650     4.0700     4.8150     4.2950     2.2890 
   80.6250   -20.6160    84.6490     4.0460     4.7890     4.3240     2.3020 
   80.7500   -20.4340    86.2650     4.0840     4.8290     4.4970     2.3000 
   80.8750   -20.3550    82.7740     4.1270     4.8750     4.5240     2.2840 
   81.0000   -20.3850    78.1450     4.1600     4.9100     4.8570     2.2740 
   81.1250   -20.5330    75.8050     4.1990     4.9510     5.2230     2.2840 
   81.2500   -20.7770    74.4930     4.2420     4.9970     4.9680     2.3120 
   81.3750   -21.1000    71.7730     4.3190     5.0780     4.9840     2.3320 
   81.5000   -21.4810    68.1700     4.4850     5.2540     5.4620     2.3150 
   81.6250   -21.9150    65.7730     4.7520     5.5370     5.9840     2.2650 
   81.7500   -22.4010    63.2640     5.0400     5.8430     6.4580     2.2340 
   81.8750   -22.9400    58.5280     5.2930     6.1100     6.4220     2.2420 
   82.0000   -23.5080    54.6470     5.3810     6.2040     6.3010     2.2590 
   82.1250   -24.0660    55.5100     5.3100     6.1290     6.4160     2.2620 
   82.2500   -24.5630    57.9410     5.1230     5.9310     6.3680     2.2690 
   82.3750   -24.9480    59.2360     4.8850     5.6780     6.3020     2.2870 
   82.5000   -25.2140    58.9770     4.7980     5.5860     6.2880     2.3020 
   82.6250   -25.3670    58.5670     5.2130     6.0260     6.1220     2.3160 
   82.7500   -25.4540    58.8460     6.2810     7.1580     7.4050     2.3610 
   82.8750   -25.5180    58.3630     8.0350     9.0170    13.3770     2.4570 
   83.0000   -25.6040    56.7490     9.9770    11.0760    22.4020     2.5670 
   83.1250   -25.7550    54.0330    11.2100    12.3830    25.7450     2.6240 
   83.2500   -26.0010    51.5420    11.2060    12.3780    19.4200     2.5840 
   83.3750   -26.3750    50.6380    10.1630    11.2730    11.6110     2.4560 
   83.5000   -26.8680    50.5260     8.9110     9.9460     9.1620     2.3320 
   83.6250   -27.4480    48.4840     8.1780     9.1690    10.7900     2.3220 
   83.7500   -28.0360    45.4430     8.1550     9.1440    23.9310     2.4110 
   83.8750   -28.5320    45.8750     8.4570     9.4640    39.9990     2.4720 
   84.0000   -28.8520    50.5410     8.5640     9.5780    32.8840     2.4280 
   84.1250   -28.9170    55.6810     8.1510     9.1400    15.5350     2.3280 
   84.2500   -28.7270    57.2720     7.4010     8.3450     9.4960     2.2560 
   84.3750   -28.2810    55.0180     6.4470     7.3340     8.9590     2.2340 
   84.5000   -27.6420    52.1040     5.7050     6.5480     7.8800     2.2450 
   84.6250   -26.8530    53.0050     5.2260     6.0390     6.4320     2.2750 
   84.7500   -25.9850    57.8520     4.9190     5.7140     5.5230     2.2800 
   84.8750   -25.0960    61.5400     4.7180     5.5010     5.4900     2.2480 
   85.0000   -24.2470    61.9670     4.5940     5.3700     5.8920     2.2300 
   85.1250   -23.5030    61.4230     4.5440     5.3160     5.8780     2.2550 
   85.2500   -22.9000    62.7710     4.4750     5.2430     5.4170     2.2810 
   85.3750   -22.4760    64.3960     4.3570     5.1180     5.0620     2.2720 
   85.5000   -22.2300    65.0180     4.1810     4.9320     4.8390     2.2450 
   85.6250   -22.1820    65.0810     4.0100     4.7510     4.7530     2.2370 
   85.7500   -22.3280    64.6990     3.9620     4.7000     4.8550     2.2630 
   85.8750   -22.7040    64.1420     4.1480     4.8960     4.7490     2.2830 
   86.0000   -23.3170    65.5690     4.6080     5.3840     5.1020     2.2690 
   86.1250   -24.2020    67.3970     5.3570     6.1780     7.0840     2.2460 
   86.2500   -25.3320    65.9400     6.3810     7.2630     8.9970     2.2530 
   86.3750   -26.6790    60.4290     7.3580     8.2990     9.5320     2.2790 
   86.5000   -28.1450    55.7690     8.0430     9.0250     9.7470     2.2840 
   86.6250   -29.6210    54.2000     8.2220     9.2150     9.9980     2.2650 
   86.7500   -30.9870    52.6870     8.0210     9.0030    10.0960     2.2540 
   86.8750   -32.1280    50.5930     7.7410     8.7060    10.1700     2.2600 
   87.0000   -33.0030    49.0410     7.5690     8.5230    10.3100     2.2610 
   87.1250   -33.5740    48.4170     7.5110     8.4610    10.6120     2.2500 
   87.2500   -33.8840    48.1130     7.5010     8.4510    10.9480     2.2480 
   87.3750   -33.9540    47.6500     7.4890     8.4390    11.0540     2.2560 
   87.5000   -33.8500    47.3620     7.4520     8.3990    10.8420     2.2450 
   87.6250   -33.6110    48.3740     7.3680     8.3100    10.1720     2.2100 
   87.7500   -33.2940    51.1980     7.2850     8.2220     9.5300     2.1720 
   87.8750   -32.9480    54.5510     7.2550     8.1910     9.3220     2.1470 
   88.0000   -32.6220    55.8280     7.2730     8.2100     9.2300     2.1520 
   88.1250   -32.3640    54.3630     7.3410     8.2820     9.0890     2.2000 
   88.2500   -32.1980    51.2940     7.4370     8.3830     9.0970     2.2630 
   88.3750   -32.1340    47.7800     7.5180     8.4690     9.3490     2.2860 
   88.5000   -32.1400    47.0540     7.5950     8.5500     9.6610     2.2630 
