~V
VERS. 2.00: Ver 2.00
~W
STRT.M 50.0000:
STOP.M 249.0000:
STEP.M 0.1250:
NULL. -999.2500:
UWI. FZI307:
~C
DEPT.M :
SP.MV :
GR.API :
RI. :
RML.OHMM :
RXO.OHMM :
DEN.GM/CC :
~A
# ...
   62.8750   -36.4560    66.7470     4.3880     6.1680     5.1150     2.2110 
   63.0000   -35.9150    67.8300     4.8420     6.7760     6.0010     2.2600 
   63.1250   -35.1870    64.7210     5.4090     7.6090     9.6060     2.3390 
   63.2500   -34.6180    59.9350     5.8390     8.2590    14.8200     2.3730 
   63.3750   -34.4470    57.9600     5.8880     8.2530    15.3550     2.3330 
   63.5000   -34.6070    58.6650     5.4640     7.5180    10.0220     2.2830 
   63.6250   -34.9120    60.5880     4.8310     6.4860     5.6820     2.2640 
   63.7500   -35.1590    63.1970     4.2370     5.5180     4.8850     2.2590 
   63.8750   -35.1870    66.4980     4.0070     5.0630     4.9390     2.2460 
   64.0000   -34.9590    68.9890     4.0810     5.0410     4.8150     2.2280 
   64.1250   -34.5900    69.2750     4.3570     5.3060     5.2160     2.2190 
   64.2500   -34.3050    68.3580     4.6350     5.6450     5.8820     2.2130 
   64.3750   -34.2610    68.4120     4.8040     5.8980     5.8790     2.2060 
   64.5000   -34.4390    68.4620     4.9330     6.1050     5.5380     2.1970 
   64.6250   -34.7500    67.7640     5.0250     6.2750     5.4830     2.1840 
   64.7500   -35.1340    66.5360     5.0900     6.3640     5.6210     2.1580 
   64.8750   -35.6620    65.4670     5.1310     6.4260     5.9170     2.1380 
   65.0000   -36.3400    63.8200     5.1180     6.3590     6.3480     2.1490 
   65.1250   -37.0360    62.5280     4.9750     6.0820     6.4290     2.1940 
   65.2500   -37.6070    62.4850     4.7550     5.7190     6.0030     2.2370 
   65.3750   -37.9820    63.2810     4.6420     5.5090     5.5120     2.2380 
   65.5000   -38.2100    64.4560     4.8080     5.7070     5.3140     2.1910 
   65.6250   -38.4390    65.8110     5.4270     6.5390     5.9000     2.1470 
   65.7500   -38.8770    64.9730     6.3480     7.7860    12.0740     2.1630 
   65.8750   -39.5940    59.1310     7.2900     9.1720    23.6160     2.2070 
   66.0000   -40.3220    52.8340     7.7690    10.0130    25.1140     2.2240 
   66.1250   -40.6940    50.4550     7.5630     9.8750    14.9140     2.2200 
   66.2500   -40.5680    52.6220     6.9000     9.0370     8.2070     2.2260 
   66.3750   -40.0640    56.6780     6.1430     8.0220     6.6810     2.2170 
   66.5000   -39.6380    60.3520     5.7050     7.6250     6.3450     2.1730 
   66.6250   -39.7290    61.6890     5.6800     7.9910     6.9190     2.1340 
   66.7500   -40.4510    61.1030     5.8980     8.7720     7.3940     2.1260 
   66.8750   -41.7180    60.0560     6.2540     9.5980     7.6300     2.1440 
   67.0000   -43.0560    59.2070     6.6350    10.2760     7.8400     2.1680 
   67.1250   -44.0030    57.5490     7.0080    10.8450     8.2370     2.1840 
   67.2500   -44.5270    54.7620     7.3220    11.2690     8.8200     2.1860 
   67.3750   -44.7970    52.4190     7.6410    11.7070     9.2100     2.1800 
   67.5000   -44.9830    51.5880     7.9720    12.1860     9.3400     2.1760 
   67.6250   -45.1620    49.4310     8.2190    12.5200     9.3840     2.1700 
   67.7500   -45.3800    46.0250     8.3690    12.7100     9.4460     2.1550 
   67.8750   -45.6140    44.3710     8.3440    12.6450     9.5080     2.1410 
   68.0000   -45.8280    45.0610     8.1680    12.3970     9.4420     2.1420 
   68.1250   -46.0410    44.5540     7.9160    12.1050     9.2930     2.1540 
   68.2500   -46.2970    42.9130     7.6650    11.8460     9.1140     2.1670 
   68.3750   -46.5900    42.8130     7.3180    11.4320     9.0850     2.1750 
   68.5000   -46.8970    43.5970     6.9350    10.8970     9.3850     2.1810 
   68.6250   -47.1550    44.1000     6.5920    10.3930     9.4330     2.1790 
   68.7500   -47.3040    44.6290     6.3660     9.9960     8.4350     2.1650 
   68.8750   -47.3910    45.4670     6.3650     9.9440     7.5890     2.1480 
   69.0000   -47.4450    45.0920     6.6080    10.2950     8.5500     2.1610 
   69.1250   -47.3790    42.9670     7.0500    10.9840     9.8320     2.2200 
   69.2500   -47.1620    40.3970     7.5530    11.7590     9.9980     2.2740 
   69.3750   -46.7600    39.9710     7.9690    12.3730     9.7250     2.2600 
   69.5000   -46.1710    42.1220     8.2270    12.7070     9.5140     2.2040 
   69.6250   -45.5420    44.8230     8.1830    12.4790     9.4580     2.1620 
   69.7500   -45.0480    45.6620     7.9080    11.8990     9.5430     2.1550 
   69.8750   -44.6520    45.3760     7.4090    11.0480     9.1380     2.1690 
   70.0000   -44.2090    47.4210     6.7950    10.0760     7.7140     2.1890 
   70.1250   -43.5600    52.2020     6.1700     9.1700     6.3980     2.2040 
   70.2500   -42.6000    57.1630     5.6820     8.4780     6.1570     2.2060 
   70.3750   -41.4520    59.3670     5.3970     8.0810     6.3260     2.2050 
   70.5000   -40.4350    59.5890     5.3340     8.0500     6.3420     2.2010 
   70.6250   -39.7100    59.6280     5.4760     8.3350     6.1290     2.1790 
   70.7500   -39.2640    60.3870     5.6810     8.6930     6.1880     2.1560 
   70.8750   -39.1240    59.7440     5.8440     8.9720     6.8870     2.1690 
   71.0000   -39.2130    56.6790     5.9520     9.1460     7.3560     2.2080 
   71.1250   -39.3780    54.3040     5.8950     9.0140     6.8690     2.2250 
   71.2500   -39.4330    55.1030     5.6470     8.5310     6.2700     2.2290 
   71.3750   -39.2520    57.5060     5.2410     7.7980     6.2040     2.2520 
   71.5000   -38.9170    59.0600     4.8120     7.0690     5.7790     2.2810 
   71.6250   -38.6710    61.5500     4.4850     6.5380     5.0020     2.2780 
   71.7500   -38.6920    64.8490     4.2740     6.2440     4.7630     2.2550 
   71.8750   -39.0580    66.2350     4.1940     6.1670     5.1430     2.2420 
   72.0000   -39.8200    65.5300     4.2800     6.3600     5.3350     2.2260 
   72.1250   -40.9750    64.8690     4.5350     6.8040     4.9680     2.1820 
   72.2500   -42.1940    63.2460     4.9050     7.3930     5.2230     2.1340 
   72.3750   -43.2280    59.1150     5.3530     8.1000     6.5820     2.1200 
   72.5000   -44.0730    53.5540     5.7930     8.8130     7.8510     2.1330 
   72.6250   -44.7210    50.5620     6.1370     9.3600     8.4700     2.1390 
   72.7500   -45.1690    50.1430     6.3430     9.6500     8.7260     2.1360 
   72.8750   -45.4040    51.1830     6.3830     9.6460     8.5480     2.1360 
   73.0000   -45.4460    52.1830     6.3280     9.4550     8.2740     2.1360 
   73.1250   -45.3180    51.7450     6.1800     9.1630     8.5200     2.1330 
   73.2500   -45.0310    50.3600     5.9910     8.8580     8.6260     2.1400 
   73.3750   -44.4650    50.8260     5.7910     8.5650     7.6600     2.1510 
   73.5000   -43.5790    53.6840     5.6390     8.3710     6.5370     2.1510 
   73.6250   -42.5460    55.2550     5.5570     8.3120     6.5670     2.1390 
   73.7500   -41.6800    53.7270     5.5120     8.3770     7.5240     2.1310 
   73.8750   -41.2390    51.9410     5.5110     8.5370     8.7230     2.1470 
   74.0000   -41.1740    53.1140     5.4750     8.6180     8.7490     2.1750 
   74.1250   -41.2440    56.2800     5.3470     8.4510     7.3170     2.1940 
   74.2500   -41.2550    60.1200     5.1430     8.0970     6.4710     2.1980 
   74.3750   -41.2710    63.1180     5.0030     7.8180     6.2240     2.1910 
   74.5000   -41.4520    64.8220     5.0170     7.7810     5.8560     2.1750 
   74.6250   -41.8770    64.4360     5.2240     8.0880     6.3490     2.1570 
   74.7500   -42.5340    61.5420     5.5190     8.5480     7.4330     2.1550 
   74.8750   -43.4230    56.4200     5.8320     9.0910     8.0430     2.1710 
   75.0000   -44.2720    52.3870     6.0790     9.5500     8.2700     2.1860 
   75.1250   -44.7220    53.0780     6.1860     9.7630     7.9880     2.1830 
   75.2500   -44.7000    55.4570     6.0970     9.6430     7.5220     2.1710 
   75.3750   -44.1670    55.2250     5.8380     9.2030     7.6820     2.1720 
   75.5000   -43.1270    54.1830     5.4460     8.5270     7.4860     2.1960 
   75.6250   -41.5600    56.9870     4.9860     7.7010     6.2760     2.2320 
