~V
VERS. 2.00: Ver 2.00
~W
STRT.M 50.0000:
STOP.M 249.0000:
STEP.M 0.1250:
NULL. -999.2500:
UWI. FZI307:
~C
DEPT.M :
SP.MV :
GR.API :
RI. :
RML.OHMM :
RXO.OHMM :
DEN.GM/CC :
~A
# ...
   88.6250   -42.3510    51.4610     5.6280     6.7100     6.3350     2.1590 
   88.7500   -42.2910    51.0970     5.5940     6.7060     6.2940     2.1750 
   88.8750   -42.5460    52.8800     5.5610     6.6640     6.3370     2.1900 
   89.0000   -42.8700    56.6640     5.5160     6.5960     6.2930     2.1950 
   89.1250   -42.9710    59.9020     5.4740     6.5520     6.1550     2.1910 
   89.2500   -42.7270    62.5120     5.4630     6.5280     6.0780     2.1830 
   89.3750   -42.2920    65.0210     5.4960     6.5540     6.1420     2.1700 
   89.5000   -41.9390    65.3160     5.5820     6.6490     6.2480     2.1570 
   89.6250   -41.8050    61.8330     5.6790     6.7820     6.3540     2.1540 
   89.7500   -41.8960    56.2960     5.7590     6.9200     6.3680     2.1680 
   89.8750   -42.1610    53.6410     5.7820     6.9970     6.2560     2.1830 
   90.0000   -42.4690    54.6470     5.7640     7.0010     6.1670     2.1770 
   90.1250   -42.7590    57.7730     5.7170     6.9470     6.1710     2.1570 
   90.2500   -43.0380    59.8360     5.6400     6.8320     6.2820     2.1500 
   90.3750   -43.3200    60.7190     5.5660     6.7330     6.5190     2.1680 
   90.5000   -43.6500    61.6860     5.4850     6.6700     6.7480     2.1910 
   90.6250   -44.0290    61.2830     5.4400     6.6750     6.7890     2.2040 
   90.7500   -44.3950    58.3010     5.4150     6.7180     6.7710     2.2090 
   90.8750   -44.7730    54.4540     5.4210     6.7810     6.8680     2.2120 
   91.0000   -45.2210    53.4690     5.4600     6.8360     6.9420     2.2140 
   91.1250   -45.5960    55.4040     5.5180     6.8670     6.9060     2.2100 
   91.2500   -45.6500    56.1370     5.5880     6.8780     6.9040     2.2010 
   91.3750   -45.2780    53.7130     5.6420     6.8600     7.0330     2.1930 
   91.5000   -44.7030    51.0890     5.6710     6.8270     7.1510     2.1870 
   91.6250   -44.2470    50.4430     5.6720     6.7840     7.0990     2.1800 
   91.7500   -44.1230    51.2540     5.6520     6.7310     6.9570     2.1710 
   91.8750   -44.3640    52.7180     5.6310     6.6880     6.8410     2.1730 
   92.0000   -44.8160    54.3420     5.6400     6.6940     6.7930     2.1890 
   92.1250   -45.3060    55.1690     5.6910     6.7650     6.7860     2.1940 
   92.2500   -45.5520    53.8780     5.7810     6.8950     6.7610     2.1790 
   92.3750   -45.3240    51.5750     5.8930     7.0610     6.7220     2.1670 
   92.5000   -44.7670    49.8500     6.0120     7.1990     6.7670     2.1760 
   92.6250   -44.0950    50.0150     6.0620     7.1730     6.9790     2.1920 
   92.7500   -43.4030    51.0090     5.9850     6.9520     7.3310     2.2010 
   92.8750   -42.6890    52.3030     5.7480     6.5190     7.5190     2.2190 
   93.0000   -41.9360    53.8250     5.4090     6.0310     7.0340     2.2540 
   93.1250   -41.1050    56.9580     5.0340     5.5860     5.9640     2.2800 
   93.2500   -40.2030    60.7080     4.7300     5.2850     5.0940     2.2700 
   93.3750   -39.3460    63.7780     4.5560     5.1760     4.8900     2.2250 
   93.5000   -38.7130    64.9620     4.5180     5.2380     5.1020     2.1900 
   93.6250   -38.5170    64.0620     4.6280     5.4510     5.3780     2.1860 
   93.7500   -38.7440    63.0590     4.7490     5.6020     5.4400     2.1910 
   93.8750   -39.2100    62.4590     4.7380     5.5490     5.2880     2.1900 
   94.0000   -39.6700    63.8070     4.5860     5.3160     5.4410     2.2000 
   94.1250   -40.0040    67.3280     4.2750     4.8990     5.6690     2.2320 
   94.2500   -40.1180    70.4660     3.9670     4.5760     5.3020     2.2590 
   94.3750   -39.8230    71.0790     3.9070     4.6320     4.8460     2.2670 
   94.5000   -39.1310    70.0650     4.1750     5.0750     4.6280     2.2830 
   94.6250   -38.2580    69.4980     4.6830     5.7110     5.3540     2.3310 
   94.7500   -37.5840    68.5990     5.2390     6.2710     8.4390     2.3750 
   94.8750   -37.4360    66.6110     5.6460     6.4650    10.1470     2.3590 
   95.0000   -37.7960    64.8290     5.5890     6.0440     7.4780     2.2960 
   95.1250   -38.3730    65.1910     5.1120     5.2840     4.9900     2.2380 
   95.2500   -38.7850    67.9750     4.5270     4.5170     4.5380     2.2290 
   95.3750   -38.8520    70.6330     4.1540     4.1980     4.2630     2.2610 
   95.5000   -38.6220    71.2010     4.2730     4.4810     4.0960     2.3000 
   95.6250   -38.2360    70.3540     4.7820     5.1210     5.3380     2.3180 
   95.7500   -37.8980    69.7340     5.3260     5.7450     7.6160     2.3000 
   95.8750   -37.7490    69.6110     5.6940     6.0740     7.8110     2.2620 
   96.0000   -37.8100    69.6010     5.7070     5.9990     6.0520     2.2410 
   96.1250   -37.9780    68.9530     5.3670     5.5720     4.9970     2.2390 
   96.2500   -38.1120    67.5810     4.8830     5.0390     4.8780     2.2290 
   96.3750   -38.1900    67.3820     4.5820     4.8080     4.9810     2.2110 
   96.5000   -38.2950    69.3460     4.7670     5.1180     4.9790     2.2240 
   96.6250   -38.4390    71.0780     5.4990     6.0570     5.1110     2.2990 
   96.7500   -38.5790    69.8590     6.4570     7.2700     7.3350     2.4090 
   96.8750   -38.7860    66.3120     7.3960     8.4370    11.7440     2.4710 
   97.0000   -39.1130    63.8420     7.8080     8.8520    12.6610     2.4280 
   97.1250   -39.5580    64.9730     7.3070     8.1460     9.0400     2.3150 
   97.2500   -40.0570    68.9530     6.3600     6.9240     6.4560     2.2360 
   97.3750   -40.4330    72.8280     5.3030     5.7080     5.3800     2.2460 
   97.5000   -40.4310    75.5820     4.6110     5.0590     4.9890     2.2930 
   97.6250   -39.8620    77.2520     4.4700     5.0530     5.9110     2.3080 
   97.7500   -38.9780    78.3010     4.5490     5.2590     6.3640     2.2840 
   97.8750   -38.2470    78.2060     4.7140     5.4810     5.5980     2.2480 
   98.0000   -38.0250    77.4600     4.8860     5.6460     5.0560     2.2150 
   98.1250   -38.4160    74.9890     5.0430     5.7720     5.2510     2.1860 
   98.2500   -39.2070    70.7310     5.1380     5.8430     5.9370     2.1750 
   98.3750   -40.2010    66.6590     5.2180     5.9050     6.4470     2.1890 
   98.5000   -41.0710    65.2380     5.2240     5.8740     6.0450     2.2020 
   98.6250   -41.4620    66.1850     5.0890     5.6540     5.5710     2.1940 
   98.7500   -41.3960    68.2780     4.9070     5.4120     5.7860     2.1800 
   98.8750   -41.0990    71.7640     4.7990     5.2810     6.1210     2.1840 
   99.0000   -40.8230    74.7090     5.0210     5.5610     6.1090     2.2090 
   99.1250   -40.6670    73.3060     5.6660     6.3430     7.0670     2.2480 
   99.2500   -40.6310    68.1380     6.7760     7.6630    10.6840     2.2960 
   99.3750   -40.7780    63.4380     8.3710     9.6120    21.0800     2.3270 
   99.5000   -41.1780    61.7860     9.7980    11.2860    30.7740     2.3090 
   99.6250   -41.8840    60.7640    10.4850    12.0000    27.3540     2.2290 
   99.7500   -42.8500    58.1320    10.1310    11.4980    19.5240     2.1340 
   99.8750   -44.0000    55.1240     9.0000    10.1300    14.1240     2.0880 
  100.0000   -45.2190    54.2660     7.7770     8.7630     9.6580     2.0890 
  100.1250   -46.3870    54.4470     6.9810     7.9810     7.7500     2.0980 
  100.2500   -47.3850    53.1610     6.6290     7.6590     7.4490     2.0960 
  100.3750   -48.1530    51.1340     6.4890     7.5590     7.5230     2.0930 
  100.5000   -48.6900    51.5620     6.4700     7.5520     7.7510     2.0970 
  100.6250   -48.8860    53.6370     6.4730     7.5530     7.9490     2.1110 
  100.7500   -48.7200    54.1350     6.4530     7.5530     7.9280     2.1280 
  100.8750   -48.3020    52.0190     6.4390     7.5350     7.9220     2.1320 
  101.0000   -47.9010    50.3190     6.4420     7.5220     8.0310     2.1240 
  101.1250   -47.7860    50.3910     6.4890     7.5430     8.1380     2.1200 
  101.2500   -48.0420    51.3080     6.5400     7.5570     8.1970     2.1300 
  101.3750   -48.5880    50.9690     6.5090     7.4890     8.1750     2.1300 
