~V
VERS. 2.00: Ver 2.00
~W
STRT.M 50.0000:
STOP.M 261.0000:
STEP.M 0.1250:
NULL. -999.2500:
UWI. FZI308:
~C
DEPT.M :
SP.MV :
GR.API :
RI. :
RML.OHMM :
RXO.OHMM :
DEN.GM/CC :
~A
# ...
   62.8750   -41.8740    64.9990     5.8000     6.6480     9.0950     2.1860 
   63.0000   -41.8720    65.6000     5.5840     6.4190     9.0470     2.1920 
   63.1250   -41.8860    61.9050     5.5730     6.4080     8.9450     2.1990 
   63.2500   -41.9140    57.7660     5.6130     6.4500     8.9350     2.1970 
   63.3750   -41.9350    55.7440     5.6330     6.4710     9.2590     2.1900 
   63.5000   -41.9190    55.3440     5.6480     6.4860     9.7190     2.1870 
   63.6250   -41.8200    56.4000     5.6810     6.5220     9.9250     2.1900 
   63.7500   -41.6170    58.0950     5.7530     6.5980     9.9710     2.2000 
   63.8750   -41.2900    59.1010     5.8810     6.7340    10.1330     2.2120 
   64.0000   -40.8530    58.5260     6.0540     6.9170    10.1820     2.2120 
   64.1250   -40.3040    57.2260     6.2290     7.1030     9.8970     2.2010 
   64.2500   -39.6480    56.1250     6.2670     7.1430     9.5770     2.2010 
   64.3750   -38.8570    56.8240     6.0310     6.8930     9.4030     2.2310 
   64.5000   -37.9120    60.9820     5.5770     6.4120     8.6680     2.2820 
   64.6250   -36.7760    66.9710     4.9920     5.7920     6.8250     2.3170 
   64.7500   -35.4670    71.2670     4.4600     5.2270     5.2580     2.3140 
   64.8750   -34.0210    74.0750     4.1330     4.8810     4.7960     2.2890 
   65.0000   -32.5410    78.0090     4.0130     4.7540     4.8850     2.2700 
   65.1250   -31.1570    82.6540     4.1300     4.8780     5.1600     2.2570 
   65.2500   -29.9770    83.6310     4.4240     5.1900     5.1400     2.2310 
   65.3750   -29.1030    80.2850     4.8590     5.6500     5.4320     2.2070 
   65.5000   -28.5250    74.9810     5.3600     6.1810     6.4460     2.2080 
   65.6250   -28.2070    70.1460     5.7600     6.6050     7.4400     2.2340 
   65.7500   -28.0250    67.7320     5.9000     6.7540     8.2360     2.2620 
   65.8750   -27.8520    69.6840     5.6820     6.5230     7.6130     2.2830 
   66.0000   -27.5800    75.7580     5.2230     6.0370     5.4490     2.3020 
   66.1250   -27.1380    82.1840     4.6880     5.4700     4.1630     2.3110 
   66.2500   -26.5550    85.6560     4.2400     4.9950     4.2580     2.3040 
   66.3750   -25.9150    85.9890     3.9210     4.6570     4.6210     2.2970 
   66.5000   -25.3520    85.2740     3.8570     4.5880     4.5590     2.3050 
   66.6250   -25.0160    85.7190     4.2200     4.9730     4.2010     2.3420 
   66.7500   -24.9900    85.8660     5.0330     5.8350     5.0280     2.4090 
   66.8750   -25.3560    81.7140     6.3340     7.2140    10.6610     2.4490 
   67.0000   -26.0830    71.9550     7.8840     8.8570    19.3060     2.4010 
   67.1250   -27.1580    61.7230     9.2440    10.2990    18.1580     2.2760 
   67.2500   -28.4940    56.8180     9.7210    10.8040    12.3600     2.1580 
   67.3750   -30.0280    56.1750     9.2910    10.3490     9.9670     2.1010 
   67.5000   -31.6670    54.8580     8.3170     9.3160     9.7630     2.1010 
   67.6250   -33.3300    52.3310     7.4660     8.4140     9.7480     2.1460 
   67.7500   -34.9350    50.5850     7.0890     8.0140     9.7690     2.1970 
   67.8750   -36.3920    50.7660     7.1310     8.0590     9.7270     2.2180 
   68.0000   -37.6450    50.9340     7.5910     8.5460     9.8790     2.2280 
   68.1250   -38.6220    50.0380     8.3050     9.3030    11.5360     2.2840 
   68.2500   -39.3270    49.4420     8.9890    10.0280    23.9950     2.3700 
   68.3750   -39.7530    51.5010     9.4170    10.4820    35.6120     2.3940 
   68.5000   -39.9620    55.4140     9.3490    10.4090    25.1570     2.3270 
   68.6250   -39.9970    57.6480     8.7830     9.8100    11.9910     2.2420 
   68.7500   -39.9220    55.8700     8.0380     9.0200     9.7870     2.2070 
   68.8750   -39.7710    51.1190     7.3470     8.2870     9.6440     2.1970 
   69.0000   -39.5740    47.9330     6.9360     7.8520     9.5630     2.1800 
   69.1250   -39.3340    48.7270     6.9080     7.8230     9.4930     2.1720 
   69.2500   -39.0500    50.7800     6.9890     7.9080     9.5030     2.1800 
   69.3750   -38.7120    51.6940     7.0690     7.9930     9.4720     2.1880 
   69.5000   -38.3210    50.9010     7.1410     8.0700     9.2750     2.1860 
   69.6250   -37.8860    51.0530     7.2230     8.1560     8.8770     2.1890 
   69.7500   -37.4330    52.0770     7.3100     8.2480     8.4060     2.2020 
   69.8750   -37.0020    53.5270     7.3800     8.3220     8.0460     2.2250 
   70.0000   -36.6340    55.4530     7.4300     8.3760     7.7790     2.2440 
   70.1250   -36.3730    57.4820     7.4860     8.4350     7.8620     2.2530 
   70.2500   -36.2320    59.3780     7.5560     8.5090     8.7010     2.2700 
   70.3750   -36.2170    60.1400     7.5750     8.5300     9.7600     2.2900 
   70.5000   -36.2990    59.6020     7.5260     8.4780    10.1180     2.2790 
   70.6250   -36.4540    58.3470     7.3830     8.3260     9.9050     2.2320 
   70.7500   -36.6490    56.5540     7.2090     8.1410     9.2280     2.1840 
   70.8750   -36.8670    54.7180     7.0650     7.9890     8.7910     2.1530 
   71.0000   -37.0930    53.4660     7.0030     7.9230     9.5190     2.1420 
   71.1250   -37.3110    52.3440     7.0170     7.9380    10.3180     2.1580 
   71.2500   -37.4920    51.4020     7.1520     8.0810    10.5580     2.1830 
   71.3750   -37.5850    49.3830     7.4320     8.3770    10.6790     2.2050 
   71.5000   -37.5440    46.7840     7.7940     8.7620    10.5260     2.2490 
   71.6250   -37.3020    44.9910     8.1230     9.1100    10.8230     2.3240 
   71.7500   -36.8460    44.6040     8.2990     9.2970    12.2690     2.3680 
   71.8750   -36.1510    45.5090     8.0560     9.0400    12.2580     2.3240 
   72.0000   -35.2530    46.5520     7.4450     8.3920     9.7670     2.2440 
   72.1250   -34.1750    50.1090     6.5920     7.4870     7.8280     2.2210 
   72.2500   -32.9760    57.9530     5.7680     6.6140     6.9200     2.2640 
   72.3750   -31.7050    66.5570     5.2480     6.0630     5.8930     2.2930 
   72.5000   -30.4320    70.3840     4.9960     5.7960     5.5550     2.2630 
   72.6250   -29.2310    70.3250     4.9700     5.7690     6.2640     2.2340 
   72.7500   -28.1680    70.7490     5.0250     5.8260     6.6370     2.2470 
   72.8750   -27.3140    72.8960     5.0830     5.8880     6.0100     2.2650 
   73.0000   -26.6780    74.0250     5.1290     5.9370     5.5760     2.2470 
   73.1250   -26.2710    73.3740     5.1500     5.9580     5.8920     2.2240 
   73.2500   -26.0400    72.1540     5.2910     6.1090     6.4120     2.2320 
   73.3750   -25.9500    71.5610     5.5340     6.3660     6.5190     2.2400 
   73.5000   -25.9360    70.4460     5.7790     6.6260     6.6180     2.2190 
   73.6250   -25.9460    68.0790     5.9350     6.7910     7.1830     2.2010 
   73.7500   -25.9220    67.3460     5.8950     6.7480     6.8460     2.2130 
   73.8750   -25.8010    69.8190     5.5900     6.4260     5.8820     2.2390 
   74.0000   -25.5560    72.5800     5.1690     5.9790     5.6300     2.2630 
   74.1250   -25.1670    74.1030     4.7060     5.4880     5.1940     2.2920 
   74.2500   -24.6700    76.8810     4.3490     5.1090     4.4840     2.3200 
   74.3750   -24.1160    81.9510     4.1930     4.9450     4.3680     2.3190 
   74.5000   -23.5770    84.2030     4.1570     4.9060     4.7390     2.3000 
   74.6250   -23.1270    81.4100     4.1840     4.9350     5.1500     2.2960 
   74.7500   -22.8040    78.8650     4.2310     4.9850     5.0640     2.3060 
   74.8750   -22.6400    79.1920     4.2510     5.0060     4.7250     2.3060 
   75.0000   -22.6160    80.9320     4.2150     4.9680     4.6880     2.2970 
   75.1250   -22.7220    81.1980     4.1450     4.8940     4.6770     2.2920 
   75.2500   -22.9300    79.8980     4.0790     4.8240     4.5960     2.2890 
   75.3750   -23.2460    78.1030     4.0520     4.7950     4.5770     2.2780 
   75.5000   -23.6780    77.3070     4.1090     4.8550     4.7210     2.2650 
   75.6250   -24.2630    78.8650     4.3750     5.1380     5.0600     2.2470 
