~V
VERS. 2.00: Ver 2.00
~W
STRT.M 50.0000:
STOP.M 249.0000:
STEP.M 0.1250:
NULL. -999.2500:
UWI. FZI307:
~C
DEPT.M :
SP.MV :
GR.API :
RI. :
RML.OHMM :
RXO.OHMM :
DEN.GM/CC :
~A
# ...
  165.8750   -63.0510    48.7190    38.7630    40.4900    29.5790     2.2170 
  166.0000   -63.1210    49.8410    40.4760    42.4410    29.1660     2.2290 
  166.1250   -63.2280    47.9520    42.6760    44.9130    31.8330     2.2400 
  166.2500   -63.3410    46.6360    44.9970    47.3840    33.8430     2.2410 
  166.3750   -63.4340    47.6540    46.7070    49.1200    32.6820     2.2390 
  166.5000   -63.5270    47.9290    48.0700    50.4490    30.2290     2.2400 
  166.6250   -63.5860    46.6760    48.9250    51.2970    28.0530     2.2350 
  166.7500   -63.5010    45.5530    50.1940    52.7910    28.0040     2.2300 
  166.8750   -63.1140    45.5290    52.5060    55.5260    30.7170     2.2310 
  167.0000   -62.4340    45.8270    55.4520    59.1500    32.9990     2.2360 
  167.1250   -61.6110    46.4130    59.2880    63.8760    33.3710     2.2390 
  167.2500   -60.9520    46.5290    63.0500    68.5810    32.3790     2.2400 
  167.3750   -60.7140    45.6980    67.2750    73.6990    30.6100     2.2420 
  167.5000   -60.8550    44.6340    72.3990    79.9750    31.5840     2.2360 
  167.6250   -61.2350    43.7750    79.1290    88.5370    36.2370     2.2180 
  167.7500   -61.6400    43.6080    87.5740    99.2170    40.7040     2.2010 
  167.8750   -61.8160    44.5290    96.0150   110.0180    44.9100     2.1920 
  168.0000   -61.6450    45.2830   103.1470   118.9530    47.3470     2.1770 
  168.1250   -61.2100    43.8810   107.9840   125.1330    44.6610     2.1580 
  168.2500   -60.7080    41.6940   110.4120   128.5690    40.9400     2.1500 
  168.3750   -60.2060    40.8930   111.6600   130.4100    41.0870     2.1520 
  168.5000   -59.7180    40.4880   111.5690   129.1580    45.1360     2.1520 
  168.6250   -59.2570    39.5660   110.2470   125.5780    51.5230     2.1630 
  168.7500   -58.8180    39.3150   107.7310   120.4590    56.3730     2.1920 
  168.8750   -58.4070    38.6380   103.6160   113.5220    55.3990     2.2090 
  169.0000   -58.0340    37.4610    96.9230   104.4580    52.4780     2.2040 
  169.1250   -57.6410    36.9770    85.4570    90.4390    53.7580     2.1890 
  169.2500   -57.1990    38.3230    70.8590    73.4210    57.5570     2.1850 
  169.3750   -56.7480    39.8890    56.9490    58.0080    51.7000     2.2050 
  169.5000   -56.2400    41.0110    46.8080    47.4760    32.3400     2.2230 
  169.6250   -55.6050    41.8630    42.6800    43.6880    16.4440     2.2410 
  169.7500   -54.8810    42.9310    40.9480    42.4170    20.8020     2.2560 
  169.8750   -54.0050    44.3990    36.4620    37.8880    39.6670     2.2650 
  170.0000   -52.8220    45.4850    29.9140    31.0120    48.9150     2.2570 
  170.1250   -51.2010    44.6840    22.4560    22.9470    37.8490     2.2340 
  170.2500   -49.3090    43.1760    16.1580    16.2050    18.7340     2.2220 
  170.3750   -47.5100    44.3830    13.9290    14.0530    10.8860     2.2370 
  170.5000   -46.2170    47.9710    14.5700    14.8070    21.6020     2.2680 
  170.6250   -45.7390    49.4260    18.8910    19.9180    39.5860     2.3200 
  170.7500   -45.8760    46.2980    27.2640    29.5960    58.5680     2.4460 
  170.8750   -46.1530    42.0160    36.0630    38.9360    75.1100     2.5830 
  171.0000   -46.0310    40.8650    40.0230    42.8650    75.9520     2.6520 
  171.1250   -45.2450    41.8220    37.5830    39.6710    69.0720     2.6530 
  171.2500   -44.0700    42.4080    31.1620    32.6160    66.6150     2.6410 
  171.3750   -42.8440    42.8370    24.2520    25.9080    54.7820     2.6250 
  171.5000   -41.7880    44.6200    19.5270    21.3170    39.0930     2.6030 
  171.6250   -41.0270    47.5290    15.3580    16.9580    36.1740     2.5810 
  171.7500   -40.5250    51.1370    11.7830    13.1500    35.0160     2.5530 
  171.8750   -40.2210    53.4870     9.4390    10.7000    25.3510     2.5270 
  172.0000   -40.0730    54.1870     8.1730     9.4920    14.5010     2.5020 
  172.1250   -40.1080    52.9240     7.5740     9.0680    16.3520     2.4860 
  172.2500   -40.2340    50.3370     7.1720     8.8460    24.7460     2.5090 
  172.3750   -40.3000    46.9420     6.7750     8.4810    21.5010     2.5580 
  172.5000   -40.2210    44.1730     6.2270     7.7620    11.5640     2.5870 
  172.6250   -40.0760    43.3350     5.4810     6.7200     6.2490     2.5800 
  172.7500   -40.0050    44.6130     4.6940     5.6610     5.4050     2.5190 
  172.8750   -40.0560    46.0110     4.1620     5.0380     5.7040     2.4510 
  173.0000   -40.0990    44.4180     3.8850     4.7830     5.5720     2.4030 
  173.1250   -39.9050    40.0630     3.7920     4.7520     5.2410     2.3830 
  173.2500   -39.4070    37.9040     3.7450     4.7360     5.1240     2.3730 
  173.3750   -38.6640    39.1760     3.7200     4.7390     4.9350     2.3690 
  173.5000   -37.9630    40.5680     3.7480     4.8080     4.8720     2.3820 
  173.6250   -37.6400    40.5590     3.8160     4.9330     5.1040     2.4100 
  173.7500   -37.7320    40.1740     3.8230     4.9970     5.3020     2.4310 
  173.8750   -38.1060    39.8540     3.7180     4.9120     5.2910     2.4300 
  174.0000   -38.5360    39.6280     3.4760     4.6350     4.6390     2.4350 
  174.1250   -38.7840    40.1930     3.1340     4.2190     3.7770     2.4730 
  174.2500   -38.6600    40.4850     2.7820     3.7930     3.4450     2.5250 
  174.3750   -38.1660    39.5840     2.5140     3.5050     3.2490     2.5450 
  174.5000   -37.5780    39.2050     2.3580     3.3740     3.0540     2.5120 
  174.6250   -37.1430    40.4770     2.3350     3.4230     3.1370     2.4450 
  174.7500   -36.9950    42.5960     2.4200     3.6110     3.3530     2.3800 
  174.8750   -37.2400    46.1160     2.5840     3.8980     3.5350     2.3440 
  175.0000   -37.7640    51.3020     2.7840     4.2170     3.7600     2.3400 
  175.1250   -38.4480    57.5520     2.9960     4.5300     4.0910     2.3610 
  175.2500   -39.2520    62.7670     3.2220     4.8570     4.3210     2.3800 
  175.3750   -40.1580    66.7370     3.5030     5.2800     4.5440     2.3750 
  175.5000   -41.1550    70.0250     3.8280     5.8160     5.2720     2.3580 
  175.6250   -42.2310    71.6120     4.2620     6.5810     6.6800     2.3480 
  175.7500   -43.2990    71.9830     4.6640     7.3090     7.8080     2.3550 
  175.8750   -44.2970    72.0140     4.9080     7.7600     8.1290     2.3600 
  176.0000   -45.1980    72.9120     4.9910     7.9170     8.2410     2.3600 
  176.1250   -45.9170    72.7570     4.8820     7.7540     7.8980     2.3510 
  176.2500   -46.3250    70.7020     4.7120     7.5120     7.1650     2.3410 
  176.3750   -46.2820    67.6950     4.5710     7.3580     6.9060     2.3320 
  176.5000   -45.9050    67.1310     4.4630     7.2480     6.9350     2.3140 
  176.6250   -45.4430    69.5930     4.3800     7.1470     6.4590     2.2820 
  176.7500   -45.1290    71.0980     4.3000     7.0150     5.8460     2.2590 
  176.8750   -45.0750    69.7270     4.2430     6.9090     5.8520     2.2690 
  177.0000   -45.2350    66.9520     4.2020     6.8600     6.1230     2.2990 
  177.1250   -45.5530    65.8080     4.2180     6.9320     6.1360     2.3190 
  177.2500   -45.9060    65.0790     4.2330     6.9800     6.0300     2.3140 
  177.3750   -46.0810    63.2240     4.1810     6.8770     5.9000     2.2940 
  177.5000   -45.9810    61.1610     4.0260     6.5730     5.5000     2.2780 
  177.6250   -45.6400    58.8770     3.7630     6.0940     4.8410     2.2800 
  177.7500   -45.1590    54.6970     3.4950     5.6360     4.3900     2.3000 
  177.8750   -44.6720    48.3690     3.2490     5.2510     4.1910     2.3230 
  178.0000   -44.2970    42.2300     3.0600     4.9740     3.9600     2.3330 
  178.1250   -44.0100    38.2230     2.9420     4.8090     3.7800     2.3310 
  178.2500   -43.7060    36.4130     2.8510     4.6770     3.7340     2.3250 
  178.3750   -43.2720    37.6000     2.7900     4.5810     3.7120     2.3190 
  178.5000   -42.7230    39.3580     2.7600     4.5300     3.6540     2.3130 
  178.6250   -42.2130    38.7500     2.7570     4.5260     3.6230     2.3090 
