~V
VERS. 2.00: Ver 2.00
~W
STRT.M 50.0000:
STOP.M 249.0000:
STEP.M 0.1250:
NULL. -999.2500:
UWI. FZI307:
~C
DEPT.M :
SP.MV :
GR.API :
RI. :
RML.OHMM :
RXO.OHMM :
DEN.GM/CC :
~A
# ...
  101.5000   -49.2070    48.9350     6.4430     7.3950     8.0060     2.1050 
  101.6250   -49.6510    47.5220     6.3750     7.3050     7.3170     2.0830 
  101.7500   -49.7150    48.0040     6.3660     7.3550     6.5810     2.0970 
  101.8750   -49.3610    50.2930     6.4420     7.5860     7.0140     2.1300 
  102.0000   -48.8250    51.9550     6.5620     7.9020     7.9450     2.1450 
  102.1250   -48.2440    51.6740     6.6130     8.0940     8.2120     2.1410 
  102.2500   -47.6460    48.9060     6.4460     7.9490     8.1430     2.1360 
  102.3750   -46.9810    47.2890     6.0180     7.4100     8.1130     2.1390 
  102.5000   -46.1650    48.8900     5.4340     6.6730     7.5440     2.1590 
  102.6250   -45.1560    53.8920     4.9000     6.0040     6.3080     2.1940 
  102.7500   -44.0860    59.6430     4.5410     5.5550     5.4640     2.2230 
  102.8750   -43.2250    63.3070     4.4470     5.4190     5.3320     2.2260 
  103.0000   -42.8270    62.6350     4.5560     5.5270     5.6280     2.2060 
  103.1250   -43.0700    59.3670     4.8190     5.8300     6.2080     2.1770 
  103.2500   -43.8060    57.4150     5.1980     6.2510     6.7320     2.1470 
  103.3750   -44.7570    57.6540     5.5390     6.6280     7.1030     2.1280 
  103.5000   -45.6560    57.1300     5.8510     6.9600     7.2620     2.1240 
  103.6250   -46.2680    56.3430     6.0680     7.1900     7.1540     2.1320 
  103.7500   -46.3330    55.9180     6.1080     7.2070     7.0100     2.1370 
  103.8750   -45.7030    55.7770     5.9590     6.9740     6.9080     2.1350 
  104.0000   -44.5580    56.0000     5.6260     6.4960     6.7940     2.1440 
  104.1250   -43.1110    58.0210     5.1360     5.8540     6.2810     2.1780 
  104.2500   -41.7400    61.8770     4.5940     5.1880     5.4440     2.2270 
  104.3750   -40.7090    66.6210     4.1600     4.6920     4.8290     2.2720 
  104.5000   -40.0220    71.7930     3.8930     4.4370     4.2860     2.2890 
  104.6250   -39.6420    76.0590     3.8170     4.4260     4.1450     2.2740 
  104.7500   -39.4440    78.1370     3.8450     4.5310     4.4740     2.2520 
  104.8750   -39.2490    76.8230     3.8660     4.5910     4.5310     2.2500 
  105.0000   -38.9250    76.5090     3.8370     4.5530     4.2640     2.2660 
  105.1250   -38.4700    78.3920     3.7300     4.3940     3.9480     2.2840 
  105.2500   -37.9960    78.6820     3.5800     4.1960     3.8000     2.2990 
  105.3750   -37.6430    74.9520     3.4900     4.0880     3.9050     2.3130 
  105.5000   -37.4690    70.4110     3.5200     4.1530     3.9810     2.3210 
  105.6250   -37.4940    70.1470     3.6760     4.3700     3.9180     2.3070 
  105.7500   -37.6730    71.7220     3.8860     4.6470     4.3150     2.2780 
  105.8750   -38.0110    70.2750     4.0900     4.8910     5.0450     2.2530 
  106.0000   -38.4820    64.7660     4.2320     5.0430     5.1520     2.2500 
  106.1250   -39.0270    59.4950     4.2700     5.0700     4.8930     2.2600 
  106.2500   -39.5930    58.4030     4.2310     5.0160     4.7920     2.2670 
  106.3750   -40.2290    60.0280     4.1560     4.9470     4.7540     2.2520 
  106.5000   -41.0300    60.8310     4.2120     5.0750     4.8370     2.2300 
  106.6250   -42.0500    58.7120     4.4660     5.4470     5.0460     2.2410 
  106.7500   -43.1660    54.3300     4.8430     5.9580     6.5140     2.2740 
  106.8750   -44.0940    50.6000     5.2890     6.5150     9.2710     2.2660 
  107.0000   -44.6110    49.3480     5.7310     7.0140     9.7940     2.1990 
  107.1250   -44.7070    49.9300     6.0560     7.2860     7.9440     2.1360 
  107.2500   -44.6630    49.7230     6.2640     7.4530     6.9770     2.1210 
  107.3750   -44.7790    47.0890     6.4330     7.6030     7.0360     2.1350 
  107.5000   -45.1690    43.2430     6.5070     7.6960     7.3260     2.1470 
  107.6250   -45.7410    40.9120     6.6110     7.8590     7.8080     2.1560 
  107.7500   -46.2880    40.6790     6.6560     7.9290     7.7680     2.1590 
  107.8750   -46.6350    42.3430     6.5920     7.9080     7.0050     2.1600 
  108.0000   -46.6450    44.0520     6.4450     7.8410     6.3910     2.1600 
  108.1250   -46.2020    46.1100     6.1090     7.5150     6.2130     2.1660 
  108.2500   -45.4420    48.8700     5.4710     6.7470     6.2340     2.1860 
  108.3750   -44.4880    52.2530     4.6940     5.7520     6.1270     2.2340 
  108.5000   -43.4710    56.1350     3.9410     4.7430     5.3220     2.2860 
  108.6250   -42.5290    60.2470     3.4060     4.0600     4.1140     2.2980 
  108.7500   -41.7660    63.1880     3.2060     3.8460     3.5090     2.2600 
  108.8750   -41.4550    61.5010     3.2480     3.9890     4.0720     2.2020 
  109.0000   -41.8170    56.1990     3.5950     4.5560     5.3200     2.1660 
  109.1250   -42.8670    52.9180     4.2060     5.4100     6.0410     2.1620 
  109.2500   -44.1930    53.4560     4.9150     6.3030     6.2870     2.1620 
  109.3750   -45.4050    54.5310     5.6480     7.1490     7.0240     2.1720 
  109.5000   -46.3680    52.1060     6.5310     8.1630     7.9590     2.2360 
  109.6250   -47.0770    48.4210     7.4320     9.2010     8.7070     2.3710 
  109.7500   -47.5550    48.2970     8.1520    10.0050    10.5030     2.4910 
  109.8750   -47.8030    51.4810     8.3770    10.1780    12.1570     2.4910 
  110.0000   -47.8070    54.7970     7.9580     9.5830    10.8930     2.3760 
  110.1250   -47.4850    56.1100     7.2110     8.6530     8.6320     2.2360 
  110.2500   -46.9010    54.7510     6.4710     7.8230     7.5180     2.1560 
  110.3750   -46.2390    51.2710     6.0420     7.4530     7.3370     2.1460 
  110.5000   -45.7620    47.9470     5.9450     7.5110     7.6870     2.1610 
  110.6250   -45.7120    46.7370     6.1500     7.9090     7.8150     2.1750 
  110.7500   -46.0800    46.5270     6.4050     8.2560     7.8000     2.1820 
  110.8750   -46.6760    47.1400     6.5330     8.3360     7.8990     2.1800 
  111.0000   -47.1980    48.6210     6.5530     8.2460     8.0020     2.1710 
  111.1250   -47.3400    49.6390     6.4740     8.0420     7.9060     2.1610 
  111.2500   -47.0460    49.5590     6.3890     7.8680     7.6860     2.1640 
  111.3750   -46.4630    49.1520     6.3220     7.7550     7.6580     2.1750 
  111.5000   -45.8150    48.9230     6.2440     7.6350     7.6190     2.1750 
  111.6250   -45.2470    49.1960     6.1100     7.4440     7.3330     2.1560 
  111.7500   -44.8020    50.1450     5.8910     7.1300     7.1500     2.1460 
  111.8750   -44.3890    52.0730     5.4780     6.5790     7.0030     2.1680 
  112.0000   -43.8870    54.0840     4.9850     5.9520     6.3510     2.2070 
  112.1250   -43.2740    56.8410     4.4330     5.2960     5.5000     2.2380 
  112.2500   -42.6350    61.0690     3.9830     4.7820     4.9390     2.2530 
  112.3750   -42.0670    64.2990     3.7180     4.4890     4.4140     2.2550 
  112.5000   -41.7210    64.7620     3.5730     4.3400     4.2550     2.2480 
  112.6250   -41.7530    64.1780     3.5920     4.3970     4.7830     2.2460 
  112.7500   -42.1020    65.9070     3.6970     4.5400     5.0680     2.2520 
  112.8750   -42.6910    70.1510     3.8810     4.7620     4.9030     2.2450 
  113.0000   -43.4030    72.4700     4.1370     5.0520     5.0310     2.2130 
  113.1250   -44.0990    70.1810     4.4210     5.3720     5.5400     2.1760 
  113.2500   -44.6200    64.8280     4.7710     5.8040     6.0870     2.1590 
  113.3750   -44.8350    59.0380     5.1360     6.2550     6.5110     2.1590 
  113.5000   -44.7920    54.5130     5.4420     6.6110     6.8250     2.1560 
  113.6250   -44.6780    52.2030     5.6370     6.7940     7.0940     2.1440 
  113.7500   -44.7720    52.8940     5.7270     6.8500     7.2820     2.1420 
  113.8750   -45.2620    54.0400     5.7610     6.8520     7.4020     2.1560 
  114.0000   -46.0650    52.6670     5.7570     6.8420     7.3930     2.1740 
  114.1250   -46.9650    49.4110     5.7400     6.8340     7.2700     2.1790 
  114.2500   -47.6140    47.6230     5.7140     6.8140     7.2270     2.1740 
