~V
VERS. 2.00: Ver 2.00
~W
STRT.M 50.0000:
STOP.M 249.0000:
STEP.M 0.1250:
NULL. -999.2500:
UWI. FZI307:
~C
DEPT.M :
SP.MV :
GR.API :
RI. :
RML.OHMM :
RXO.OHMM :
DEN.GM/CC :
~A
# ...
  217.3750   -46.2220    58.8590    28.1540    31.5880    30.2830     2.2640 
  217.5000   -45.8200    57.5160    29.2190    32.8270    31.7220     2.2650 
  217.6250   -45.8750    57.4510    29.6560    33.3420    34.9830     2.2620 
  217.7500   -46.2980    57.3490    29.5140    33.1580    36.7530     2.2600 
  217.8750   -46.9250    55.1620    29.1890    32.7420    34.4000     2.2680 
  218.0000   -47.4000    52.1970    29.0540    32.6310    30.2610     2.2720 
  218.1250   -47.3930    50.6390    29.4580    33.2430    30.3490     2.2560 
  218.2500   -46.9790    49.8450    29.8080    33.7930    34.8710     2.2320 
  218.3750   -46.4300    50.1510    29.8050    33.8700    38.4250     2.2210 
  218.5000   -45.9800    51.4990    29.2600    33.1400    38.3520     2.2290 
  218.6250   -45.6450    52.2460    27.9270    31.4260    33.0460     2.2420 
  218.7500   -45.4020    51.4100    26.7470    29.9340    28.5750     2.2450 
  218.8750   -45.3820    49.9620    26.2750    29.4680    29.6050     2.2270 
  219.0000   -45.5290    48.8090    26.8140    30.3010    32.7010     2.2020 
  219.1250   -45.6560    47.6890    27.9840    31.9050    37.4090     2.1870 
  219.2500   -45.6800    47.6500    28.9680    33.1670    38.0150     2.1870 
  219.3750   -45.6860    49.4940    28.6440    32.6740    35.4680     2.2110 
  219.5000   -45.7980    51.0660    27.2040    30.8520    34.6710     2.2480 
  219.6250   -45.9220    50.2180    25.3720    28.5730    31.0540     2.2660 
  219.7500   -46.0530    47.7070    23.8090    26.7300    24.9220     2.2480 
  219.8750   -46.4020    45.0470    23.2480    26.1820    21.9760     2.2110 
  220.0000   -46.7070    43.1110    23.6590    26.7940    28.3590     2.1870 
  220.1250   -46.4940    42.4880    24.8270    28.2270    43.7350     2.1820 
  220.2500   -45.9160    42.5430    26.1400    29.6840    48.7550     2.1790 
  220.3750   -45.2990    41.5820    26.8980    30.3220    37.3280     2.1760 
  220.5000   -44.7510    40.0540    26.9870    30.1020    30.2150     2.1830 
  220.6250   -44.3610    39.6370    26.6010    29.4220    29.4730     2.2010 
  220.7500   -44.2260    39.4840    26.2790    28.9500    28.0250     2.2150 
  220.8750   -44.5280    39.9420    26.1340    28.8200    28.3130     2.2080 
  221.0000   -45.1320    41.1770    25.8670    28.6320    29.0070     2.1850 
  221.1250   -45.5440    42.1680    25.0970    27.9030    29.3430     2.1680 
  221.2500   -45.5610    42.6190    23.6860    26.4200    28.3090     2.1740 
  221.3750   -45.3190    44.4230    21.3240    23.8100    25.0830     2.2100 
  221.5000   -44.8720    47.5270    18.6170    20.8110    21.1520     2.2500 
  221.6250   -44.2790    49.9940    16.1390    18.0640    17.1480     2.2630 
  221.7500   -43.8980    51.3280    14.3790    16.1510    14.1130     2.2830 
  221.8750   -43.8630    51.5360    13.6120    15.3840    12.7690     2.3050 
  222.0000   -43.9020    49.6210    13.7650    15.6980    13.6820     2.3230 
  222.1250   -44.1090    47.1380    15.0150    17.2710    16.0730     2.3400 
  222.2500   -44.5420    46.6130    17.4320    20.1490    18.0180     2.3690 
  222.3750   -44.8620    47.0730    20.8180    24.1070    26.2510     2.4090 
  222.5000   -44.9510    46.0470    24.6200    28.5250    38.1250     2.4520 
  222.6250   -45.0050    42.6630    28.1820    32.6110    39.4820     2.4950 
  222.7500   -45.2580    40.0760    30.2700    34.8760    37.5730     2.5200 
  222.8750   -45.6170    39.7250    30.6080    35.1150    39.0530     2.5280 
  223.0000   -45.8690    40.4390    29.2490    33.3490    37.6790     2.5240 
  223.1250   -46.0060    40.9700    26.1130    29.6490    38.6610     2.5060 
  223.2500   -45.8160    40.6940    22.5750    25.5600    52.8260     2.4840 
  223.3750   -44.9850    39.6570    18.6240    20.9740    57.6200     2.4590 
  223.5000   -43.8290    37.8350    14.9370    16.7060    33.9630     2.4370 
  223.6250   -42.9880    36.0280    11.9480    13.3160    14.1140     2.4190 
  223.7500   -42.6990    34.6390     9.7530    10.8910     9.8780     2.3940 
  223.8750   -42.8420    34.5570     8.5060     9.6030     7.6130     2.3610 
  224.0000   -43.2260    37.0670     7.8030     8.9550     6.5990     2.3280 
  224.1250   -43.6040    40.3210     7.5550     8.7680     6.2660     2.3150 
  224.2500   -43.6910    41.4020     7.4270     8.6760     6.2650     2.3200 
  224.3750   -43.5760    40.7070     7.2820     8.4860     6.9440     2.3290 
  224.5000   -43.4800    41.4210     7.0650     8.1840     9.4480     2.3370 
  224.6250   -43.3850    42.9390     6.7420     7.7470    11.5490     2.3390 
  224.7500   -43.3490    43.5260     6.4270     7.3410     9.5210     2.3350 
  224.8750   -43.4010    43.6280     6.3060     7.2090     6.7390     2.3280 
  225.0000   -43.4610    45.3870     6.4140     7.3580     5.9180     2.3180 
  225.1250   -43.4620    48.1020     6.7560     7.7990     6.0340     2.3180 
  225.2500   -43.3270    48.0240     7.2960     8.5120     6.6680     2.3360 
  225.3750   -43.0830    45.2470     8.0710     9.5310     7.6570     2.3650 
  225.5000   -42.9330    41.9270     8.8690    10.5620     9.1230     2.3960 
  225.6250   -42.9740    42.0980     9.4170    11.2650    10.6960     2.4290 
  225.7500   -43.1570    44.6430     9.6210    11.5240    11.2050     2.4630 
  225.8750   -43.4720    47.1680     9.5010    11.3750    10.4070     2.4720 
  226.0000   -43.8410    47.9900     9.2620    11.1080    10.3480     2.4700 
  226.1250   -44.2910    47.2910     9.1060    10.9800    11.4460     2.4670 
  226.2500   -44.7080    46.4980     9.0920    11.0710    11.4890     2.4580 
  226.3750   -44.7950    45.2880     9.2390    11.3890    10.3370     2.4400 
  226.5000   -44.5310    42.8800     9.4270    11.7580     9.5700     2.4250 
  226.6250   -44.0440    41.8060     9.5620    12.0280     9.5200     2.4180 
  226.7500   -43.5470    43.4320     9.5870    12.1470    10.0080     2.4220 
  226.8750   -43.2750    46.3330     9.5460    12.1980    10.7360     2.4290 
  227.0000   -43.3320    48.4060     9.4500    12.1740    11.4590     2.4310 
  227.1250   -43.6140    49.3610     9.3920    12.2250    12.4430     2.4210 
  227.2500   -43.9730    50.8520     9.4060    12.3300    12.4180     2.4120 
  227.3750   -44.3370    54.0780     9.4990    12.4850    10.6910     2.4180 
  227.5000   -44.5580    57.1280     9.7080    12.7460    10.6340     2.4350 
  227.6250   -44.6410    56.5000    10.1380    13.2960    12.9230     2.4500 
  227.7500   -44.7560    52.4570    10.8010    14.1500    15.4820     2.4590 
  227.8750   -44.7870    48.2250    11.5790    15.1330    19.4180     2.4600 
  228.0000   -44.7760    47.0280    12.3220    16.0460    21.7540     2.4610 
  228.1250   -44.9570    48.8310    12.7910    16.5200    20.7920     2.4660 
  228.2500   -45.3540    50.3130    12.9120    16.5310    20.4540     2.4700 
  228.3750   -45.7150    49.0220    12.6890    16.1660    19.3800     2.4590 
  228.5000   -45.9290    45.8040    12.1980    15.5060    16.1480     2.4400 
  228.6250   -46.2250    44.3460    11.5500    14.7440    13.4720     2.4280 
  228.7500   -46.4600    44.7140    10.8600    13.9390    13.9890     2.4250 
  228.8750   -46.3130    44.8640    10.1510    13.0720    15.9940     2.4260 
  229.0000   -45.8540    44.5330     9.4560    12.2010    15.5900     2.4270 
  229.1250   -45.2300    44.9580     8.8930    11.4720    15.1200     2.4270 
  229.2500   -44.8880    45.8620     8.5860    11.0800    16.4860     2.4210 
  229.3750   -44.8360    45.7850     8.4950    10.9600    16.3910     2.4110 
  229.5000   -44.7940    45.3790     8.5230    10.9550    14.1460     2.4100 
  229.6250   -44.4850    45.4750     8.6700    11.0700    12.3390     2.4230 
  229.7500   -43.5830    46.1230     8.9630    11.3500    11.5840     2.4400 
  229.8750   -42.5640    46.4560     9.3950    11.8150    11.9050     2.4470 
  230.0000   -42.0040    46.2620     9.8810    12.3570    13.8640     2.4480 
  230.1250   -42.0090    46.5990    10.4180    12.9730    18.1820     2.4500 
