~V
VERS. 2.00: Ver 2.00
~W
STRT.M 50.0000:
STOP.M 261.0000:
STEP.M 0.1250:
NULL. -999.2500:
UWI. FZI308:
~C
DEPT.M :
SP.MV :
GR.API :
RI. :
RML.OHMM :
RXO.OHMM :
DEN.GM/CC :
~A
# ...
   88.6250   -32.1650    49.8570     7.6410     8.6000     9.9460     2.2240 
   88.7500   -32.1390    52.8940     7.5690     8.5230    10.0950     2.2100 
   88.8750   -31.9780    52.0360     7.1820     8.1130     9.8670     2.2360 
   89.0000   -31.6300    49.4240     6.5070     7.3970     9.2660     2.2800 
   89.1250   -31.0380    49.6220     5.7090     6.5520     7.8700     2.3090 
   89.2500   -30.2190    53.6320     4.9990     5.7990     5.9460     2.3100 
   89.3750   -29.2050    59.6470     4.5910     5.3670     5.1240     2.2960 
   89.5000   -28.1070    65.7460     4.4890     5.2580     5.5470     2.2820 
   89.6250   -27.0500    71.6130     4.6400     5.4190     6.0040     2.2650 
   89.7500   -26.1510    75.1420     4.9110     5.7050     6.0050     2.2520 
   89.8750   -25.5160    71.9790     5.1940     6.0050     6.2170     2.2480 
   90.0000   -25.1520    64.7550     5.3650     6.1870     6.8340     2.2390 
   90.1250   -25.0560    60.6140     5.3980     6.2220     7.1760     2.2210 
   90.2500   -25.1540    62.2150     5.3310     6.1510     7.4290     2.2190 
   90.3750   -25.3960    64.8490     5.2320     6.0460     7.6700     2.2480 
   90.5000   -25.7240    62.9910     5.1780     5.9890     7.3450     2.2670 
   90.6250   -26.1140    60.3270     5.2120     6.0250     6.6040     2.2380 
   90.7500   -26.5540    60.0300     5.3830     6.2060     6.7940     2.1960 
   90.8750   -27.0490    58.4220     5.8280     6.6770     8.0020     2.1830 
   91.0000   -27.5930    53.5870     6.5170     7.4080     8.5640     2.1900 
   91.1250   -28.1710    48.9800     7.4140     8.3580     9.7660     2.2050 
   91.2500   -28.7420    47.8200     8.2650     9.2610    15.4540     2.2310 
   91.3750   -29.2520    48.8260     8.8940     9.9280    21.9850     2.2600 
   91.5000   -29.6660    49.9580     9.1890    10.2400    19.9640     2.2730 
   91.6250   -29.9500    51.0280     9.1340    10.1820    13.8730     2.2740 
   91.7500   -30.1160    50.2940     8.8250     9.8550    12.9320     2.2750 
   91.8750   -30.1640    48.1520     8.4060     9.4100    13.0950     2.2660 
   92.0000   -30.1090    47.7550     7.9430     8.9200    11.3670     2.2420 
   92.1250   -29.9330    49.1220     7.4320     8.3780    10.1560     2.2310 
   92.2500   -29.6270    50.1740     6.7500     7.6550     9.5910     2.2570 
   92.3750   -29.1640    50.5090     5.9230     6.7790     8.7030     2.3000 
   92.5000   -28.5530    52.3850     5.1990     6.0110     7.2210     2.3130 
   92.6250   -27.8100    57.0810     4.6170     5.3940     6.2470     2.2830 
   92.7500   -27.0030    63.1060     4.3200     5.0800     5.9900     2.2420 
   92.8750   -26.2200    67.1810     4.3220     5.0810     5.7020     2.2140 
   93.0000   -25.5590    68.7910     4.5440     5.3170     5.7300     2.2080 
   93.1250   -25.1290    67.9420     4.9340     5.7300     6.2860     2.2260 
   93.2500   -24.9740    64.6020     5.4110     6.2360     7.0370     2.2500 
   93.3750   -25.1290    62.0630     5.8410     6.6910     7.9580     2.2530 
   93.5000   -25.5380    62.9160     6.2200     7.0930     8.8330     2.2410 
   93.6250   -26.1530    64.9930     6.4940     7.3840     9.2840     2.2320 
   93.7500   -26.8830    64.8050     6.6290     7.5260     9.2920     2.2290 
   93.8750   -27.6650    62.3410     6.6540     7.5530     9.2060     2.2240 
   94.0000   -28.4450    58.7840     6.6140     7.5100     9.2340     2.2150 
   94.1250   -29.1840    53.1250     6.5330     7.4250     9.1540     2.2080 
   94.2500   -29.8620    48.6120     6.4510     7.3390     9.0480     2.2050 
   94.3750   -30.4550    48.3580     6.3970     7.2810     9.1930     2.2050 
   94.5000   -30.9560    50.2530     6.3830     7.2660     9.2750     2.2100 
   94.6250   -31.3520    51.1330     6.4350     7.3210     9.1210     2.2230 
   94.7500   -31.6500    51.5040     6.5360     7.4280     9.1330     2.2440 
   94.8750   -31.8490    51.1240     6.6410     7.5390     9.3390     2.2700 
   95.0000   -31.9610    51.7370     6.6690     7.5690     9.4820     2.2800 
   95.1250   -31.9850    52.8600     6.5560     7.4500     9.2060     2.2560 
   95.2500   -31.9270    53.1440     6.2590     7.1340     8.5220     2.2230 
   95.3750   -31.7820    52.8300     5.8430     6.6940     7.7190     2.2130 
   95.5000   -31.5650    53.8670     5.4530     6.2800     6.6560     2.2250 
   95.6250   -31.2920    56.0890     5.2100     6.0230     6.0080     2.2430 
   95.7500   -31.0100    58.1500     5.1830     5.9940     6.1880     2.2530 
   95.8750   -30.7790    59.8750     5.3710     6.1930     6.7140     2.2470 
   96.0000   -30.6470    60.0580     5.6760     6.5170     7.3980     2.2310 
   96.1250   -30.6520    57.3960     6.0090     6.8690     7.5700     2.2210 
   96.2500   -30.7660    53.5960     6.2380     7.1120     7.4430     2.2190 
   96.3750   -30.9320    50.8310     6.3100     7.1880     7.7180     2.2120 
   96.5000   -31.0610    49.7050     6.2860     7.1630     8.0120     2.1950 
   96.6250   -31.0620    49.3330     6.2370     7.1120     8.1440     2.1840 
   96.7500   -30.8880    48.9750     6.2580     7.1340     8.1920     2.1830 
   96.8750   -30.4970    48.9050     6.4540     7.3410     8.2900     2.1870 
   97.0000   -29.9020    50.3100     6.8270     7.7370     8.6170     2.2130 
   97.1250   -29.0870    52.5900     7.0740     7.9990     9.9870     2.2930 
   97.2500   -28.0770    53.6460     6.9840     7.9030    15.7150     2.3910 
   97.3750   -26.8690    54.5900     6.4690     7.3570    20.7240     2.4220 
   97.5000   -25.5080    58.2380     5.5680     6.4020    15.6430     2.3720 
   97.6250   -24.0420    65.1850     4.6970     5.4790     7.5900     2.3120 
   97.7500   -22.5570    72.9870     3.9950     4.7350     4.7460     2.3000 
   97.8750   -21.1510    79.2420     3.5630     4.2760     4.1590     2.3210 
   98.0000   -19.9020    83.4310     3.4270     4.1330     3.8650     2.3260 
   98.1250   -18.8850    86.9570     3.5110     4.2220     4.1950     2.3060 
   98.2500   -18.1100    88.2240     3.6730     4.3930     4.6370     2.2890 
   98.3750   -17.5940    85.7990     3.8680     4.6000     4.6140     2.2890 
   98.5000   -17.2890    81.7750     3.9910     4.7310     4.6630     2.2980 
   98.6250   -17.1680    77.5730     3.9820     4.7210     4.9330     2.3150 
   98.7500   -17.1650    75.4740     3.8710     4.6030     4.8570     2.3400 
   98.8750   -17.2380    76.2990     3.7850     4.5120     4.4770     2.3550 
   99.0000   -17.3400    79.0190     3.9760     4.7140     4.2780     2.3540 
   99.1250   -17.4530    79.1520     4.4720     5.2410     4.7800     2.3620 
   99.2500   -17.5780    76.9030     5.1180     5.9250     7.6510     2.3970 
   99.3750   -17.7380    75.1220     5.7630     6.6080    12.1620     2.4150 
   99.5000   -17.9520    73.6980     6.0200     6.8810    12.5700     2.3690 
   99.6250   -18.2380    69.8970     5.8150     6.6640     8.7370     2.2750 
   99.7500   -18.5810    67.5640     5.3070     6.1260     6.5120     2.2240 
   99.8750   -18.9520    70.2430     4.7420     5.5260     6.0650     2.2520 
  100.0000   -19.3070    75.6940     4.3990     5.1630     5.3310     2.2950 
  100.1250   -19.6050    79.9000     4.3170     5.0760     4.9570     2.2880 
  100.2500   -19.8390    81.3260     4.4320     5.1980     5.0850     2.2450 
  100.3750   -20.0260    80.2440     4.6110     5.3880     5.3230     2.2060 
  100.5000   -20.2150    76.8220     4.8780     5.6710     5.6660     2.1900 
  100.6250   -20.4590    74.3560     5.2060     6.0190     5.9440     2.1850 
  100.7500   -20.7880    72.0630     5.5040     6.3350     6.1630     2.1770 
  100.8750   -21.2040    69.4080     5.7140     6.5570     6.6770     2.1780 
  101.0000   -21.6610    66.6560     5.7630     6.6090     6.8540     2.1960 
  101.1250   -22.0890    66.9280     5.6210     6.4580     6.2950     2.2300 
  101.2500   -22.4250    70.8570     5.3730     6.1950     5.6920     2.2570 
  101.3750   -22.6120    74.2870     5.1150     5.9210     5.4920     2.2540 
