~V
VERS. 2.00: Ver 2.00
~W
STRT.M 50.0000:
STOP.M 249.0000:
STEP.M 0.1250:
NULL. -999.2500:
UWI. FZI307:
~C
DEPT.M :
SP.MV :
GR.API :
RI. :
RML.OHMM :
RXO.OHMM :
DEN.GM/CC :
~A
# ...
   75.7500   -39.6890    62.4990     4.5140     6.8130     5.0680     2.2590 
   75.8750   -37.9080    67.2830     4.1670     6.1070     4.4860     2.2640 
   76.0000   -36.6980    69.4340     4.0050     5.6520     4.4270     2.2460 
   76.1250   -36.4180    69.0840     4.1020     5.5780     4.5700     2.2140 
   76.2500   -36.9160    66.7930     4.4050     5.8280     5.1170     2.1920 
   76.3750   -37.9140    65.0390     4.9550     6.3850     5.7280     2.1800 
   76.5000   -38.9810    64.2960     5.5530     7.0790     5.7920     2.1810 
   76.6250   -39.8130    61.5220     6.1220     7.7680     6.4060     2.1990 
   76.7500   -40.3400    56.9510     6.5920     8.2940     7.2530     2.2200 
   76.8750   -40.5600    54.5320     6.8050     8.4990     7.2080     2.2180 
   77.0000   -40.5300    55.6860     6.7980     8.4330     6.9910     2.2040 
   77.1250   -40.2800    57.2970     6.5410     8.0950     6.9880     2.2080 
   77.2500   -39.8770    56.4270     6.0810     7.5460     6.8680     2.2300 
   77.3750   -39.3340    54.9720     5.5770     6.9510     6.4450     2.2460 
   77.5000   -38.7050    55.0500     5.0920     6.3490     6.0480     2.2490 
   77.6250   -38.0960    57.8810     4.6760     5.7880     5.6970     2.2410 
   77.7500   -37.6440    61.9140     4.3310     5.2370     5.1930     2.2270 
   77.8750   -37.5250    64.6510     4.1520     4.7980     4.9640     2.2230 
   78.0000   -37.7770    65.7370     4.4470     4.9030     5.1700     2.2320 
   78.1250   -38.4330    64.5870     5.6580     6.2400     5.5870     2.2550 
   78.2500   -39.4160    61.4920     7.5740     8.6920    10.6850     2.3120 
   78.3750   -40.6430    56.3910    10.0620    12.0790    43.4190     2.3870 
   78.5000   -41.9430    50.4980    12.1160    14.8180    80.8360     2.4820 
   78.6250   -43.1490    45.6890    12.5870    15.2480    64.6380     2.4930 
   78.7500   -44.2270    42.9200    11.5650    13.6260    25.2490     2.3700 
   78.8750   -45.1970    42.0860     9.5070    10.7340    10.2620     2.2360 
   79.0000   -46.1140    41.7720     7.6100     8.3590     8.7770     2.1500 
   79.1250   -47.0540    42.1820     6.6580     7.3330     8.6780     2.1460 
   79.2500   -48.0390    43.7580     6.4880     7.2250     8.8600     2.1680 
   79.3750   -49.0250    46.2620     6.6780     7.4730     9.0590     2.1720 
   79.5000   -49.8560    48.4360     6.9240     7.7360     9.0190     2.1580 
   79.6250   -50.2590    49.0330     7.1260     7.9250     8.9400     2.1490 
   79.7500   -50.1390    48.8280     7.2010     7.9700     9.0110     2.1490 
   79.8750   -49.5850    48.3720     7.1580     7.8970     8.9390     2.1490 
   80.0000   -48.8500    47.5880     7.0420     7.7520     8.6180     2.1570 
   80.1250   -48.0850    46.0130     6.8680     7.5710     8.2460     2.1830 
   80.2500   -47.3680    46.4890     6.6980     7.4030     8.0170     2.2040 
   80.3750   -46.7050    50.2120     6.5260     7.2730     8.0160     2.1920 
   80.5000   -46.0560    54.7530     6.3850     7.1840     8.2230     2.1580 
   80.6250   -45.4630    57.2750     6.2340     7.0420     8.4960     2.1390 
   80.7500   -45.0260    56.1960     6.0990     6.8990     8.4970     2.1440 
   80.8750   -44.8150    53.1720     6.0430     6.8800     8.4020     2.1550 
   81.0000   -44.8210    52.3930     6.0890     7.0300     8.1470     2.1620 
   81.1250   -45.0710    55.5600     6.2510     7.3270     7.9520     2.1640 
   81.2500   -45.5440    57.0200     6.5000     7.6510     8.7170     2.1570 
   81.3750   -46.2550    54.3870     6.7690     7.9230     9.6710     2.1420 
   81.5000   -47.1240    50.6580     6.9650     8.0660     9.9400     2.1250 
   81.6250   -47.9020    48.3090     7.0640     8.1340     9.9680     2.1110 
   81.7500   -48.2480    47.1100     7.1950     8.2700     9.8960     2.1270 
   81.8750   -47.9490    46.8960     7.3580     8.4540    10.0750     2.1800 
   82.0000   -47.2370    47.5290     7.6480     8.8280    10.4640     2.2270 
   82.1250   -46.4580    48.6140     8.0340     9.3660    10.0970     2.2300 
   82.2500   -45.9250    50.9560     8.3080     9.7850     9.3410     2.2070 
   82.3750   -45.8500    54.1720     8.3330     9.8300     9.0980     2.1820 
   82.5000   -46.1560    55.8940     8.0810     9.4660     9.3870     2.1570 
   82.6250   -46.6600    56.1390     7.6580     8.8310     9.7780     2.1320 
   82.7500   -47.1300    55.0320     7.2010     8.2220     9.7790     2.1190 
   82.8750   -47.3910    53.7050     6.9440     7.9920     9.4360     2.1130 
   83.0000   -47.4120    53.2550     6.8360     7.9860     9.1570     2.1000 
   83.1250   -47.2600    53.8230     6.8310     8.0820     9.1170     2.0900 
   83.2500   -47.0890    53.9250     6.8740     8.1550     9.0690     2.1060 
   83.3750   -47.0190    52.6180     6.8370     8.0620     8.8040     2.1500 
   83.5000   -47.1030    50.3970     6.7480     7.8890     8.4310     2.1780 
   83.6250   -47.3360    48.4470     6.6630     7.7210     8.0900     2.1580 
   83.7500   -47.6570    48.2930     6.6370     7.6340     8.1220     2.1230 
   83.8750   -48.0710    49.8480     6.7140     7.6960     8.7240     2.1130 
   84.0000   -48.5360    49.7240     6.8430     7.8140     9.1720     2.1320 
   84.1250   -48.9810    46.6370     6.9240     7.8930     9.0460     2.1470 
   84.2500   -49.3840    43.5290     6.9090     7.8820     8.8740     2.1390 
   84.3750   -49.6930    43.5670     6.8050     7.7890     8.7660     2.1330 
   84.5000   -49.9020    45.2150     6.7090     7.7410     8.5640     2.1510 
   84.6250   -50.1090    46.8840     6.7380     7.8600     8.5000     2.1790 
   84.7500   -50.3280    46.8480     6.8880     8.0900     8.8330     2.1860 
   84.8750   -50.4150    46.4540     7.0720     8.3380     9.2380     2.1740 
   85.0000   -50.2340    45.3770     7.2410     8.5260     9.1950     2.1750 
   85.1250   -49.7580    43.5850     7.3500     8.6120     8.9670     2.1850 
   85.2500   -49.1630    42.7610     7.3750     8.5870     8.8620     2.1780 
   85.3750   -48.7200    44.1060     7.3340     8.4610     8.8520     2.1570 
   85.5000   -48.6420    46.0760     7.2420     8.3000     9.1260     2.1540 
   85.6250   -48.9610    45.9820     7.1040     8.1290     9.4930     2.1570 
   85.7500   -49.4670    45.5490     6.9420     7.9670     9.3490     2.1450 
   85.8750   -49.9130    45.8520     6.7900     7.8710     8.7540     2.1490 
   86.0000   -50.0730    45.2010     6.6820     7.8470     8.4300     2.1850 
   86.1250   -49.8370    43.4380     6.7310     8.0340     8.6190     2.2050 
   86.2500   -49.3510    43.5850     6.9340     8.4260     8.8390     2.1790 
   86.3750   -48.7690    45.7840     7.2490     8.9440     8.9140     2.1460 
   86.5000   -48.1560    46.9450     7.5070     9.3550     9.2020     2.1490 
   86.6250   -47.5210    46.2270     7.4460     9.3050     9.7980     2.1830 
   86.7500   -46.8360    45.2190     7.0750     8.8170     9.9150     2.2180 
   86.8750   -46.0100    46.6920     6.4630     8.0010     8.7110     2.2380 
   87.0000   -45.0210    50.8020     5.8120     7.1570     6.9250     2.2430 
   87.1250   -43.9600    56.2620     5.3420     6.5940     5.9450     2.2270 
   87.2500   -43.0620    58.7350     5.1190     6.3900     6.0100     2.2060 
   87.3750   -42.6650    58.1520     5.1770     6.5490     6.4920     2.1960 
   87.5000   -42.8600    56.7400     5.3860     6.8670     6.7340     2.1940 
   87.6250   -43.4860    55.0480     5.6250     7.1630     6.7500     2.1900 
   87.7500   -44.2360    53.8290     5.7790     7.2580     6.8220     2.1860 
   87.8750   -44.8890    54.1940     5.8410     7.1840     6.8440     2.1820 
   88.0000   -45.2190    55.2820     5.8350     6.9950     6.7830     2.1770 
   88.1250   -45.0380    55.5920     5.8050     6.8170     6.7010     2.1740 
   88.2500   -44.4260    54.7600     5.7610     6.7180     6.5730     2.1750 
   88.3750   -43.5860    53.6510     5.7070     6.6580     6.5050     2.1670 
   88.5000   -42.8060    52.6200     5.6620     6.7000     6.4580     2.1570 
