~V
VERS. 2.00: Ver 2.00
~W
STRT.M 50.0000:
STOP.M 261.0000:
STEP.M 0.1250:
NULL. -999.2500:
UWI. FZI308:
~C
DEPT.M :
SP.MV :
GR.API :
RI. :
RML.OHMM :
RXO.OHMM :
DEN.GM/CC :
~A
# ...
  204.5000    -6.7610    50.4900    38.9680    41.8060    34.8690     2.1850 
  204.6250    -6.8890    52.5270    38.4080    41.2120    34.4950     2.1880 
  204.7500    -6.9910    54.1410    37.9810    40.7600    34.3360     2.1960 
  204.8750    -7.0680    54.8390    38.0520    40.8350    34.0400     2.2000 
  205.0000    -7.1260    55.1430    38.7090    41.5320    33.5590     2.1900 
  205.1250    -7.1750    55.7610    40.0140    42.9150    33.2430     2.1670 
  205.2500    -7.2220    55.3630    42.1120    45.1390    33.8720     2.1500 
  205.3750    -7.2720    53.6920    44.7710    47.9570    40.5210     2.1850 
  205.5000    -7.3210    52.4540    47.9570    51.3340   156.8430     2.2830 
  205.6250    -7.3570    54.1020    50.2960    53.8140   288.4140     2.3790 
  205.7500    -7.3620    57.5330    50.1840    53.6950   198.8140     2.4040 
  205.8750    -7.3120    60.4760    47.7280    51.0920   101.5500     2.3470 
  206.0000    -7.1960    59.0500    43.4860    46.5950   127.1580     2.2750 
  206.1250    -6.9980    54.3400    39.9610    42.8590    98.5540     2.2310 
  206.2500    -6.7220    49.4980    39.4050    42.2690    44.9980     2.2240 
  206.3750    -6.3590    47.7250    44.2060    47.3590    34.4500     2.2740 
  206.5000    -5.9090    48.1110    52.2780    55.9140    62.9050     2.3860 
  206.6250    -5.3600    50.0780    52.4930    56.1420   149.3500     2.5320 
  206.7500    -4.7150    51.9600    43.0250    46.1060   227.9370     2.6330 
  206.8750    -3.9820    51.8500    27.2490    29.3840   189.5070     2.6250 
  207.0000    -3.2030    51.0980    11.0190    12.1800    81.3170     2.5290 
  207.1250    -2.4370    50.2630     5.0550     5.8580    16.4170     2.4010 
  207.2500    -1.7510    49.3550     3.3660     4.0680     3.0930     2.3000 
  207.3750    -1.2220    49.4990     2.9870     3.6670     3.2660     2.2580 
  207.5000    -0.8770    52.8840     3.4020     4.1060     3.6330     2.2570 
  207.6250    -0.7360    58.5250     4.5580     5.3320     6.0440     2.2810 
  207.7500    -0.7510    61.7270     6.0310     6.8930     9.8720     2.3120 
  207.8750    -0.8750    64.2020     7.4230     8.3690    11.0130     2.3310 
  208.0000    -1.0320    69.6920     8.2160     9.2090     9.4930     2.3340 
  208.1250    -1.1680    75.6400     8.4560     9.4640     8.0860     2.3350 
  208.2500    -1.2510    77.1720     8.3790     9.3820     7.2770     2.3440 
  208.3750    -1.2780    73.6190     8.4100     9.4140     7.2700     2.3470 
  208.5000    -1.2700    69.6550     8.7190     9.7420     8.0560     2.3380 
  208.6250    -1.2550    66.5600     9.1020    10.1480     8.9990     2.3260 
  208.7500    -1.2520    64.5340     9.2580    10.3130    11.4930     2.3300 
  208.8750    -1.2670    64.1930     9.1820    10.2330    14.3650     2.3500 
  209.0000    -1.2930    63.6820     8.9410     9.9780    13.0090     2.3610 
  209.1250    -1.3190    62.0540     8.8210     9.8500     9.5590     2.3510 
  209.2500    -1.3420    62.1750     9.0520    10.0960    10.8030     2.3330 
  209.3750    -1.3670    64.7990     9.6530    10.7320    15.9660     2.3240 
  209.5000    -1.4040    67.7250    10.6060    11.7420    18.2680     2.3230 
  209.6250    -1.4570    67.1090    11.7210    12.9240    17.7700     2.3200 
  209.7500    -1.5220    63.7810    12.7980    14.0660    18.0310     2.3150 
  209.8750    -1.5880    61.9880    13.7880    15.1150    18.8230     2.3140 
  210.0000    -1.6390    63.7220    14.6050    15.9810    19.3720     2.3090 
  210.1250    -1.6650    66.5140    15.3140    16.7330    19.1510     2.3010 
  210.2500    -1.6680    63.4670    15.8850    17.3380    18.9290     2.2970 
  210.3750    -1.6530    57.2740    16.5610    18.0550    19.3940     2.2950 
  210.5000    -1.6300    55.9750    17.3750    18.9180    19.7220     2.2850 
  210.6250    -1.6050    59.8340    18.2180    19.8120    21.5060     2.2700 
  210.7500    -1.5790    60.7690    19.0370    20.6790    24.4960     2.2640 
  210.8750    -1.5450    56.8330    19.7080    21.3910    23.7120     2.2690 
  211.0000    -1.4960    55.4080    20.0790    21.7840    20.6790     2.2720 
  211.1250    -1.4270    57.5150    19.8850    21.5780    19.9940     2.2670 
  211.2500    -1.3380    59.3780    19.4660    21.1340    21.1770     2.2620 
  211.3750    -1.2330    61.3750    19.3020    20.9600    22.5770     2.2610 
  211.5000    -1.1210    65.8880    19.8770    21.5700    21.8950     2.2580 
  211.6250    -1.0090    68.8370    21.4830    23.2720    25.7580     2.2620 
  211.7500    -0.9020    65.6520    23.6880    25.6090    33.5460     2.2910 
  211.8750    -0.8030    59.0130    26.1510    28.2200    31.6260     2.3350 
  212.0000    -0.7140    55.4150    27.9710    30.1500    25.4320     2.3560 
  212.1250    -0.6350    56.1640    28.3830    30.5860    24.0770     2.3280 
  212.2500    -0.5660    56.9700    27.4690    29.6170    25.3740     2.2810 
  212.3750    -0.5080    57.2790    25.8920    27.9460    25.6360     2.2550 
  212.5000    -0.4610    58.4770    24.7410    26.7260    23.3580     2.2560 
  212.6250    -0.4230    60.2200    24.2690    26.2250    20.7400     2.2720 
  212.7500    -0.3900    61.0990    24.4310    26.3970    21.1280     2.2920 
  212.8750    -0.3570    60.8100    25.0410    27.0440    25.2440     2.3040 
  213.0000    -0.3210    59.8640    26.0920    28.1570    27.5310     2.2930 
  213.1250    -0.2800    60.6340    26.9100    29.0250    25.8620     2.2670 
  213.2500    -0.2390    63.5380    27.2450    29.3800    25.1490     2.2460 
  213.3750    -0.2050    65.7410    26.6590    28.7580    25.3420     2.2400 
  213.5000    -0.1820    64.2340    25.4430    27.4700    23.0970     2.2390 
  213.6250    -0.1750    62.5130    24.3270    26.2870    20.6340     2.2450 
  213.7500    -0.1810    64.5330    23.5060    25.4160    19.6980     2.2520 
  213.8750    -0.1980    66.4570    23.4410    25.3470    20.6380     2.2510 
  214.0000    -0.2220    65.6550    24.3730    26.3360    24.0780     2.2480 
  214.1250    -0.2530    63.2380    26.9870    29.1060    26.7640     2.2500 
  214.2500    -0.2930    63.1500    31.2650    33.6410    29.6440     2.2510 
  214.3750    -0.3440    63.8310    37.2320    39.9660    38.4620     2.2530 
  214.5000    -0.4110    64.3490    44.8620    48.0540    50.5320     2.2620 
  214.6250    -0.4980    63.8250    52.7420    56.4070    61.7460     2.2740 
  214.7500    -0.6000    61.5210    61.2030    65.3750    70.0600     2.2750 
  214.8750    -0.7150    57.6380    69.0260    73.6680    75.4480     2.2630 
  215.0000    -0.8350    55.3410    76.3620    81.4440    86.1160     2.2470 
  215.1250    -0.9510    56.0760    83.9960    89.5360   103.3040     2.2370 
  215.2500    -1.0570    57.4120    90.7210    96.6650   115.1640     2.2380 
  215.3750    -1.1470    57.2640    94.9980   101.1980   118.1550     2.2450 
  215.5000    -1.2200    56.9720    95.0590   101.2630   116.1980     2.2560 
  215.6250    -1.2750    56.7440    91.6190    97.6160   109.0980     2.2670 
  215.7500    -1.3130    54.9230    86.7210    92.4240    98.4660     2.2670 
  215.8750    -1.3370    51.9670    83.2830    88.7800    85.9280     2.2510 
  216.0000    -1.3490    50.9510    82.7160    88.1790    79.0060     2.2340 
  216.1250    -1.3510    53.0080    84.4430    90.0090    82.2060     2.2340 
  216.2500    -1.3440    54.9610    87.7890    93.5560    89.3940     2.2520 
  216.3750    -1.3280    54.8120    90.7180    96.6610   101.3290     2.2700 
  216.5000    -1.3020    53.5600    91.2240    97.1980   108.2110     2.2750 
  216.6250    -1.2650    53.0060    90.0600    95.9640    98.6810     2.2650 
  216.7500    -1.2190    53.3440    87.6590    93.4190    84.2510     2.2510 
  216.8750    -1.1620    54.2290    84.1720    89.7230    78.6630     2.2470 
  217.0000    -1.0950    55.3560    80.5760    85.9100    89.0360     2.2540 
  217.1250    -1.0150    56.1750    76.9650    82.0830    97.5740     2.2630 
  217.2500    -0.9200    54.5110    73.6010    78.5180    84.0550     2.2650 
