~V
VERS. 2.00: Ver 2.00
~W
STRT.M 50.0000:
STOP.M 261.0000:
STEP.M 0.1250:
NULL. -999.2500:
UWI. FZI308:
~C
DEPT.M :
SP.MV :
GR.API :
RI. :
RML.OHMM :
RXO.OHMM :
DEN.GM/CC :
~A
   50.0000    85.6290    45.7470     0.1320     0.9230     0.0910     2.4360 
   50.1250    85.1340    42.2240     0.1210     0.9450     0.0710     2.4110 
   50.2500    84.5840    40.2390     0.1100     0.9830     0.0570     2.3940 
   50.3750    83.9410    41.5350     0.1140     0.9770     0.0560     2.3910 
   50.5000    83.2010    43.8700     0.1180     0.9600     0.0580     2.3900 
   50.6250    82.3650    45.3570     0.1180     0.9740     0.0630     2.3890 
   50.7500    81.4560    45.3690     0.1300     0.9680     0.0880     2.4010 
   50.8750    80.4770    45.0460     0.1380     0.9560     0.1880     2.4430 
   51.0000    79.4440    45.8340     0.1520     0.9260     0.3940     2.5180 
   51.1250    78.3750    47.6480     0.1630     0.8900     0.6220     2.6030 
   51.2500    77.3260    48.2990     0.1620     0.8790     0.7470     2.6320 
   51.3750    76.3940    46.1860     0.1610     0.8850     0.7400     2.5580 
   51.5000    75.6690    43.2670     0.1600     0.8790     0.7920     2.4440 
   51.6250    75.2470    41.5080     0.1590     0.8720     0.8570     2.3760 
   51.7500    75.1110    40.0840     0.1590     0.8660     0.5910     2.3670 
   51.8750    75.1970    39.9780     0.1590     0.8500     0.2170     2.3850 
   52.0000    75.3410    43.2530     0.1590     0.8430     0.1120     2.4060 
   52.1250    75.3650    47.5570     0.1600     0.8360     0.1950     2.4260 
   52.2500    75.1430    49.4020     0.1600     0.8290     0.2710     2.4370 
   52.3750    74.6060    47.1300     0.1610     0.8220     0.2510     2.4330 
   52.5000    73.8250    42.8490     0.1610     0.8170     0.2160     2.4210 
   52.6250    72.9070    38.2720     0.1620     0.8110     0.2070     2.4180 
   52.7500    71.9910    35.3210     0.1630     0.8050     0.1870     2.4240 
   52.8750    71.1830    35.2840     0.1630     0.8020     0.1720     2.4290 
   53.0000    70.5170    36.8590     0.1640     0.8000     0.1560     2.4310 
   53.1250    70.0010    37.9960     0.1630     0.8000     0.1420     2.4330 
   53.2500    69.6000    37.0560     0.1630     0.7970     0.1460     2.4400 
   53.3750    69.2940    33.5250     0.1640     0.7960     0.1530     2.4530 
   53.5000    69.0560    29.9970     0.1640     0.7960     0.1810     2.4610 
   53.6250    68.8780    29.1020     0.1800     0.7970     0.2400     2.4680 
   53.7500    68.7460    30.0200     0.1950     0.7980     0.2810     2.4740 
   53.8750    68.6520    31.0100     0.2100     0.7970     0.2960     2.4770 
   54.0000    68.5760    31.3910     0.2190     0.7950     0.3240     2.4710 
   54.1250    68.4950    32.1380     0.2180     0.7930     0.3910     2.4590 
   54.2500    68.3770    33.4560     0.2180     0.7930     0.4420     2.4520 
   54.3750    68.1790    34.5830     0.2160     0.7940     0.4630     2.4510 
   54.5000    67.8700    35.4350     0.2120     0.7940     0.5400     2.4570 
   54.6250    67.3950    36.2530     0.1900     0.7910     0.6570     2.4660 
   54.7500    66.7230    36.9020     0.1600     0.7620     0.7110     2.4680 
   54.8750    65.7660    37.0550     0.1200     0.7030     0.6910     2.4760 
   55.0000    64.4340    36.5980     0.0850     0.6350     0.6250     2.5020 
   55.1250    62.5070    36.0680     0.0680     0.5780     0.6150     2.5570 
   55.2500    59.7860    35.9260     0.0810     0.5680     0.6510     2.6000 
   55.3750    55.9110    37.0430     0.1450     0.6160     0.5370     2.5460 
   55.5000    50.7540    40.3420     0.3020     0.7570     0.6410     2.3950 
   55.6250    44.1480    44.4540     0.6280     1.0920     1.8560     2.2420 
   55.7500    36.3750    48.3450     1.1910     2.2880     3.5900     2.1620 
   55.8750    27.7880    51.8040     1.9920     2.9340     4.4470     2.1240 
   56.0000    19.0040    53.2060     2.8780     3.7090     4.6280     2.0940 
   56.1250    10.6230    51.9310     3.7000     4.4540     5.2660     2.1110 
   56.2500     3.0650    51.1710     4.4230     5.1420     6.7320     2.1670 
   56.3750    -3.3150    52.6940     5.0630     5.7730     8.0480     2.1940 
   56.5000    -8.5240    54.1070     5.6230     6.2030     8.3020     2.1670 
   56.6250   -12.5270    54.5310     6.0320     6.8940     7.9940     2.1410 
   56.7500   -15.5580    55.3550     6.2560     7.1320     7.8420     2.1570 
   56.8750   -17.7300    56.2870     6.3100     7.1890     7.5670     2.1820 
   57.0000   -19.2860    56.3160     6.2460     7.1210     7.0670     2.1820 
   57.1250   -20.3360    56.0840     6.0530     6.9160     6.6840     2.1920 
   57.2500   -21.0290    57.6820     5.7620     6.6070     6.1980     2.2380 
   57.3750   -21.4170    61.3330     5.3940     6.2170     5.3910     2.2910 
   57.5000   -21.5890    65.5790     5.0090     5.8100     4.8230     2.3110 
   57.6250   -21.6050    70.2910     4.6620     5.4420     4.7660     2.3050 
   57.7500   -21.5650    75.7750     4.4090     5.1740     4.7490     2.3010 
   57.8750   -21.5710    79.6680     4.3490     5.1100     4.6640     2.2930 
   58.0000   -21.7140    79.1990     4.5280     5.3000     4.8540     2.2740 
   58.1250   -22.0830    76.0400     5.1200     5.9270     5.5630     2.2710 
   58.2500   -22.7030    72.7730     6.1220     6.9890     9.2380     2.3260 
   58.3750   -23.6000    68.8870     7.5410     8.4940    20.8660     2.4360 
   58.5000   -24.7270    63.8780     8.9690    10.0070    32.5690     2.5430 
   58.6250   -26.0470    59.9150     9.9710    11.0700    34.4430     2.5640 
   58.7500   -27.4770    57.9790    10.1480    11.2570    27.9990     2.4760 
   58.8750   -28.9390    56.2030     9.4780    10.5460    16.6520     2.3280 
   59.0000   -30.3500    53.6780     8.4260     9.4320     9.9690     2.2150 
   59.1250   -31.6190    53.9020     7.3580     8.3000     9.1190     2.1880 
   59.2500   -32.6980    57.2080     6.5950     7.4910     8.2270     2.2110 
   59.3750   -33.5410    60.0210     6.1450     7.0140     7.6460     2.2380 
   59.5000   -34.1880    61.2130     5.8890     6.7420     7.2750     2.2380 
   59.6250   -34.6880    61.9300     5.8270     6.6770     6.9140     2.2010 
   59.7500   -35.1270    62.1810     5.8980     6.7520     7.0600     2.1610 
   59.8750   -35.5560    60.3550     5.9840     6.8440     7.5970     2.1600 
   60.0000   -35.9810    57.3620     5.9740     6.8330     7.9490     2.2040 
   60.1250   -36.3480    55.6420     5.8350     6.6850     7.4060     2.2560 
   60.2500   -36.5920    56.8770     5.6450     6.4840     6.3510     2.2800 
   60.3750   -36.6490    62.1870     5.4600     6.2870     6.1040     2.2660 
   60.5000   -36.5370    67.6160     5.4230     6.2490     6.7330     2.2450 
   60.6250   -36.3160    68.5200     5.4980     6.3270     7.4590     2.2400 
   60.7500   -36.0980    64.2840     5.6010     6.4370     7.6610     2.2420 
   60.8750   -35.9850    59.5610     5.6880     6.5290     7.5610     2.2250 
   61.0000   -36.0290    56.3150     5.6950     6.5360     7.3690     2.1860 
   61.1250   -36.2530    54.1980     5.6640     6.5040     7.3450     2.1710 
   61.2500   -36.6250    53.4670     5.6230     6.4600     7.5680     2.1980 
   61.3750   -37.1350    53.9880     5.6190     6.4560     7.5420     2.2170 
   61.5000   -37.7540    53.9500     5.5870     6.4230     7.6960     2.1930 
   61.6250   -38.4700    52.2830     5.5620     6.3960     8.1690     2.1670 
   61.7500   -39.2360    51.7740     5.5510     6.3840     8.4100     2.1800 
   61.8750   -39.9900    53.2710     5.6360     6.4740     8.3100     2.1880 
   62.0000   -40.6620    53.5230     5.9230     6.7780     8.0790     2.1560 
   62.1250   -41.1860    52.5680     6.2800     7.1570     7.9410     2.1350 
   62.2500   -41.5490    51.1820     6.6030     7.4990     7.9670     2.1750 
   62.3750   -41.7560    50.1110     6.7470     7.6520     8.4140     2.2410 
   62.5000   -41.8560    50.1690     6.7040     7.6070     9.0550     2.2630 
   62.6250   -41.8850    53.5330     6.4500     7.3370     9.2500     2.2310 
   62.7500   -41.8840    59.8590     6.1100     6.9760     9.1490     2.1960 
