~V
VERS. 2.00: Ver 2.00
~W
STRT.M 50.0000:
STOP.M 261.0000:
STEP.M 0.1250:
NULL. -999.2500:
UWI. FZI308:
~C
DEPT.M :
SP.MV :
GR.API :
RI. :
RML.OHMM :
RXO.OHMM :
DEN.GM/CC :
~A
# ...
  140.1250   -18.5770    59.5870     8.0810     9.0660     9.6350     2.2240 
  140.2500   -18.6920    59.3080     8.0960     9.0820    10.1380     2.1610 
  140.3750   -18.7990    57.2080     8.3660     9.3670    10.9320     2.1490 
  140.5000   -18.8870    55.8610     8.8420     9.8720    11.7080     2.1590 
  140.6250   -18.9460    56.9730     9.4410    10.5080    12.3820     2.1680 
  140.7500   -18.9730    58.2750    10.0100    11.1110    12.9930     2.1730 
  140.8750   -18.9640    57.3100    10.4140    11.5380    13.0380     2.1710 
  141.0000   -18.9230    55.3400    10.5530    11.6860    12.6190     2.1550 
  141.1250   -18.8520    55.0720    10.0620    11.1650    12.0540     2.1260 
  141.2500   -18.7580    55.7880     8.7860     9.8130    11.9290     2.1080 
  141.3750   -18.6430    55.7770     7.1220     8.0490    11.1210     2.1170 
  141.5000   -18.5120    57.1220     5.4330     6.2590     7.9740     2.1500 
  141.6250   -18.3670    62.3770     4.4040     5.1680     4.9400     2.1910 
  141.7500   -18.2150    68.7460     4.0540     4.7970     3.9990     2.2340 
  141.8750   -18.0590    70.0850     4.2700     5.0260     4.6610     2.2920 
  142.0000   -17.9080    66.2400     5.1370     5.9450     7.2740     2.3710 
  142.1250   -17.7670    61.0830     6.4180     7.3030    10.3600     2.4450 
  142.2500   -17.6410    58.3710     7.6800     8.6410    11.0780     2.4750 
  142.3750   -17.5340    58.1520     8.4950     9.5040    10.1000     2.4700 
  142.5000   -17.4450    57.2400     8.7380     9.7620     9.4120     2.4700 
  142.6250   -17.3740    54.8720     8.7370     9.7610     9.1290     2.4900 
  142.7500   -17.3180    52.9390     8.7860     9.8140     9.5890     2.5050 
  142.8750   -17.2750    51.8940     8.9180     9.9530    10.9280     2.5040 
  143.0000   -17.2390    50.1400     8.9520     9.9890    11.8660     2.5010 
  143.1250   -17.2060    47.7370     8.7290     9.7530    11.6330     2.4990 
  143.2500   -17.1750    45.4820     8.3440     9.3450    10.4300     2.4900 
  143.3750   -17.1420    46.5430     7.9090     8.8840     9.2890     2.4700 
  143.5000   -17.1070    51.2320     7.6030     8.5590     9.4380     2.4530 
  143.6250   -17.0690    56.6700     7.5190     8.4710    10.2690     2.4480 
  143.7500   -17.0290    57.9720     7.6830     8.6440    10.9210     2.4500 
  143.8750   -16.9860    57.4430     8.0610     9.0450    11.8680     2.4580 
  144.0000   -16.9410    60.7740     8.5030     9.5130    13.1300     2.4640 
  144.1250   -16.8970    66.2550     8.9540     9.9910    13.9160     2.4560 
  144.2500   -16.8570    69.1450     9.2700    10.3260    13.6710     2.4410 
  144.3750   -16.8270    66.9650     9.3700    10.4320    13.4950     2.4330 
  144.5000   -16.8100    62.0100     9.3230    10.3820    14.0970     2.4330 
  144.6250   -16.8090    59.3410     9.0930    10.1380    13.7300     2.4300 
  144.7500   -16.8210    61.1840     8.7640     9.7900    12.3520     2.4190 
  144.8750   -16.8470    64.5000     8.4170     9.4220    11.6810     2.4060 
  145.0000   -16.8810    64.4380     8.0690     9.0530    11.1210     2.4070 
  145.1250   -16.9210    63.4650     7.7200     8.6830    10.2160     2.4210 
  145.2500   -16.9640    65.6700     7.4350     8.3810    10.0280     2.4290 
  145.3750   -17.0090    67.1980     7.2410     8.1760    10.3070     2.4250 
  145.5000   -17.0520    64.0740     7.1650     8.0950     9.8620     2.4270 
  145.6250   -17.0920    59.5060     7.2200     8.1540     9.1210     2.4500 
  145.7500   -17.1280    57.0300     7.3760     8.3180     9.7560     2.4750 
  145.8750   -17.1580    55.5190     7.5330     8.4850    11.4620     2.4790 
  146.0000   -17.1790    53.1570     7.6070     8.5630    11.7060     2.4650 
  146.1250   -17.1860    52.3870     7.5190     8.4700    10.1690     2.4540 
  146.2500   -17.1760    53.1850     7.2460     8.1810     9.3310     2.4620 
  146.3750   -17.1440    53.9600     6.8610     7.7730     9.3840     2.4690 
  146.5000   -17.0920    54.7170     6.5070     7.3980     9.2950     2.4650 
  146.6250   -17.0270    55.7540     6.2690     7.1460     8.6010     2.4640 
  146.7500   -16.9570    56.0470     6.1030     6.9700     7.9520     2.4740 
  146.8750   -16.8920    54.9590     6.0460     6.9090     8.8530     2.4790 
  147.0000   -16.8390    53.9670     6.0670     6.9310     9.4580     2.4740 
  147.1250   -16.7990    53.9590     6.1050     6.9720     8.4560     2.4690 
  147.2500   -16.7670    54.0520     6.1050     6.9710     7.8990     2.4680 
  147.3750   -16.7380    55.6120     6.0540     6.9170     8.0100     2.4630 
  147.5000   -16.7040    57.7700     5.9940     6.8530     7.4240     2.4650 
  147.6250   -16.6610    57.7730     6.0040     6.8640     6.7130     2.4820 
  147.7500   -16.6110    53.7870     6.0910     6.9570     7.0640     2.5000 
  147.8750   -16.5550    50.6190     6.2590     7.1340     7.8480     2.5040 
  148.0000   -16.5000    50.6810     6.4430     7.3300     8.4530     2.4990 
  148.1250   -16.4500    50.5260     6.5550     7.4480     9.3770     2.4960 
  148.2500   -16.4100    47.5290     6.5510     7.4440     9.6460     2.4980 
  148.3750   -16.3820    45.6450     6.4200     7.3060     8.5890     2.4980 
  148.5000   -16.3690    46.3940     6.2630     7.1390     7.7840     2.4920 
  148.6250   -16.3740    47.7320     6.1630     7.0320     7.7090     2.4910 
  148.7500   -16.3930    48.0060     6.1160     6.9830     7.6220     2.5030 
  148.8750   -16.4220    47.6100     6.1540     7.0230     7.8730     2.5170 
  149.0000   -16.4550    47.4380     6.2290     7.1020     8.1210     2.5140 
  149.1250   -16.4870    48.6920     6.3470     7.2280     7.7290     2.4970 
  149.2500   -16.5170    52.0350     6.5000     7.3900     7.7280     2.4780 
  149.3750   -16.5490    54.6240     6.7240     7.6270     8.3580     2.4640 
  149.5000   -16.5900    56.2180     7.0300     7.9520     9.0730     2.4540 
  149.6250   -16.6500    58.9030     7.3930     8.3370     9.4300     2.4440 
  149.7500   -16.7380    61.0210     7.7320     8.6960     9.1640     2.4290 
  149.8750   -16.8690    60.3320     7.8460     8.8160     9.1660     2.4120 
  150.0000   -17.0500    58.2500     7.6860     8.6470    10.1520     2.4020 
  150.1250   -17.3000    58.4910     7.3030     8.2420    10.8870     2.4000 
  150.2500   -17.6220    61.9280     6.9300     7.8450     9.6470     2.3980 
  150.3750   -18.0320    65.3860     6.8460     7.7570     7.4680     2.3920 
  150.5000   -18.5300    66.1570     7.1630     8.0930     7.1860     2.3730 
  150.6250   -19.1320    62.7210     8.0510     9.0350    10.4670     2.3390 
  150.7500   -19.8290    60.5490     9.7010    10.7830    14.9570     2.3050 
  150.8750   -20.6160    62.0890    11.9700    13.1880    17.0180     2.2920 
  151.0000   -21.4580    63.8230    14.2190    15.5720    17.3600     2.2950 
  151.1250   -22.3140    62.7690    16.2940    17.7710    18.2120     2.2900 
  151.2500   -23.1340    60.2220    17.9110    19.4860    20.4690     2.2750 
  151.3750   -23.8710    58.3960    19.4690    21.1380    23.3030     2.2660 
  151.5000   -24.5030    56.9760    21.0650    22.8290    24.3590     2.2630 
  151.6250   -25.0160    54.6540    22.4110    24.2560    23.7890     2.2630 
  151.7500   -25.4250    52.3110    23.4060    25.3100    23.7790     2.2590 
  151.8750   -25.7410    52.7390    24.1110    26.0580    24.5050     2.2560 
  152.0000   -25.9900    55.3730    24.6470    26.6260    25.0680     2.2560 
  152.1250   -26.1880    56.7270    25.1090    27.1160    25.1300     2.2540 
  152.2500   -26.3570    56.1370    25.5760    27.6100    24.8250     2.2570 
  152.3750   -26.5090    56.5130    26.1990    28.2710    24.8180     2.2650 
  152.5000   -26.6530    58.6250    27.1120    29.2390    25.5230     2.2610 
  152.6250   -26.7890    60.2080    28.3110    30.5100    27.1730     2.2450 
  152.7500   -26.9130    59.5730    29.5330    31.8050    29.1820     2.2380 
  152.8750   -27.0180    57.6030    30.3940    32.7180    29.6490     2.2560 
