~V
VERS. 2.00: Ver 2.00
~W
STRT.M 50.0000:
STOP.M 261.0000:
STEP.M 0.1250:
NULL. -999.2500:
UWI. FZI308:
~C
DEPT.M :
SP.MV :
GR.API :
RI. :
RML.OHMM :
RXO.OHMM :
DEN.GM/CC :
~A
# ...
  101.5000   -22.6580    72.9140     4.9510     5.7480     5.8180     2.2200 
  101.6250   -22.5960    67.1180     4.9640     5.7620     6.3370     2.1850 
  101.7500   -22.5000    62.5200     5.1900     6.0020     6.9720     2.1940 
  101.8750   -22.4300    61.6460     5.7200     6.5630     7.9520     2.2510 
  102.0000   -22.4120    61.2680     6.7300     7.6330     8.7820     2.3320 
  102.1250   -22.4360    58.3670     8.3280     9.3270    11.2020     2.4260 
  102.2500   -22.4650    55.5890    10.7950    11.9420    18.4820     2.5220 
  102.3750   -22.4760    55.6420    14.4840    15.8530    28.1230     2.6030 
  102.5000   -22.4820    57.2220    18.2040    19.7960    36.7590     2.6560 
  102.6250   -22.5400    57.1960    20.2060    21.9180    42.9540     2.6710 
  102.7500   -22.7160    56.6220    20.1830    21.8940    41.0670     2.6500 
  102.8750   -23.0810    58.3680    17.3720    18.9150    29.6750     2.5980 
  103.0000   -23.6490    61.7660    13.7890    15.1160    17.7840     2.5220 
  103.1250   -24.4150    62.7140    10.7570    11.9020    12.2960     2.4070 
  103.2500   -25.3000    60.5500     8.4580     9.4660    10.5900     2.2800 
  103.3750   -26.2090    57.6130     7.3190     8.2580     9.5880     2.2050 
  103.5000   -27.0240    55.4220     6.7730     7.6790     9.2110     2.1930 
  103.6250   -27.6130    52.6720     6.5260     7.4170     9.1450     2.1970 
  103.7500   -27.8980    50.8500     6.2330     7.1070     9.0290     2.1890 
  103.8750   -27.7880    52.5800     5.8110     6.6600     8.4410     2.1890 
  104.0000   -27.3010    56.7670     5.2280     6.0420     7.7680     2.2170 
  104.1250   -26.4380    61.8480     4.6400     5.4180     6.7340     2.2650 
  104.2500   -25.3030    68.7510     4.1860     4.9370     4.9560     2.3100 
  104.3750   -23.9910    75.5280     3.9580     4.6960     4.1430     2.3310 
  104.5000   -22.6500    80.6650     3.9580     4.6960     4.5540     2.3190 
  104.6250   -21.4270    83.1360     4.1000     4.8460     5.0630     2.2830 
  104.7500   -20.4260    83.3620     4.2930     5.0510     5.2550     2.2520 
  104.8750   -19.7360    79.5370     4.4180     5.1830     5.0750     2.2490 
  105.0000   -19.3410    74.6540     4.4390     5.2050     4.9750     2.2580 
  105.1250   -19.2160    70.7140     4.4440     5.2110     5.1060     2.2540 
  105.2500   -19.2680    69.6820     4.5020     5.2720     5.2120     2.2500 
  105.3750   -19.4270    71.4090     4.6320     5.4100     5.3140     2.2590 
  105.5000   -19.6210    72.8180     4.7800     5.5670     5.7650     2.2600 
  105.6250   -19.7990    71.4420     4.9030     5.6970     6.2260     2.2400 
  105.7500   -19.9260    68.3240     4.9320     5.7280     6.0490     2.2140 
  105.8750   -19.9690    67.7900     4.7980     5.5860     5.6450     2.2040 
  106.0000   -19.9150    69.2860     4.5680     5.3420     5.7190     2.2200 
  106.1250   -19.7510    70.8470     4.2810     5.0370     5.6490     2.2520 
  106.2500   -19.4950    72.3740     4.0690     4.8140     4.8850     2.2690 
  106.3750   -19.1680    73.3950     3.9860     4.7250     4.6060     2.2590 
  106.5000   -18.8140    73.7430     4.0190     4.7600     5.0390     2.2420 
  106.6250   -18.4690    73.7750     4.1070     4.8540     5.2750     2.2270 
  106.7500   -18.1600    73.0950     4.1750     4.9250     5.3430     2.2130 
  106.8750   -17.8990    73.9800     4.1750     4.9260     5.1940     2.2200 
  107.0000   -17.6750    76.3920     4.0930     4.8380     4.6230     2.2590 
  107.1250   -17.4740    79.5540     3.9700     4.7080     4.2320     2.3110 
  107.2500   -17.2810    79.6360     3.8580     4.5900     4.3860     2.3520 
  107.3750   -17.0920    77.9740     3.7620     4.4880     4.7160     2.3740 
  107.5000   -16.9150    77.5290     3.6450     4.3640     4.6120     2.3760 
  107.6250   -16.7660    78.6330     3.5220     4.2330     4.1230     2.3570 
  107.7500   -16.6650    79.0320     3.3840     4.0870     3.9110     2.3340 
  107.8750   -16.6360    76.5060     3.2810     3.9780     3.8460     2.3230 
  108.0000   -16.6940    72.6640     3.2530     3.9480     3.7460     2.3200 
  108.1250   -16.8660    69.5140     3.3620     4.0630     3.9210     2.3150 
  108.2500   -17.1630    67.8990     3.6730     4.3930     4.3480     2.3050 
  108.3750   -17.6110    67.0560     4.4220     5.1870     4.8050     2.3150 
  108.5000   -18.2100    65.2730     5.4400     6.2660     6.2980     2.3700 
  108.6250   -18.9700    62.7310     6.5190     7.4100    12.1520     2.4320 
  108.7500   -19.8670    58.5370     7.3130     8.2520    17.1060     2.4260 
  108.8750   -20.8790    53.4350     7.3870     8.3300    13.5420     2.3480 
  109.0000   -21.9510    50.4960     7.0080     7.9280     8.4370     2.2750 
  109.1250   -23.0270    51.3540     6.4350     7.3210     7.1860     2.2450 
  109.2500   -24.0510    54.2170     6.0280     6.8900     7.3270     2.2370 
  109.3750   -24.9690    54.4770     6.1040     6.9710     8.0170     2.2320 
  109.5000   -25.7630    52.6440     6.5280     7.4200     8.6210     2.2370 
  109.6250   -26.4160    51.5060     7.0320     7.9540     8.4810     2.2650 
  109.7500   -26.9410    53.0320     7.4120     8.3560     8.3790     2.2980 
  109.8750   -27.3290    54.8520     7.5960     8.5520     8.9910     2.2950 
  110.0000   -27.5910    55.5700     7.6290     8.5870     9.3930     2.2470 
  110.1250   -27.7100    56.0910     7.6000     8.5550     9.2160     2.1940 
  110.2500   -27.6980    57.8480     7.5650     8.5190     9.0360     2.1830 
  110.3750   -27.5470    59.3080     7.5270     8.4790     9.0290     2.2150 
  110.5000   -27.2750    58.3770     7.3590     8.3010     9.0410     2.2440 
  110.6250   -26.8770    55.9630     6.7180     7.6210     8.8870     2.2450 
  110.7500   -26.3580    53.8590     5.8130     6.6620     8.6020     2.2440 
  110.8750   -25.7000    53.0120     4.7580     5.5430     7.6510     2.2790 
  111.0000   -24.9180    55.1570     3.8710     4.6030     5.7390     2.3270 
  111.1250   -24.0440    60.3150     3.4540     4.1610     4.0860     2.3440 
  111.2500   -23.1690    64.7540     3.3130     4.0120     3.5990     2.3190 
  111.3750   -22.4260    65.5660     3.5450     4.2580     4.2660     2.2680 
  111.5000   -21.9400    64.9880     4.2090     4.9620     5.8370     2.2200 
  111.6250   -21.8350    64.6800     5.1910     6.0030     7.4790     2.2030 
  111.7500   -22.1080    62.0290     6.1530     7.0220     8.1770     2.2220 
  111.8750   -22.7300    57.5050     6.8620     7.7740     8.1110     2.2490 
  112.0000   -23.5590    55.7150     7.2440     8.1790     8.0520     2.2630 
  112.1250   -24.4730    57.0930     7.4360     8.3820     8.2090     2.2800 
  112.2500   -25.3610    58.5980     7.5900     8.5450     8.8430     2.3180 
  112.3750   -26.1620    57.9590     7.8030     8.7710     9.4320     2.3470 
  112.5000   -26.8650    55.5360     8.0530     9.0360     9.1130     2.3310 
  112.6250   -27.4690    51.7180     8.2090     9.2010     9.0520     2.2860 
  112.7500   -27.9890    49.1910     8.2600     9.2560     9.8430     2.2670 
  112.8750   -28.4170    50.6500     8.1600     9.1500    10.2600     2.2770 
  113.0000   -28.7480    53.7920     8.0090     8.9900    10.1440     2.2730 
  113.1250   -28.9610    54.9870     7.8560     8.8270    10.1520     2.2580 
  113.2500   -29.0490    53.5780     7.7130     8.6760    10.2160     2.2550 
  113.3750   -28.9920    51.7790     7.5570     8.5100     9.9850     2.2570 
  113.5000   -28.8000    52.3180     7.4200     8.3660     9.6900     2.2310 
  113.6250   -28.4660    55.6330     7.2700     8.2060     9.5810     2.1870 
  113.7500   -28.0180    57.8590     7.0960     8.0210     9.5560     2.1740 
  113.8750   -27.4670    57.0380     6.9420     7.8580     9.3690     2.2030 
  114.0000   -26.8400    55.7740     6.9630     7.8810     8.9640     2.2340 
  114.1250   -26.1430    55.2050     7.1680     8.0980     8.7450     2.2530 
  114.2500   -25.3840    54.0240     7.0970     8.0230    11.0390     2.2980 
