~V
VERS. 2.00: Ver 2.00
~W
STRT.M 50.0000:
STOP.M 261.0000:
STEP.M 0.1250:
NULL. -999.2500:
UWI. FZI308:
~C
DEPT.M :
SP.MV :
GR.API :
RI. :
RML.OHMM :
RXO.OHMM :
DEN.GM/CC :
~A
# ...
  243.1250    11.2590    53.7800     7.4980     8.4480    10.0630     2.4560 
  243.2500    11.3420    56.0720     7.6180     8.5750    10.3960     2.4720 
  243.3750    11.3880    59.6270     7.7630     8.7290    10.7470     2.4840 
  243.5000    11.3990    61.0750     7.8990     8.8730    10.6960     2.4900 
  243.6250    11.3680    61.4080     7.9820     8.9610     9.9060     2.4890 
  243.7500    11.2960    60.8540     7.9940     8.9740     9.3920     2.4820 
  243.8750    11.1830    58.7250     7.9030     8.8770     8.8210     2.4650 
  244.0000    11.0400    56.9600     7.7400     8.7040     8.5610     2.4430 
  244.1250    10.8840    56.5690     7.5260     8.4780     8.0920     2.4300 
  244.2500    10.7370    56.8440     7.2930     8.2300     7.6470     2.4330 
  244.3750    10.6240    56.4820     7.1080     8.0340     7.5650     2.4480 
  244.5000    10.5620    55.9250     6.9780     7.8970     7.4940     2.4590 
  244.6250    10.5740    55.7550     6.9360     7.8530     7.4520     2.4590 
  244.7500    10.6570    56.4410     6.9840     7.9030     7.5510     2.4550 
  244.8750    10.8050    56.2800     7.0840     8.0100     7.5020     2.4560 
  245.0000    10.9940    55.6550     7.1820     8.1130     7.3340     2.4590 
  245.1250    11.2050    56.3410     7.2370     8.1710     7.2360     2.4600 
  245.2500    11.4210    56.9950     7.2330     8.1670     7.1410     2.4580 
  245.3750    11.6320    57.3380     7.1730     8.1030     7.2510     2.4500 
  245.5000    11.8250    56.8660     7.0880     8.0130     7.5140     2.4400 
  245.6250    11.9840    57.1800     7.0010     7.9210     7.4360     2.4390 
  245.7500    12.0990    57.6740     6.9320     7.8480     7.3110     2.4500 
  245.8750    12.1630    57.9750     6.9160     7.8300     7.4270     2.4600 
  246.0000    12.1900    59.1110     6.9330     7.8490     7.5520     2.4590 
  246.1250    12.1890    58.9590     6.9720     7.8900     7.5660     2.4440 
  246.2500    12.1770    55.7380     7.0310     7.9530     7.4200     2.4260 
  246.3750    12.1570    53.3040     7.0830     8.0080     7.3930     2.4180 
  246.5000    12.1280    55.2260     7.1030     8.0290     7.5540     2.4250 
  246.6250    12.0820    58.4410     7.0780     8.0030     7.4610     2.4330 
  246.7500    12.0160    58.1030     7.0280     7.9500     7.0210     2.4260 
  246.8750    11.9310    54.9310     6.9780     7.8970     6.5040     2.4130 
  247.0000    11.8360    54.0660     6.9510     7.8690     6.1540     2.4070 
  247.1250    11.7410    56.0340     6.9470     7.8640     5.8760     2.4110 
  247.2500    11.6520    57.9070     6.9460     7.8620     5.6100     2.4180 
  247.3750    11.5600    58.6370     6.9430     7.8590     5.8990     2.4200 
  247.5000    11.4590    59.4580     6.9190     7.8340     6.4750     2.4160 
  247.6250    11.3440    60.2080     6.8710     7.7830     6.4830     2.4110 
  247.7500    11.2230    59.5450     6.8200     7.7290     6.4710     2.4120 
  247.8750    11.1130    58.1620     6.7770     7.6830     7.1220     2.4200 
  248.0000    11.0240    57.9060     6.7620     7.6680     7.7510     2.4300 
  248.1250    10.9660    57.5240     6.7660     7.6720     8.8230     2.4430 
  248.2500    10.9320    55.4440     6.7840     7.6910     9.1780     2.4520 
  248.3750    10.9170    53.3970     6.8140     7.7220     8.3060     2.4550 
  248.5000    10.9110    53.3290     6.8570     7.7680     7.3710     2.4570 
  248.6250    10.9100    54.9140     6.9170     7.8320     7.1980     2.4650 
  248.7500    10.9090    56.0700     6.9810     7.9000     7.4610     2.4710 
  248.8750    10.9090    55.8560     7.0320     7.9540     7.7630     2.4660 
  249.0000    10.9090    55.2580     7.0860     8.0110     7.8730     2.4590 
  249.1250    10.9090    56.1990     7.1620     8.0920     7.8100     2.4570 
  249.2500    10.9090    57.9770     7.2640     8.2000     7.9720     2.4610 
  249.3750    10.9090    59.2580     7.3860     8.3290     8.2730     2.4700 
  249.5000    10.9090    59.2460     7.5050     8.4550     8.2120     2.4770 
  249.6250    10.9090    57.9040     7.6310     8.5890     8.0230     2.4750 
  249.7500    10.9090    55.8650     7.7790     8.7460     8.1420     2.4700 
  249.8750    10.9090    54.8110     7.9270     8.9020     8.3860     2.4690 
  250.0000    10.9090    55.3600     8.0210     9.0020     8.5060     2.4720 
  250.1250    10.9090    56.4480     8.0420     9.0240     8.5250     2.4790 
  250.2500    10.9090    57.5170     8.0030     8.9830     8.5010     2.4880 
  250.3750    10.9090    58.3380     7.9610     8.9390     8.3120     2.4930 
  250.5000    10.9090    58.1730     7.9370     8.9130     7.9340     2.4920 
  250.6250    10.9090    57.1930     7.9410     8.9180     7.8640     2.4850 
  250.7500    10.9090    56.3260     8.0000     8.9800     8.0580     2.4720 
  250.8750    10.9090    55.1880     8.0920     9.0780     7.8770     2.4650 
  251.0000    10.9090    53.8280     8.1780     9.1690     7.2270     2.4720 
  251.1250    10.9090    53.5330     8.2160     9.2090     6.7120     2.4850 
  251.2500    10.9090    54.8740     8.2130     9.2060     7.1510     2.4900 
  251.3750    10.9090    56.4660     8.1970     9.1890     8.2310     2.4840 
  251.5000    10.9090    56.8430     8.2370     9.2310     8.9770     2.4750 
  251.6250    10.9090    57.2460     8.3550     9.3560     9.3670     2.4720 
  251.7500    10.9090    57.6310     8.5300     9.5420     9.5800     2.4760 
  251.8750    10.9090    57.5580     8.7360     9.7600     9.6330     2.4860 
  252.0000    10.9090    57.1920     8.8450     9.8750    10.2810     2.4990 
  252.1250    10.9090    56.2930     8.7990     9.8270    11.2660     2.5140 
  252.2500    10.9090    54.9330     8.6010     9.6170    11.0780     2.5210 
  252.3750    10.9090    54.1190     8.4020     9.4060    10.6320     2.5200 
  252.5000    10.9090    54.6830     8.2610     9.2560    11.0610     2.5250 
  252.6250    10.9090    55.9540     8.2000     9.1920    14.9240     2.5360 
  252.7500    10.9090    55.9420     8.2140     9.2070    26.8740     2.5350 
  252.8750    10.9090    55.3730     8.2150     9.2080    39.5630     2.5250 
  253.0000    10.9090    55.6660     8.2210     9.2140    42.9420     2.5200 
  253.1250    10.9090    55.6830     8.2210     9.2150    46.8480     2.5280 
  253.2500    10.9090    54.7810     8.2180     9.2110    52.8800     2.5390 
  253.3750    10.9090    54.4500     8.2160     9.2090    48.1160     2.5410 
  253.5000    10.9090    56.2390     8.2110     9.2040    34.0530     2.5320 
  253.6250    10.9090    58.4790     8.2100     9.2020    29.5530     2.5160 
  253.7500    10.9090    58.4540     8.2050     9.1970    30.1490     2.5030 
  253.8750    10.9090    57.1190     8.2070     9.2000    23.5660     2.4990 
  254.0000    10.9090    55.9240     8.2100     9.2020    18.6880     2.5030 
  254.1250    10.9090    55.3430     8.2120     9.2040    18.7750     2.5090 
  254.2500    10.9090    54.9650     8.2090     9.2020    19.1150     2.5130 
  254.3750    10.9090    54.6150     8.2070     9.2000    17.8030     2.5180 
  254.5000    10.9090    54.4360     8.2060     9.1980    16.6090     2.5240 
  254.6250    10.9090    54.4630     8.2170     9.2100    17.0010     2.5260 
  254.7500    10.9090    54.4690     8.2210     9.2140    18.2320     2.5210 
  254.8750    10.9090    54.4670     8.2260     9.2200    19.1220     2.5060 
  255.0000    10.9090    54.4670     8.2190     9.2130    18.1450     2.4920 
  255.1250    10.9090    54.4670     8.2140     9.2070    16.7480     2.4960 
  255.2500    10.9090    54.4670     8.2140     9.2060    16.4460     2.5120 
  255.3750    10.9090    54.4670     8.2080     9.2000    16.5780     2.5180 
  255.5000    10.9090    54.4670     8.1980     9.1900    16.5010     2.5090 
  255.6250    10.9090    54.4670     8.1900     9.1810    16.5150     2.5010 
  255.7500    10.9090    54.4670     8.1800     9.1710    25.0730     2.5040 
  255.8750    10.9090    54.4670     8.1940     9.1860    35.4810     2.5130 
