~V
VERS. 2.00: Ver 2.00
~W
STRT.M 100.0000:
STOP.M 2000.0000:
STEP.M 0.1250:
NULL. -999.2500:
UWI. Z006:
~C
DEPT.M :
AC.US/MT :
CALI.CM :
DEN.GM/CC :
GR.API :
RI. :
RML.OHMM :
RXO.OHMM :
SP.MV :
~A
# ...
  150.0000   292.5790    24.9490     2.3240     2.9780     7.7790    11.3530     9.1200    -0.1930 
  150.1250   290.8550    24.9500     2.3320     2.9390     8.1790    11.6670     8.2610    -0.3770 
  150.2500   292.7070    24.9500     2.3240     2.9380     8.7880    12.1090     9.9110    -0.3190 
  150.3750   296.4140    24.9510     2.3110     2.8810     9.3590    12.7570    10.9660    -0.2640 
  150.5000   297.8360    25.0150     2.2950     2.8940     9.1050    12.5680    10.3930    -0.1080 
  150.6250   297.2040    25.0790     2.2820     2.9440     8.8300    12.3020    11.0190     0.1410 
  150.7500   295.9400    25.0790     2.2700     3.0060     8.5050    12.0520    10.6570     0.3770 
  150.8750   295.9420    25.0850     2.2650     3.0350     8.2730    11.7380     8.9050     0.5940 
  151.0000   295.9450    25.1440     2.2730     3.0530     8.0910    11.4840     8.4690     0.7790 
  151.1250   296.3660    25.1440     2.2890     3.1230     8.3020    11.4840    10.6740     1.0500 
  151.2500   295.8050    25.1450     2.3060     3.1770     8.4730    11.9660    10.6580     1.2750 
  151.3750   293.9640    25.1450     2.3330     3.0440     8.4740    12.5940     9.4370     1.5630 
  151.5000   291.5100    25.1450     2.3420     2.9740     7.9890    12.0190    11.9800     1.7070 
  151.6250   290.8880    25.1460     2.3420     2.8990     7.5860    11.6420    12.5150     1.6750 
  151.7500   291.4840    25.1720     2.3420     2.9110     7.7870    11.9150    12.5540     1.1830 
  151.8750   292.7050    25.2100     2.3460     2.9650     8.3150    12.4040    12.5930     0.8850 
  152.0000   294.5750    25.2110     2.3550     3.0180     8.7310    12.1040    12.7880     0.5890 
  152.1250   297.2370    25.2010     2.3630     3.0360     8.4770    11.7900    10.5230     0.3920 
  152.2500   296.6060    25.1470     2.3760     3.0130     7.9700    11.4800     8.1210     0.2420 
  152.3750   295.9750    25.0840     2.3420     3.0110     7.9020    11.3600     9.0190     0.1620 
  152.5000   296.6120    25.0840     2.3330     3.0510     7.8440    11.2330     9.9960    -0.0650 
  152.6250   297.0950    25.1490     2.3310     3.0550     8.1610    11.3560    10.3640    -0.4190 
  152.7500   297.8840    25.2130     2.3280     3.0270     8.1560    11.6070    10.7320    -0.6060 
  152.8750   292.7590    25.2770     2.3230     3.0310     8.3290    11.9220    11.1010    -0.8290 
  153.0000   289.0200    25.3300     2.3290     3.0940     8.6970    12.4720    10.3960    -1.0760 
  153.1250   287.1790    25.2780     2.3370     3.1550     8.8370    13.1010     9.5050    -1.2620 
  153.2500   282.9770    25.2390     2.3450     3.1620     8.4470    13.6590    12.9160    -1.5110 
  153.3750   281.4800    25.1610     2.3540     3.1980     8.0070    13.3630    12.2920    -1.6990 
  153.5000   280.2340    25.1510     2.3560     3.2750     7.6300    13.0220    15.6860    -1.8680 
  153.6250   279.5250    25.1510     2.3490     3.2820     7.3410    12.8100    11.4410    -1.9470 
  153.7500   278.2600    25.2760     2.3280     3.2710     7.4130    12.5330     8.8160    -1.8780 
  153.8750   276.8810    25.1520     2.3260     3.2650     7.4620    12.2230     8.4860    -1.7540 
  154.0000   275.7310    25.0940     2.3200     3.2740     7.2850    11.9090     9.5520    -1.6660 
  154.1250   276.1090    24.9900     2.3100     3.3160     7.0440    11.6200     9.3610    -1.7870 
  154.2500   278.9720    24.9610     2.3080     3.3900     6.8350    11.7410     9.3150    -1.9880 
  154.3750   284.6370    25.0430     2.3140     3.4520     7.1270    11.8700    10.1590    -2.0840 
  154.5000   289.6550    25.2180     2.3180     3.4630     7.2170    12.0040    11.1450    -2.1470 
  154.6250   292.2220    25.1540     2.3010     3.4770     6.9980    11.6650    11.3280    -2.1470 
  154.7500   291.0940    25.0640     2.2980     3.5200     6.4530    10.6230     6.9060    -2.1470 
  154.8750   291.3730    24.9630     2.3010     3.5700     5.9490     9.8180     8.9690    -2.0890 
  155.0000   295.5500    25.1550     2.2860     3.5900     5.8690     9.5630     7.8990    -2.0280 
  155.1250   311.6880    25.2190     2.2540     3.5540     6.2840     9.9310     6.8300    -2.0200 
  155.2500   326.3280    25.3120     2.2460     3.5260     7.3670    10.3110     7.4280    -2.3860 
  155.3750   346.9110    25.2840     2.2580     3.4560     7.6020    10.4550    10.6100    -2.5640 
  155.5000   358.2810    25.1570     2.2670     3.2970     7.3490    10.4550     9.1770    -2.9090 
  155.6250   365.9630    25.2080     2.2450     3.2420     7.8620    10.3280     7.4000    -3.1990 
  155.7500   371.4790    25.3010     2.2150     3.3340    14.8930    12.2730     6.7380    -3.6980 
  155.8750   379.2410    25.4260     2.1820     3.3930    17.9970    17.5730    10.7950    -4.0870 
  156.0000   384.3460    25.5410     2.1510     3.3440    22.8290    24.0750    34.2670    -4.4280 
  156.1250   387.3130    25.6320     2.1500     3.3410    25.4200    31.6940    41.5350    -4.6760 
  156.2500   387.9420    25.7340     2.1490     3.3960    33.0040    39.6370    49.3730    -4.8600 
  156.3750   389.1220    25.8620     2.1480     3.3560    37.5240    45.1360    89.3060    -5.2720 
  156.5000   394.6400    25.7510     2.1450     3.3190    45.9480    53.3990    87.5280    -5.4860 
  156.6250   399.6140    25.7210     2.1360     3.3780    47.1520    63.4250    91.8500    -5.9300 
  156.7500   404.8240    25.6340     2.1350     3.4650    53.6730    74.2800    58.3820    -6.3330 
  156.8750   408.4340    25.5810     2.1380     3.4530    61.1450    85.1350    67.9220    -6.5440 
  157.0000   408.8660    25.6080     2.1440     3.4250    68.6170    95.9900    78.1340    -6.7320 
  157.1250   408.8680    25.6700     2.1240     3.4670    76.0880   141.4250    97.3430    -7.1420 
  157.2500   409.2770    25.7360     2.1110     3.5060    83.6020   142.8680   120.3640    -7.6640 
  157.3750   409.5050    25.8370     2.1070     3.5050    87.6100   150.7750   129.3320    -7.9990 
  157.5000   410.8110    25.8650     2.1020     3.4800    91.6590   166.9840   130.5930    -8.4130 
  157.6250   412.0530    25.7570     2.1010     3.4690    94.7800   174.3930   147.8520    -8.8180 
  157.7500   413.6130    25.7380     2.1040     3.4460    96.1310   180.3780   163.5160    -9.3460 
  157.8750   413.9490    25.7380     2.1030     3.4060    97.1090   182.8150   145.6270    -9.9280 
  158.0000   413.9510    25.6460     2.0970     3.3760    97.4430   185.4210   146.5160   -10.1820 
  158.1250   412.5430    25.6110     2.0980     3.3350    97.2530   179.2600   144.1200   -10.2150 
  158.2500   411.0480    25.5780     2.1070     3.3440    96.0510   169.3820   146.0680   -10.1250 
  158.3750   408.6790    25.5480     2.1190     3.4140    85.7300   159.3800   150.0260    -9.9460 
  158.5000   406.9040    25.5480     2.1230     3.4770    88.1440   144.2460   119.3050    -9.9130 
  158.6250   405.3810    25.6130     2.1190     3.5490    96.1550   199.7340   122.7400   -10.2000 
  158.7500   404.4600    25.6770     2.1150     3.5220   104.1660   231.7120   109.5220   -10.4100 
  158.8750   405.0950    25.6740     2.1260     3.5140   112.1760   267.6890   140.3260   -10.5950 
  159.0000   405.9640    25.5290     2.1430     3.6230   120.1870   311.1420   203.6990   -10.6880 
  159.1250   407.9410    25.4250     2.1540     3.6500   108.2880   273.4410   282.5850   -10.6880 
  159.2500   407.1170    25.2950     2.1600     3.6690    78.8350   145.2280   221.7860   -10.6880 
  159.3750   404.2550    25.2310     2.1730     3.7670    49.3820    80.9650   232.8820   -10.5610 
  159.5000   402.3520    25.1680     2.1850     3.7510    35.9080    49.1600   248.6110   -10.3060 
  159.6250   401.1150    25.2320     2.1960     3.6810    33.5420    44.1670   210.6040    -9.9170 
  159.7500   400.6750    25.3090     2.1970     3.6290    34.5960    48.6160    41.7350    -9.3860 
  159.8750   401.5830    25.3610     2.1590     3.6550    36.6230    53.4210    32.1100    -9.1490 
