~V
VERS. 2.00: Ver 2.00
~W
STRT.M 100.0000:
STOP.M 2000.0000:
STEP.M 0.1250:
NULL. -999.2500:
UWI. Z006:
~C
DEPT.M :
AC.US/MT :
CALI.CM :
DEN.GM/CC :
GR.API :
RI. :
RML.OHMM :
RXO.OHMM :
SP.MV :
~A
# ...
  160.0000   403.8470    25.4250     2.1410     3.5940    37.7880    58.6640    35.3120    -8.6990 
  160.1250   403.8490    25.4250     2.1330     3.6200    38.8780    63.5930    46.7450    -8.2660 
  160.2500   402.5300    25.2980     2.1350     3.6770    37.0370    62.1120    48.4460    -8.0130 
  160.3750   403.2720    25.1740     2.1410     3.6840    34.6670    52.1820    48.5150    -7.8010 
  160.5000   406.3900    25.1070     2.1500     3.6020    33.5460    51.0410    50.4620    -7.7800 
  160.6250   411.9970    24.9790     2.1450     3.5380    33.8010    51.1170    45.3120    -7.9010 
  160.7500   415.8970    24.9920     2.1350     3.5360    32.9250    51.1930    35.2870    -7.9360 
  160.8750   415.8990    25.0920     2.1350     3.5560    30.2260    45.2360    44.9950    -8.0310 
  161.0000   414.1070    25.2660     2.1360     3.5450    30.3450    49.2200    53.2290    -7.6740 
  161.1250   414.1850    25.4210     2.1270     3.5210    36.3370    62.3020    48.6690    -7.2530 
  161.2500   415.1640    25.5610     2.1270     3.5470    62.8840   113.4190    61.1950    -7.2550 
  161.3750   417.4320    25.5560     2.1370     3.5960    77.4800   155.4100    87.9960    -7.3940 
  161.5000   419.0770    25.5570     2.1480     3.6340    86.4370   162.8400   100.4480    -7.3940 
  161.6250   416.7880    25.7050     2.1510     3.6650    93.0490   195.9340   111.8410    -7.3940 
  161.7500   415.0090    25.8050     2.1580     3.6250    95.7270   228.1270   138.8910    -7.3460 
  161.8750   412.7170    25.8130     2.1690     3.6130    99.0170   233.0920   158.5520    -7.4690 
  162.0000   411.1790    25.6860     2.1780     3.6440   100.7790   234.7290   173.1480    -7.6280 
  162.1250   410.5760    25.6860     2.1660     3.6470   103.9600   242.4990   187.7440    -7.7100 
  162.2500   409.2570    25.7340     2.1500     3.6370   107.0850   253.5790   202.3410    -7.6470 
  162.3750   407.7540    25.9510     2.1530     3.7190   107.6780   277.2420   223.5000    -7.4380 
  162.5000   404.7790    26.0710     2.1610     3.8380    87.5190   276.4790   238.9300    -7.2550 
  162.6250   402.3050    26.0030     2.1690     3.9550    76.1920   238.5300   202.4680    -6.9620 
  162.7500   399.9620    25.8770     2.1760     4.0330    41.5640    90.6830   158.4490    -6.6050 
  162.8750   401.0380    25.7530     2.1810     4.1150    26.1470    48.0860    54.6520    -6.3740 
  163.0000   407.1420    25.6890     2.2000     4.1830    20.1560    32.3350    52.7720    -6.1110 
  163.1250   412.0810    25.6000     2.2070     4.1020    11.3890    25.4880    16.5620    -5.9060 
  163.2500   408.2880    25.5260     2.2140     4.0290    10.5860    21.4470     7.0550    -5.7390 
  163.3750   405.1820    25.4340     2.2240     3.9420    13.3950    19.8620    14.6470    -5.6190 
  163.5000   403.7650    25.3710     2.2320     3.9100    17.2250    26.7620    22.3850    -5.5500 
  163.6250   403.2750    25.3710     2.2120     3.9470    22.2650    40.4920    26.3390    -5.4280 
  163.7500   403.9100    25.3710     2.1910     3.9980    29.4470    52.8210    23.8660    -5.0480 
  163.8750   406.7320    25.4550     2.1860     4.0440    34.9970    61.7050    27.7440    -5.0480 
  164.0000   409.3310    25.5660     2.1680     3.9890    38.8020    74.7120    45.6730    -5.1080 
  164.1250   408.8380    25.6280     2.1280     3.9360    42.8390    77.8490    49.4470    -5.0790 
  164.2500   407.2840    25.6920     2.1190     3.9420    44.5190    79.0870    57.0180    -5.1740 
  164.3750   406.1840    25.6400     2.1190     3.9230    46.0460    79.1880    60.7180    -5.3670 
  164.5000   404.5560    25.5650     2.1180     3.9170    47.0940    79.3410    53.8040    -5.5850 
  164.6250   403.9250    25.5660     2.1140     3.9190    47.2920    82.0360    61.8270    -5.8960 
  164.7500   405.1980    25.5020     2.1090     3.9090    47.2930    85.2590    61.1640    -6.2910 
  164.8750   407.0540    25.5660     2.0850     3.8520    47.8540    88.7120    48.7110    -6.5140 
  165.0000   408.9030    25.6730     2.0720     3.8070    50.6360    90.7900    40.6600    -6.6940 
  165.1250   411.6280    25.7590     2.0690     3.7490    52.6210    93.0310    42.4900    -6.8430 
  165.2500   413.4360    25.7410     2.0660     3.7000    53.8360    93.3950    39.6950    -6.8840 
  165.3750   413.4390    25.6630     2.0680     3.7000    54.2730    94.4800    45.1580    -6.8440 
  165.5000   412.4900    25.5070     2.0730     3.7040    54.8560    94.5180    49.6770    -6.8200 
  165.6250   411.5430    25.4650     2.0870     3.7130    56.3340    99.6030    64.7030    -6.7100 
  165.7500   411.5450    25.4780     2.1010     3.6440    58.6820   104.0130    69.6010    -6.6660 
  165.8750   412.1800    25.6540     2.1040     3.5980    61.4080   108.3900    69.7720    -6.5120 
  166.0000   414.2310    25.7610     2.1060     3.6470    64.0340   111.4800    91.7930    -6.3920 
  166.1250   420.4670    25.5550     2.1160     3.6700    66.0440   112.7900   103.4350    -6.4020 
  166.2500   421.0530    25.4420     2.1300     3.6300    65.2230   114.3850   105.5660    -6.6860 
  166.3750   420.4220    25.3150     2.1260     3.6600    64.8450   116.2710   106.6340    -6.9350 
  166.5000   419.6190    25.3840     2.1230     3.7120    64.8410   115.3880   100.1470    -7.1460 
  166.6250   418.5260    25.5070     2.1280     3.7080    64.6170   113.6530    90.4470    -7.4550 
  166.7500   420.5630    25.5710     2.1380     3.6470    63.8940   112.6100    89.2930    -7.7050 
  166.8750   422.5650    25.7160     2.1380     3.6460    62.4940   110.9520    91.0850    -7.9670 
  167.0000   425.1640    25.7640     2.1360     3.6760    62.3020   113.9650    96.5000    -8.2390 
  167.1250   427.6940    25.8280     2.1400     3.6990    62.7540   119.5290    86.3450    -8.3950 
  167.2500   429.7890    25.8920     2.1480     3.7210    63.7520   124.7250    83.2800    -8.5940 
  167.3750   427.0220    25.8930     2.1620     3.7440    64.4320   120.0540    82.2300    -8.5590 
  167.5000   424.4260    25.8930     2.1770     3.7670    59.8960   100.3620    74.1990    -8.3100 
  167.6250   419.7330    25.8940     2.1870     3.7890    47.7650    78.1320    71.8370    -7.9980 
  167.7500   409.8770    25.7570     2.1950     3.8120    32.9540    55.3460    67.5360    -7.8100 
  167.8750   402.0800    25.5500     2.2020     3.8320    20.0890    26.7540    45.1940    -8.0970 
  168.0000   400.1210    25.4950     2.2120     3.7500    16.2360    21.4180    30.1730    -8.3120 
  168.1250   393.6820    25.3870     2.2190     3.7300    15.4260    20.2120    13.7230    -8.4680 
  168.2500   388.4450    25.3200     2.1950     3.6560    16.1970    20.4990    15.1150    -8.5300 
  168.3750   384.2500    25.3430     2.1810     3.5550    17.8820    23.5410    19.4480    -8.4660 
  168.5000   380.9680    25.4680     2.1560     3.4680    21.6100    28.7530    23.8300    -8.3450 
  168.6250   379.2930    25.5770     2.1370     3.4450    25.8650    38.7380    22.9000    -8.2760 
  168.7500   379.6670    25.6410     2.1290     3.4660    32.3190    48.7910    20.3720    -8.2120 
  168.8750   382.0800    25.6410     2.1260     3.5240    35.5690    61.4900    26.0010    -8.2760 
  169.0000   386.2720    25.5730     2.1280     3.5510    37.4300    81.1280    44.4600    -8.2760 
  169.1250   390.3160    25.5140     2.1330     3.4840    41.1390   111.3480    51.7250    -8.4280 
  169.2500   394.6500    25.5150     2.1350     3.5330    56.1030   123.8060    85.3710    -8.8020 
  169.3750   398.1560    25.5150     2.1330     3.6320    73.2120   158.4150    72.8490    -9.3420 
  169.5000   398.5120    25.5420     2.1300     3.7170    82.3510   172.5250   103.6620    -9.8720 
  169.6250   397.9740    25.6350     2.1260     3.7510    87.6400   187.7630   132.4030   -10.4320 
  169.7500   396.9660    25.6440     2.1200     3.6930    92.9300   206.8460   158.6290   -10.7420 
  169.8750   396.4140    25.5260     2.1200     3.6880    91.2590   182.4620   185.8200   -11.0550 
