~V
VERS. 2.00: Ver 2.00
~W
STRT.M 100.0000:
STOP.M 2000.0000:
STEP.M 0.1250:
NULL. -999.2500:
UWI. Z006:
~C
DEPT.M :
AC.US/MT :
CALI.CM :
DEN.GM/CC :
GR.API :
RI. :
RML.OHMM :
RXO.OHMM :
SP.MV :
~A
# ...
  220.0000   410.4170    25.2410     2.1750     3.3800    53.4450    83.2770    65.1570    -8.4960 
  220.1250   418.2350    25.1730     2.1790     3.4740    55.6240    76.1980    65.3300    -8.3740 
  220.2500   386.7330    25.1470     2.1860     3.4640    57.2560    69.9070    92.4140    -8.1930 
  220.3750   377.0420    25.1470     2.2070     3.4110    50.3800    69.0760    91.3230    -8.0500 
  220.5000   373.9090    25.1450     2.2160     3.4290    47.2820    67.4220    82.8390    -8.0500 
  220.6250   373.0050    25.0840     2.2010     3.4860    46.3910    59.9580    74.9840    -8.1040 
  220.7500   371.5240    25.0840     2.1900     3.4650    45.3320    49.8560    79.0260    -7.9400 
  220.8750   367.7890    25.1880     2.1940     3.5330    39.0520    39.7530    84.6040    -7.6670 
  221.0000   365.3180    25.2770     2.2070     3.5330    30.8030    30.2180    72.3510    -7.3460 
  221.1250   363.8120    25.3410     2.2150     3.6080    24.1050    26.4860    50.6540    -6.9910 
  221.2500   361.6400    25.3410     2.2230     3.6880    19.8370    24.1170    29.5050    -6.4210 
  221.3750   357.4990    25.2890     2.2320     3.6550    17.9470    19.7260    26.9070    -5.9800 
  221.5000   356.8700    25.2140     2.2370     3.5930    13.3750    18.6330    21.0130    -5.4850 
  221.6250   359.5140    25.1660     2.2360     3.6250    12.4780    18.2140    17.2820    -5.0410 
  221.7500   363.8990    25.1510     2.2190     3.7160    12.5590    18.2050    14.4090    -4.7260 
  221.8750   368.6680    25.2820     2.2000     3.5060    12.5540    16.9320    14.0780    -4.4100 
  222.0000   370.7770    25.3430     2.1850     3.3770    11.1410    16.5010    13.7470    -4.1550 
  222.1250   368.9410    25.3440     2.1700     3.2770    10.8040    17.1910    13.4160    -3.9670 
  222.2500   366.3600    25.3440     2.1570     3.2680    11.4090    18.3690    13.2140    -3.7830 
  222.3750   368.0350    25.3450     2.1510     3.1990    12.2920    19.3580    15.7270    -3.8360 
  222.5000   371.6300    25.3450     2.1560     3.1810    12.7110    18.5970    17.4420    -3.8560 
  222.6250   376.4280    25.3540     2.1360     3.3100    12.5530    17.8340    19.6960    -4.0620 
  222.7500   378.3720    25.4100     2.1280     3.3060    11.7650    16.7750    17.0490    -4.3230 
  222.8750   377.3350    25.4100     2.1310     3.3630    11.5640    16.8190    12.5340    -4.4530 
  223.0000   375.4700    25.4100     2.1330     3.4880    13.3720    20.4260    11.9680    -4.6810 
  223.1250   373.9070    25.4110     2.1220     3.5170    14.9660    24.1400    15.0560    -4.8610 
  223.2500   372.2680    25.4110     2.1190     3.4530    16.4350    27.8770    18.7780    -4.9880 
  223.3750   372.0660    25.4110     2.1260     3.4180    17.4080    29.6710    21.2830    -5.1740 
  223.5000   372.8800    25.4760     2.1320     3.3730    18.2360    30.5790    24.5610    -5.2790 
  223.6250   374.4500    25.4760     2.1260     3.3320    19.2260    31.5920    26.7220    -5.4240 
  223.7500   382.3940    25.4760     2.1340     3.3950    20.2260    32.6050    28.0200    -5.4300 
  223.8750   390.1240    25.4770     2.1430     3.5090    21.2980    33.0100    27.1640    -5.3140 
  224.0000   392.7590    25.4770     2.1290     3.4680    22.3940    33.3890    27.6220    -5.2050 
  224.1250   392.4210    25.4130     2.1230     3.4170    23.0870    32.3960    28.3150    -4.9620 
  224.2500   391.0440    25.4500     2.1230     3.3830    21.7020    29.9040    29.8330    -4.7640 
  224.3750   389.3030    25.5290     2.1280     3.3890    20.0000    28.0750    30.1180    -4.7910 
  224.5000   387.2030    25.6060     2.1280     3.4400    17.7410    26.2790    21.3200    -4.8310 
  224.6250   385.9860    25.6070     2.1270     3.4720    16.1020    24.5720    20.3680    -4.9190 
  224.7500   382.8590    25.6870     2.1340     3.3820    15.9840    22.6920    20.9780    -4.8850 
  224.8750   376.0230    25.7960     2.1440     3.2770    14.7270    19.7930    20.2240    -4.8060 
  225.0000   368.9200    25.7990     2.1550     3.2440    14.7680    19.8360    18.8780    -4.7270 
  225.1250   359.6680    25.6950     2.1590     3.2330    16.1220    21.2230    17.5750    -4.5830 
  225.2500   347.0470    25.6280     2.1600     3.2380    17.4790    24.1670    18.6870    -4.3550 
  225.3750   351.6790    25.6040     2.1640     3.2190    14.6960    24.6730    26.0150    -4.1590 
  225.5000   360.3670    25.5450     2.1660     3.2340    13.2590    21.9410    29.4010    -4.1300 
  225.6250   371.1500    25.5170     2.1620     3.2810    13.5240    19.4370    20.3980    -4.0870 
  225.7500   385.8760    25.5270     2.1570     3.3830    13.9110    18.7290    16.6460    -3.8940 
  225.8750   389.1660    25.5460     2.1490     3.4330    14.4070    19.4070    17.9680    -3.5620 
  226.0000   389.1680    25.6100     2.1500     3.4520    14.1730    19.9790    19.3620    -3.2560 
  226.1250   389.1700    25.7330     2.1590     3.4530    13.2750    19.2220    18.1560    -3.2670 
  226.2500   388.2530    25.7670     2.1690     3.4630    13.2440    18.6520    16.5890    -3.4230 
  226.3750   387.6510    25.6750     2.1790     3.5130    14.4460    17.6750    15.1400    -3.5810 
  226.5000   387.9140    25.6440     2.1780     3.5860    15.3400    18.1580    18.1870    -3.7670 
  226.6250   391.6840    25.5990     2.1880     3.6110    15.8530    19.7890    19.5500    -3.8500 
  226.7500   396.3340    25.4850     2.2240     3.6270    16.2110    21.1780    20.0160    -3.7930 
  226.8750   401.8150    25.4500     2.2330     3.6700    16.9670    20.4380    20.4830    -3.5220 
  227.0000   392.2540    25.4210     2.2330     3.7550    18.1910    21.2400    20.9490    -3.2630 
  227.1250   385.0150    25.4220     2.2390     3.8390    17.6180    21.9770    22.7380    -3.2550 
  227.2500   376.1280    25.4420     2.2500     3.7870    17.1000    20.4290    20.8280    -3.3190 
  227.3750   368.8870    25.5450     2.2670     3.7640    19.7000    22.8650    19.5010    -3.3510 
  227.5000   410.6860    25.5510     2.2860     3.8520    22.1350    26.2660    91.8050    -3.4530 
  227.6250   450.0000    25.5380     2.2750     3.9660    22.6950    30.0290   129.1930    -3.5380 
  227.7500   400.0000    25.4870     2.2810     4.0380    19.2930    23.4130    29.6870    -3.6370 
  227.8750   463.0990    25.4470     2.3020     3.9630    17.0730    21.0660    44.4750    -3.6000 
  228.0000   468.5550    25.4990     2.3250     3.9920    12.0440    20.5840    59.2620    -3.4460 
  228.1250   495.7600    25.5530     2.3350     3.9330    11.2110    13.5110    69.4610    -3.3180 
  228.2500   574.0000    25.5530     2.3070     3.7760     8.4270    11.3760    19.0450    -3.3170 
  228.3750   532.7840    25.5090     2.2890     3.8170     6.9000     8.0820     4.9010    -3.3170 
  228.5000   447.3140    25.4900     2.2920     3.8100     6.2600     7.7040     4.9540    -3.3810 
  228.6250   422.4300    25.4260     2.3030     3.8270     6.0820     8.2060     7.0950    -3.3170 
  228.7500   403.1100    25.3620     2.2950     3.8880     6.6250     8.7570     9.0440    -3.3170 
  228.8750   399.3460    25.3520     2.3020     3.8130     6.4750     9.1160     9.3330    -3.3170 
  229.0000   339.4610    25.2990     2.3110     3.8060     5.5840     9.2780     6.9140    -3.3160 
  229.1250   314.0300    25.3000     2.3180     3.8850     5.2550     9.2780     6.4420    -3.2440 
  229.2500   302.1340    25.3000     2.2890     3.8760     5.4830     9.1500     7.3940    -3.0500 
  229.3750   300.1830    25.3060     2.2650     3.9190     6.0200     9.0980     7.9990    -2.9960 
  229.5000   298.3640    25.3650     2.2540     4.0630     6.2930     9.1510     7.5190    -3.0310 
  229.6250   299.3550    25.4290     2.2630     4.1710     6.4170     9.2380     6.9780    -3.1240 
  229.7500   301.8270    25.4930     2.2760     4.2840     6.4040     9.2800     7.3050    -3.1710 
  229.8750   300.5060    25.4650     2.2890     4.3490     6.2770     9.2800     8.1190    -3.1880 
