~V
VERS. 2.00: Ver 2.00
~W
STRT.M 100.0000:
STOP.M 2000.0000:
STEP.M 0.1250:
NULL. -999.2500:
UWI. Z006:
~C
DEPT.M :
AC.US/MT :
CALI.CM :
DEN.GM/CC :
GR.API :
RI. :
RML.OHMM :
RXO.OHMM :
SP.MV :
~A
# ...
  210.0000   385.7010    24.8400     2.3330     4.0610    51.2810    98.6320    50.1130    -6.4080 
  210.1250   335.1320    24.9270     2.3620     4.1240    57.8110    67.7680    89.5140    -6.3360 
  210.2500   267.4810    24.9270     2.3810     4.1850    60.2650    36.6440   131.0150    -6.2750 
  210.3750   349.9320    24.7990     2.3430     4.3770    10.8490     9.8320   170.2110    -5.9910 
  210.5000   364.7940    24.6520     2.3220     4.5170     6.3640     5.8140   171.7130    -5.6760 
  210.6250   386.1850    24.5440     2.2890     4.5770     3.2660     5.9540     1.2790    -5.2770 
  210.7500   393.2310    24.5450     2.2850     4.5840     3.9040     6.8850     3.0940    -4.7200 
  210.8750   385.3110    24.6290     2.2750     4.6460     4.2850     7.3100     6.0970    -4.2990 
  211.0000   388.7630    24.7540     2.2530     4.6970     4.0810     7.3100     6.3370    -3.7720 
  211.1250   393.6480    24.8560     2.2530     4.7660     3.7770     7.1460     5.0410    -3.3960 
  211.2500   397.0140    24.9940     2.2630     4.8560     3.5230     7.1830     4.6980    -3.0830 
  211.3750   399.6560    25.0980     2.2660     4.9540     3.5240     7.1840     4.2040    -2.9250 
  211.5000   400.2900    25.1910     2.2560     5.0020     3.5480     7.0560     4.0870    -2.8310 
  211.6250   400.8620    25.4010     2.2410     5.0480     3.8590     7.0570     4.4930    -2.8700 
  211.7500   397.0950    25.5680     2.2270     4.9280     4.2730     7.1850     5.1820    -3.2050 
  211.8750   393.9910    25.5590     2.2190     4.8860     4.6960     7.3660     4.9960    -3.5690 
  212.0000   392.7600    25.4910     2.2050     4.7650     4.7990     7.8040     4.6170    -3.7690 
  212.1250   388.4160    25.4440     2.2070     4.4130     4.4180     8.3360     4.9310    -3.9640 
  212.2500   385.3120    25.2820     2.2140     4.2410     5.2810     9.6320     6.7120    -4.2510 
  212.3750   382.2080    25.2520     2.2220     4.0800     7.1570    11.7340     9.3080    -4.5600 
  212.5000   377.8400    25.1590     2.2270     4.0360     9.3020    14.7490    11.9040    -4.8160 
  212.6250   374.7360    25.1250     2.2250     4.0560    10.9480    17.7320    13.3550    -5.2500 
  212.7500   373.1350    25.1260     2.2190     4.0930    11.7930    19.1110    14.0730    -5.5560 
  212.8750   373.7690    25.1710     2.2160     4.0890    12.9620    21.5050    14.7840    -6.0010 
  213.0000   373.7720    25.0630     2.2190     3.9600    15.0890    28.9520    15.4950    -6.2780 
  213.1250   373.1060    24.9180     2.2260     3.9220    17.7180    30.0730    17.9350    -6.4160 
  213.2500   369.9650    24.7570     2.2330     3.9690    20.4280    30.9590    33.8550    -6.5570 
  213.3750   368.0900    24.5720     2.2420     4.0620    21.9610    31.8440    29.9350    -6.5890 
  213.5000   367.7310    24.5520     2.2480     4.1420    23.2170    32.5870    30.7760    -6.5250 
  213.6250   369.5210    24.6700     2.2550     4.2390    22.9680    30.8910    35.6740    -6.3800 
  213.7500   371.7880    24.8990     2.2510     4.3050    20.9960    29.3090    37.5370    -6.1800 
  213.8750   376.0550    25.1070     2.2360     4.3570    19.0830    27.3710    29.7700    -6.0780 
  214.0000   377.8970    25.1930     2.2240     4.3880    17.6490    23.6560    24.4550    -6.2060 
  214.1250   379.4800    25.1140     2.2140     4.3490    16.6430    21.9130    22.6730    -6.3290 
  214.2500   380.1140    24.8520     2.2070     4.3620    17.5740    23.8480    20.8880    -6.5140 
  214.3750   380.1160    24.6630     2.2080     4.3620    18.9980    26.9450    21.1080    -6.6830 
  214.5000   379.8770    24.5590     2.2050     4.3270    22.3880    27.6890    26.1840    -7.0010 
  214.6250   379.4890    24.5140     2.1930     4.2400    22.2130    27.1300    29.1360    -7.1940 
  214.7500   377.9190    24.7880     2.1910     4.1500    21.1830    27.4660    29.5950    -7.2350 
  214.8750   375.4210    25.0680     2.1950     4.0520    21.1330    28.5360    28.5890    -7.2890 
  215.0000   374.4400    24.9740     2.2070     3.9340    21.9240    28.0310    25.6910    -7.3520 
  215.1250   375.0740    24.8060     2.2170     3.8560    21.8150    27.2840    27.6790    -7.2890 
  215.2500   377.7600    24.7420     2.2160     3.8210    21.3340    26.8760    32.9360    -7.2250 
  215.3750   379.2090    24.6850     2.2170     3.8340    20.9760    27.2220    26.9720    -7.1380 
  215.5000   379.3630    24.6910     2.2220     3.7060    22.2980    28.6510    25.7200    -7.0340 
  215.6250   378.2430    25.0000     2.2310     3.5570    24.2410    31.3630    28.1030    -6.8760 
  215.7500   380.3130    25.1940     2.2380     3.5010    25.2590    32.8780    30.6900    -6.7780 
  215.8750   382.1550    25.0220     2.2400     3.4660    25.1980    33.8050    33.2770    -6.8020 
  216.0000   383.3050    24.9220     2.2330     3.4230    23.9040    32.2940    37.2480    -7.0740 
  216.1250   382.5160    24.7820     2.2260     3.4080    22.0740    30.2830    36.5370    -7.3230 
  216.2500   380.8320    24.6970     2.2190     3.4330    20.0200    25.0490    33.4560    -7.5660 
  216.3750   378.1150    24.6240     2.2160     3.4930    21.4570    30.3640    27.3290    -7.7340 
  216.5000   376.2050    24.6250     2.2170     3.5700    25.2840    34.6740    22.4520    -7.9020 
  216.6250   374.6110    24.6710     2.1940     3.5910    27.0750    33.4140    30.8520    -8.1270 
  216.7500   373.8400    24.8400     2.1790     3.5830    26.3450    32.3000    38.7230    -8.3610 
  216.8750   375.5760    25.0250     2.1650     3.4890    25.6020    37.3760    33.8340    -8.4980 
  217.0000   376.3720    25.1020     2.1410     3.5250    28.3590    45.5970    29.6740    -8.6000 
  217.1250   374.7140    25.1380     2.1370     3.5740    34.6980    48.5070    35.2490    -8.7160 
  217.2500   370.6170    25.0600     2.1420     3.4760    37.7350    51.1990    42.6820    -8.8180 
  217.3750   367.8030    24.9860     2.1520     3.5130    38.5640    51.2950    50.1140    -8.8820 
  217.5000   366.9030    24.8830     2.1640     3.5880    38.6760    51.4230    47.2600    -8.9350 
  217.6250   368.1600    24.8840     2.1680     3.5160    39.0690    60.8840    43.8930    -9.0090 
  217.7500   373.4730    24.9570     2.1650     3.4780    41.5940    63.5050    46.1210    -9.0630 
  217.8750   377.5170    25.0510     2.1370     3.4830    45.5460    64.5610    55.0100    -8.9360 
  218.0000   379.7700    25.2280     2.1290     3.5510    48.8010    71.0300    55.2400    -8.8050 
  218.1250   380.1840    25.3330     2.1300     3.5970    52.3760    77.4970    53.5390    -8.5620 
  218.2500   380.1860    25.3020     2.1330     3.4970    56.9450    83.9630    62.9720    -8.6270 
  218.3750   380.1880    25.1660     2.1320     3.4840    60.8720    75.2600    70.6450    -8.6900 
  218.5000   381.2350    24.9860     2.1290     3.5180    58.8350    63.9880    76.6020    -8.6900 
  218.6250   379.2320    24.9500     2.1300     3.5460    49.0410    56.6680    75.7400    -8.6640 
  218.7500   372.3860    24.8940     2.1360     3.5300    42.6890    63.7130    68.4900    -8.5460 
  218.8750   365.4150    24.8870     2.1480     3.5670    43.0560    71.1730    47.2170    -8.3960 
  219.0000   347.8510    24.8500     2.1610     3.5980    47.0490    78.6330    48.1370    -8.1920 
  219.1250   342.7200    24.8240     2.1780     3.6620    52.4060    86.0920    65.0340    -7.9760 
  219.2500   357.1150    24.8880     2.1920     3.6940    55.7270    78.8150    81.6470    -7.8110 
  219.3750   369.9230    24.9520     2.1940     3.5450    59.6350    69.5110    93.7840    -7.9290 
  219.5000   388.5460    25.0000     2.1880     3.4540    54.5640    68.8920    69.5050    -8.0420 
  219.6250   390.4620    25.1350     2.1820     3.3850    51.3120    69.2590    64.3730    -8.2160 
  219.7500   391.2450    25.2650     2.1790     3.3440    49.6340    72.4540    60.4110    -8.3080 
  219.8750   400.4910    25.2740     2.1760     3.3320    50.3670    78.9590    65.1970    -8.4120 
