~V
VERS. 2.00: Ver 2.00
~W
STRT.M 100.0000:
STOP.M 2000.0000:
STEP.M 0.1250:
NULL. -999.2500:
UWI. Z006:
~C
DEPT.M :
AC.US/MT :
CALI.CM :
DEN.GM/CC :
GR.API :
RI. :
RML.OHMM :
RXO.OHMM :
SP.MV :
~A
# ...
  170.0000   396.9070    25.3800     2.1230     3.6800    84.0060   157.0960   161.9770   -11.2790 
  170.1250   400.3710    25.2880     2.1260     3.5350    76.7540   120.1770   128.4570   -11.3180 
  170.2500   402.1200    25.1910     2.1300     3.5650    76.1840   135.6910   102.6120   -11.6420 
  170.3750   399.8430    25.0710     2.1360     3.6300    84.3190   158.3460    84.3600   -11.9840 
  170.5000   397.6910    25.0710     2.1210     3.6230    90.5160   173.4520   136.7150   -12.3580 
  170.6250   400.1570    25.0070     2.1240     3.5290    85.1250   156.1510   163.4450   -12.7230 
  170.7500   404.4190    25.0660     2.1300     3.5280    80.6920   135.9540   149.6430   -12.8400 
  170.8750   411.5200    25.1670     2.1260     3.4530    75.8640   123.9450   156.8100   -13.0210 
  171.0000   416.9990    25.3810     2.1280     3.3830    77.6150   127.8270   144.0450   -13.2860 
  171.1250   420.4990    25.6020     2.1310     3.3460    82.3080   135.2800   103.0610   -13.5200 
  171.2500   418.6900    25.6480     2.1250     3.3610    87.1920   132.8510    92.6530   -13.7530 
  171.3750   413.7660    25.6490     2.1180     3.3280    76.8660   121.3760   113.2140   -13.9430 
  171.5000   408.0190    25.7220     2.1160     3.3000    66.3240   107.1240   128.7670   -14.1380 
  171.6250   405.1850    25.8370     2.1200     3.2580    61.9670   103.7790   137.7800   -14.3370 
  171.7500   404.6780    25.7730     2.1300     3.2110    69.0870   130.2640   105.1810   -14.4890 
  171.8750   406.1670    25.6500     2.1440     3.1860    76.2070   153.4640    81.3760   -14.4890 
  172.0000   410.1190    25.6500     2.1410     3.1860     4.5220   165.8870   101.5610   -14.4890 
  172.1250   413.4580    25.7150     2.1400     3.2180     1.0670   164.4690    90.0450   -14.5560 
  172.2500   414.8180    25.6510     2.1430     3.2700     2.0100   159.8740    77.9390   -14.6210 
  172.3750   410.4900    25.4980     2.1370     3.3190     4.4790   152.4950    74.2300   -14.7440 
  172.5000   411.2100    25.1890     2.1290     3.3500     7.3690   169.1750    65.6180   -14.7880 
  172.6250   412.2910    24.9700     2.1210     3.3930     9.2530   200.3030    77.5530   -14.8060 
  172.7500   410.2630    24.9660     2.1140     3.4440     9.9120   244.5630   157.4260   -14.8060 
  172.8750   407.0260    25.1530     2.1120     3.4780    10.1540   270.2030   199.1860   -14.8060 
  173.0000   405.4060    25.2700     2.1170     3.2960    10.4770   258.9310   217.8820   -14.7530 
  173.1250   407.3270    25.3340     2.1300     3.2330    10.6040   257.6750   174.6650   -14.7090 
  173.2500   410.7790    25.4600     2.1320     3.2160    10.7540   266.2160   185.5780   -14.5040 
  173.3750   412.3030    25.6430     2.1250     3.2230    11.2470   283.3730   197.9770   -14.3200 
  173.5000   412.9390    25.8290     2.1230     3.0500    12.0040   300.5300   210.3770   -13.9780 
  173.6250   413.4500    25.8330     2.1260     2.9420    14.3700   293.9440   222.7770   -13.5250 
  173.7500   411.8570    25.6700     2.1310     2.8840    26.4690   274.3980   252.6730   -13.2160 
  173.8750   406.2650    25.5010     2.1360     2.8130    24.5750   236.9470   246.0850   -13.0850 
  174.0000   398.3010    25.2420     2.1390     2.8060    43.1960   228.9210   198.3240   -13.0940 
  174.1250   387.0900    25.0810     2.1430     2.8390    93.7830   251.2850   144.4490   -13.0520 
  174.2500   375.8510    25.0180     2.1350     2.8580   136.6210   267.2840   168.4880   -13.0300 
  174.3750   365.8230    25.1140     2.1220     2.8870   121.7920   205.4460   197.8200   -12.5620 
  174.5000   373.6960    25.2390     2.1160     2.8860   108.3280   145.3130   172.6500   -12.0300 
  174.6250   392.2590    25.4660     2.1180     2.8720    98.0700   130.7280   104.7720   -11.5910 
  174.7500   400.9290    25.4660     2.1200     2.8870    96.6900   187.7440    75.9670   -11.3290 
  174.8750   407.7950    25.2990     2.1200     2.9350   136.7340   233.2580    51.6560   -11.2540 
  175.0000   411.6970    25.2920     2.1170     2.9920   179.8770   331.7930   123.7520   -10.9510 
  175.1250   407.5100    25.4560     2.1190     2.9810   238.8330   393.5820   175.2880   -10.5060 
  175.2500   396.8960    25.2400     2.1280     2.9520   309.2770   435.0560   279.3050    -9.9010 
  175.3750   383.6890    25.0260     2.1420     2.9300   282.3360   407.0280   310.8940    -9.6590 
  175.5000   372.8820    24.8290     2.1600     2.9470   225.5830   325.3290   274.0460    -9.6670 
  175.6250   363.5920    24.7340     2.1880     3.1150   138.9650   218.3170   244.6730    -9.6650 
  175.7500   368.0890    24.7020     2.2570     3.2050    99.2560   181.4980   241.9600    -9.3490 
  175.8750   373.8890    24.7290     2.2840     3.2210    97.3790   173.0940   240.2700    -8.8680 
  176.0000   386.5930    24.7820     2.2980     3.2410   102.4760   136.2700   240.0050    -8.2300 
  176.1250   391.4410    24.8730     2.2950     3.3130    88.6090   104.5540   104.6460    -7.1720 
  176.2500   376.5170    24.9770     2.2840     3.3130    76.1460    87.7790    74.3340    -6.4890 
  176.3750   326.7470    25.0870     2.2920     3.2640    60.7700    69.3150    65.1610    -5.8550 
  176.5000   231.9110    25.0880     2.3480     3.2130    55.0420    74.7070    76.1680    -5.3860 
  176.6250   222.4500    25.0880     2.3830     3.2040    58.1690    85.8980    37.0580    -4.8610 
  176.7500   220.5390    25.0250     2.3880     3.2060    61.2960    96.0290    63.1270    -4.3030 
  176.8750   220.9580    24.9910     2.3870     3.1760    64.4230    79.1840    88.9990    -3.7390 
  177.0000   227.6190    24.9200     2.3930     3.0970    63.2490    60.6340    91.0430    -3.3600 
  177.1250   246.0870    24.8980     2.3830     3.0500    45.0130    39.6860    50.9380    -2.7920 
  177.2500   319.2980    24.8340     2.3600     3.0390    26.7180    17.9850    49.5820    -2.4790 
  177.3750   369.8770    24.7360     2.3370     3.0570    11.8590     8.5590   133.3950    -2.0770 
  177.5000   391.0610    24.4980     2.2980     3.0560     6.2370     4.4110    88.6780    -1.7260 
  177.6250   406.6440    24.2720     2.2800     3.0170     5.0000     2.6970    37.1700    -1.4140 
  177.7500   418.6250    24.0270     2.2870     3.0020     2.7000     2.8970     8.0000    -1.1840 
  177.8750   422.5060    23.8780     2.2940     3.0330     2.5000     3.0000     7.8000    -0.9780 
  178.0000   422.0380    23.7790     2.2500     3.0700     2.7000     3.7000     6.0000    -0.8090 
  178.1250   422.4990    23.7500     2.2320     3.0840     2.3000     3.9010     1.7490    -0.5190 
  178.2500   428.4380    23.7510     2.2230     3.0580     1.1690     3.7740     1.8000     0.0680 
  178.3750   430.4290    23.8110     2.2230     2.9890     1.5060     3.9120     0.7050     0.8860 
  178.5000   427.1080    24.0170     2.2210     2.9460     1.9440     4.2000     1.7640     1.2170 
  178.6250   421.5970    24.3160     2.2120     2.9240     2.2390     4.6740     2.2700     0.5820 
  178.7500   417.4110    24.4090     2.2030     2.9470     1.9820     4.9250     1.7460     0.2430 
  178.8750   416.1920    24.5190     2.2050     3.0220     1.9040     5.1800     1.3210     0.0380 
  179.0000   417.4830    24.5840     2.2160     3.1050     1.7930     5.1800     1.3690    -0.1180 
  179.1250   416.8620    24.7120     2.2250     3.1540     1.7320     5.2070     2.2350    -0.2070 
  179.2500   412.2210    24.9170     2.2340     3.1780     1.7890     5.1810     2.5960    -0.3660 
  179.3750   408.7530    25.1680     2.2430     3.2030     1.9750     5.2970     2.2010    -0.5220 
  179.5000   405.9320    25.5470     2.2530     3.2360     2.3690     5.3090     1.9640    -0.6650 
  179.6250   404.8980    26.0530     2.2630     3.2780     2.1400     5.3090     2.7100    -0.7730 
  179.7500   404.1800    26.3690     2.2620     3.3220     1.9190     5.3100     3.0850    -0.8410 
  179.8750   404.1820    26.2600     2.2540     3.4090     1.6400     5.3100     2.7810    -0.9410 
