~V
VERS. 2.00: Ver 2.00
~W
STRT.M 100.0000:
STOP.M 2000.0000:
STEP.M 0.1250:
NULL. -999.2500:
UWI. Z006:
~C
DEPT.M :
AC.US/MT :
CALI.CM :
DEN.GM/CC :
GR.API :
RI. :
RML.OHMM :
RXO.OHMM :
SP.MV :
~A
# ...
  120.0000   455.5620    25.5680     2.1860     4.1970     2.2420     3.5160     3.7470    -0.8750 
  120.1250   454.4870    25.5680     2.1910     4.3460     2.3690     3.1270     2.9960    -0.8110 
  120.2500   453.3200    25.5680     2.1990     4.4720     2.6750     3.1110     2.3650    -0.8180 
  120.3750   452.6920    25.4410     2.2080     4.5070     2.9740     3.4400     2.4010    -0.8740 
  120.5000   453.3300    25.3140     2.2170     4.5000     3.3860     4.0030     3.4260    -0.9370 
  120.6250   451.4410    25.4300     2.2260     4.5120     3.0620     3.7350     4.3030    -0.8740 
  120.7500   450.3550    25.5940     2.2330     4.5700     2.6080     3.5640     3.2270    -0.8420 
  120.8750   448.4430    25.6200     2.2160     4.4790     2.3730     3.4950     2.6140    -0.7500 
  121.0000   446.0470    25.4260     2.2060     4.4210     2.4090     3.4440     2.4120    -0.6250 
  121.1250   444.2580    25.3090     2.1940     4.3770     2.5010     3.3970     2.5640    -0.6500 
  121.2500   443.0740    25.2520     2.1830     4.4000     2.7950     3.5630     2.9260    -0.8130 
  121.3750   441.3400    25.2520     2.1910     4.4660     3.0030     3.7500     3.5220    -0.9270 
  121.5000   441.3460    25.2980     2.2050     4.5250     3.1370     4.0060     3.6250    -0.9980 
  121.6250   442.6490    25.3150     2.2230     4.5070     3.0940     4.1860     3.2440    -0.9930 
  121.7500   445.1400    25.1280     2.2360     4.5360     3.0110     4.3360     2.9960    -0.9190 
  121.8750   447.6400    25.0620     2.2520     4.5890     3.1390     4.4960     3.4840    -0.7260 
  122.0000   452.6820    25.1570     2.2640     4.5530     3.1120     4.2120     3.6050    -0.5910 
  122.1250   455.2120    25.3110     2.2700     4.4940     2.7010     3.7090     3.4360    -0.5560 
  122.2500   457.0870    25.4960     2.2640     4.5350     2.4930     3.2910     3.0760    -0.7140 
  122.3750   457.2080    25.5850     2.2460     4.6160     2.3790     2.9890     2.4460    -0.9970 
  122.5000   456.5810    25.6900     2.2200     4.6350     2.2570     3.1350     2.2600    -0.8800 
  122.6250   459.5380    25.7670     2.2080     4.6470     2.3800     3.3220     2.3290    -0.6330 
  122.7500   470.6070    25.7670     2.2090     4.6730     2.5060     3.6360     2.6800    -0.3870 
  122.8750   491.1250    25.6680     2.2140     4.6490     2.7570     3.6270     2.9100    -0.2210 
  123.0000   505.3390    25.5980     2.2120     4.6280     2.7630     3.5000     2.5340    -0.2870 
  123.1250   490.0020    25.4840     2.2030     4.3760     2.7630     3.1180     2.4820    -0.4730 
  123.2500   467.0020    25.3890     2.1910     4.2180     2.6370     2.9910     2.7410    -0.6250 
  123.3750   453.3900    25.2310     2.1830     4.1810     2.4110     3.2310     3.3700    -0.7430 
  123.5000   486.1620    25.1190     2.1800     4.1670     2.6680     3.7160     3.6270    -0.7430 
  123.6250   502.2340    25.0060     2.1890     4.1570     3.0920     4.2160     3.6270    -0.7080 
  123.7500   531.2230    24.9830     2.2070     4.2320     3.6870     4.9380     3.8030    -0.6810 
  123.8750   503.3380    25.1430     2.2380     4.2950     4.0360     5.0320     4.4790    -0.8670 
  124.0000   469.8430    25.4000     2.2580     4.3400     4.0170     4.4270     4.8200    -1.1300 
  124.1250   452.8520    25.6700     2.2420     4.3140     3.2710     3.7610     4.2780    -1.2580 
  124.2500   454.5220    25.7690     2.2280     4.2120     2.8950     3.3330     3.5090    -1.3650 
  124.3750   446.9830    25.4010     2.2230     4.0870     3.4390     3.0320     2.7960    -1.4980 
  124.5000   428.0350    25.1720     2.2290     3.9650     4.7090     4.9930     2.8090    -1.5300 
  124.6250   316.1680    25.0700     2.2560     3.9240     6.1580     6.6900     5.4470    -1.5600 
  124.7500   331.0580    25.1850     2.2770     3.9900     7.6460     8.4460    15.8600    -1.6100 
  124.8750   379.6120    25.1980     2.2850     4.0670     6.9370     9.8390    23.5530    -1.5180 
  125.0000   417.9510    25.1220     2.2410     4.1580     4.1150     8.7760     8.4990    -1.3630 
  125.1250   437.0070    25.1540     2.2060     4.2010     3.9140     5.7910     3.9700    -1.2580 
  125.2500   452.2770    25.5070     2.1930     4.1940     3.7540     4.5750     3.7070    -1.1810 
  125.3750   456.0700    25.7350     2.1950     4.1750     2.9990     4.0100     5.0020    -1.1810 
  125.5000   452.1600    25.9660     2.1930     4.1970     2.3710     3.7030     2.6090    -1.2250 
  125.6250   448.0770    25.7760     2.1790     4.3370     2.0120     3.4190     1.7210    -1.1210 
  125.7500   443.7450    25.5930     2.1800     4.3590     2.1410     3.6450     2.0400    -1.0390 
  125.8750   440.2700    25.3610     2.1910     4.3960     2.5140     3.8410     2.6970    -0.9080 
  126.0000   456.9990    25.2310     2.2190     4.4460     2.9370     4.0380     3.5270    -0.7150 
  126.1250   488.2110    25.2350     2.2300     4.4960     3.0650     4.1000     3.7170    -0.4660 
  126.2500   498.1490    25.4220     2.2360     4.5800     2.7350     3.8270     3.3460    -0.2590 
  126.3750   452.9200    25.6660     2.2510     4.5550     2.3710     3.3910     2.5940    -0.2140 
  126.5000   449.7900    25.9250     2.2620     4.3540     2.1430     3.2000     2.2230    -0.3360 
  126.6250   427.0140    25.8920     2.2630     4.1330     2.0160     3.0000     2.3560    -0.4120 
  126.7500   404.2350    25.6280     2.2770     4.0730     2.3280     3.4270     2.8570    -0.4220 
  126.8750   369.5350    25.5560     2.2890     4.0660     2.8100     4.3550     3.5210    -0.5800 
  127.0000   287.2510    25.5420     2.2990     3.9250     4.9730     6.3110     6.4000    -0.6570 
  127.1250   269.2700    25.5880     2.3030     3.9390     8.2250     9.6770    14.2440    -0.7950 
  127.2500   263.8900    25.6520     2.3030     4.0880    10.9310    12.7900    26.3920    -0.9210 
  127.3750   327.5330    25.4740     2.2890     4.2280    12.1750    14.7310    22.3080    -0.9820 
  127.5000   371.6520    25.2550     2.2540     4.3340     8.3930    11.7080    21.8940    -1.0770 
  127.6250   412.0910    25.1140     2.1970     4.4260     5.9580     7.2730    20.5820    -1.1140 
  127.7500   430.5790    25.0100     2.1410     4.4170     4.6680     5.9350     8.5570    -1.1140 
  127.8750   438.8510    24.9060     2.1550     4.3860     4.2420     5.6800     4.3780    -1.0400 
  128.0000   443.2430    24.8240     2.1730     4.4340     4.2830     5.9280     4.3600    -0.8980 
  128.1250   445.8950    24.8440     2.1900     4.5550     4.6610     5.3160     4.9040    -0.7230 
  128.2500   442.2810    24.9060     2.2070     4.6750     4.4020     4.5100     4.8980    -0.4410 
  128.3750   435.1720    25.0330     2.2240     4.8350     3.5050     3.9340     3.2720    -0.1460 
  128.5000   429.9480    25.1660     2.2410     4.9380     2.8140     3.6580     2.3600     0.2070 
  128.6250   432.1060    25.3280     2.2590     5.0620     2.4390     3.2880     3.4260     0.5170 
  128.7500   438.3190    25.3900     2.2400     5.0090     2.1520     3.2600     4.1760     0.7790 
  128.8750   443.0600    25.3370     2.2210     5.0100     2.0700     3.2610     2.5350     1.0320 
  129.0000   433.4570    25.3570     2.2110     5.0840     2.1540     3.3460     1.7140     1.1950 
  129.1250   429.3710    25.5300     2.2040     4.8960     2.2720     3.5160     2.2860     0.9850 
  129.2500   430.6300    25.5900     2.2000     4.7880     2.4090     3.6090     3.6640     0.6900 
  129.3750   435.5460    25.4970     2.1940     4.7650     2.3700     3.8790     4.0970     0.3800 
  129.5000   436.6320    25.4080     2.1900     4.7520     2.2830     3.8340     3.5990     0.1040 
  129.6250   434.6960    25.2120     2.1870     4.6790     2.4390     3.5210     3.1010    -0.1020 
  129.7500   435.9930    25.2350     2.1900     4.6730     2.5380     3.3910     2.9970    -0.0350 
  129.8750   442.5900    25.3670     2.2010     4.7250     2.6250     3.3910     3.0010     0.0890 
