~V
VERS. 2.00: Ver 2.00
~W
STRT.M 100.0000:
STOP.M 2000.0000:
STEP.M 0.1250:
NULL. -999.2500:
UWI. Z006:
~C
DEPT.M :
AC.US/MT :
CALI.CM :
DEN.GM/CC :
GR.API :
RI. :
RML.OHMM :
RXO.OHMM :
SP.MV :
~A
# ...
  180.0000   404.8170    26.0630     2.2400     3.4870     1.7360     5.4140     2.4690    -1.1730 
  180.1250   405.0980    25.9180     2.2260     3.5750     1.9880     5.3110     2.5550    -1.4370 
  180.2500   404.0650    25.7300     2.2300     3.9230     2.5230     5.3110     2.4760    -1.7000 
  180.3750   398.2370    25.4960     2.2460     4.0400     2.8850     5.1850     2.7540    -1.9070 
  180.5000   391.6090    25.2160     2.2720     4.0970     3.0090     5.3720     2.8910    -2.1810 
  180.6250   387.3710    25.0310     2.2860     4.1690     3.0100     5.6790     2.5120    -2.3000 
  180.7500   384.0820    24.9070     2.2760     4.3570     3.0110     6.1290     2.3760    -2.3000 
  180.8750   380.5430    24.7200     2.2680     4.5210     3.1380     6.4440     3.0000    -2.1760 
  181.0000   377.8060    24.7170     2.2490     4.6130     3.5970     6.8000     3.8800    -1.8950 
  181.1250   382.8640    24.8850     2.2360     4.6840     4.0290     7.1010     4.8750    -1.4890 
  181.2500   396.1760    25.2720     2.2240     4.6720     3.8250     6.9260     5.1460    -1.0700 
  181.3750   411.6300    25.3570     2.2180     4.6220     3.2190     6.7430     4.1780    -0.9140 
  181.5000   421.4740    24.8980     2.2200     4.5900     2.7590     6.6080     3.6010    -0.9130 
  181.6250   434.3780    24.5690     2.2260     4.5800     2.4240     6.3740     2.9350    -0.9650 
  181.7500   444.8840    24.6310     2.2220     4.5670     2.4550     6.2300     2.5570    -0.9640 
  181.8750   436.7130    24.7880     2.2170     4.5670     3.0330     6.1530     2.9240    -0.8820 
  182.0000   425.8550    24.9150     2.2320     4.6300     4.1480     6.3420     4.5850    -0.6330 
  182.1250   414.5990    25.1670     2.2290     4.6940     4.2880     6.8430     6.8330    -0.3440 
  182.2500   405.9710    25.4170     2.2270     4.5900     4.1610     7.1840     7.5080    -0.1430 
  182.3750   408.6480    25.6040     2.2320     4.6320     4.3930     7.3600     7.0580    -0.2650 
  182.5000   420.7850    25.5520     2.2390     4.6260     4.4740     6.8840     6.8680    -0.1430 
  182.6250   429.5480    25.7210     2.2430     4.6120     4.2900     6.4810     5.9210     0.0820 
  182.7500   440.2780    25.9070     2.2290     4.6810     4.4660     6.3390     4.1410     0.1170 
  182.8750   427.2560    25.9720     2.2180     4.7150     4.8000     6.7240     3.8610    -0.2710 
  183.0000   415.6840    25.6600     2.2280     4.5490     4.6730     7.4160     5.4650    -0.4660 
  183.1250   405.9270    25.2840     2.2780     4.5080     4.9280     7.3390     7.0070    -0.5700 
  183.2500   395.6380    25.0360     2.3060     4.3160     5.3090     7.3160     6.6680    -0.5090 
  183.3750   390.0190    24.8200     2.3200     4.2440     6.0540     7.8480     7.0280    -0.4540 
  183.5000   390.4700    24.6670     2.3260     4.2910     7.1770     8.7910     8.8640    -0.4530 
  183.6250   391.3440    24.5970     2.3240     4.2970     7.5290     9.7890    10.5200    -0.4530 
  183.7500   387.7680    24.6510     2.3280     4.2120     7.2830     9.4100    11.2660    -0.5170 
  183.8750   375.1930    24.8080     2.3360     4.2700     6.9090     8.9100    10.7630    -0.6430 
  184.0000   354.3330    24.9340     2.3480     4.2380     7.8750     9.4420    10.0030    -0.6480 
  184.1250   359.1760    24.9510     2.3630     4.1620     9.1150    11.8960    17.3200    -0.6430 
  184.2500   407.3590    24.9180     2.3770     4.1210     8.0430    11.8980    35.0000    -0.5790 
  184.3750   432.7360    24.9890     2.3670     3.9860     6.0830     9.9220    21.5270    -0.4940 
  184.5000   435.3880    25.1830     2.2650     3.8850     4.2350     8.0010     6.8290    -0.3500 
  184.6250   441.3010    25.4750     2.1960     3.6840     3.2180     5.7780     4.6030    -0.1970 
  184.7500   428.2990    25.7490     2.1760     3.3650     2.5190     5.1950     2.6430    -0.4160 
  184.8750   419.3290    25.9070     2.1650     3.3260     2.6630     5.2140     1.8360    -0.4170 
  185.0000   408.9850    26.0230     2.1460     3.1230     3.1570     5.6820     1.8360    -0.0960 
  185.1250   409.7960    26.2010     2.1320     3.0530     3.1910     5.9970     2.6010     0.2620 
  185.2500   417.1170    26.3270     2.1250     2.9830     2.9200     5.7020     2.6010     0.6030 
  185.3750   421.6360    26.1340     2.1200     2.9770     2.5980     5.2410     1.9020     0.8260 
  185.5000   420.0970    25.7140     2.0980     2.9980     2.3950     4.8140     1.9170     1.1390 
  185.6250   422.2430    25.3690     2.0800     3.1550     2.3960     4.7880     2.7290     1.4530 
  185.7500   421.4920    25.5990     2.0270     3.3140     2.4330     4.6870     2.2830     1.7390 
  185.8750   414.1440    26.1930     1.9620     3.4320     2.5240     4.6880     1.4790     1.9650 
  186.0000   406.6330    26.7840     1.8910     3.6060     2.5070     4.9180     1.2000     1.7290 
  186.1250   401.1070    27.0960     1.8770     3.8630     2.3240     5.1360     1.5900     1.3540 
  186.2500   400.4520    26.9690     1.8740     4.1260     2.1670     5.3270     2.3440     1.2670 
  186.3750   401.6650    27.1860     1.8830     4.2280     2.1370     5.1120     1.4070     1.1110 
  186.5000   398.9020    26.9360     2.1430     4.2690     2.0180     4.9450     1.0730     0.8000 
  186.6250   392.4780    26.3900     2.1660     4.3410     2.3370     4.9590     1.3140     0.4880 
  186.7500   387.8450    25.9920     2.2320     4.4250     2.6550     5.2490     2.5550     0.1800 
  186.8750   390.1610    25.6710     2.2540     4.5140     2.7830     5.5840     2.5110    -0.0370 
  187.0000   396.1010    25.6360     2.2490     4.5810     2.7830     5.5860     2.9160    -0.0660 
  187.1250   405.8450    25.8210     2.2280     4.6840     2.6560     5.0800     2.8840    -0.1280 
  187.2500   409.8480    25.6260     2.2150     4.4720     2.5050     4.8690     2.4330    -0.0660 
  187.3750   404.6080    25.2490     2.1980     4.3200     2.4030     5.1720     2.3140    -0.1930 
  187.5000   394.9820    25.0610     2.1790     4.2070     2.5830     5.9730     2.2210    -0.4250 
  187.6250   389.3660    25.1000     2.1600     4.1230     3.3610     6.5860     2.4890    -0.6550 
  187.7500   385.3320    25.2570     2.1560     4.0400     4.9550     7.3150     4.7190    -0.8110 
  187.8750   386.4670    25.4090     2.1610     4.0420     4.9530     7.7000     8.0250    -0.9550 
  188.0000   391.4150    25.4760     2.1730     4.0740     4.9490     7.5030     8.8480    -0.9540 
  188.1250   393.4840    25.4260     2.1640     4.1050     6.0050     8.3860     7.6350    -0.8910 
  188.2500   392.4990    25.2390     2.1520     4.0140     8.1660    10.6850     6.7170    -0.8860 
  188.3750   388.8610    25.1170     2.1430     3.8840    10.8770    13.6430    13.0740    -0.7780 
  188.5000   384.4910    25.0580     2.1370     3.7900    12.0690    15.9530    16.9010    -0.6680 
  188.6250   384.2490    25.1840     2.1310     3.7940    12.5720    17.2100    18.3940    -0.5720 
  188.7500   390.1170    25.3780     2.1310     3.8200    12.2270    16.0900    15.5610    -0.6780 
  188.8750   399.3920    25.3020     2.1330     3.8360    11.6200    14.5680    14.0210    -1.0630 
  189.0000   399.5880    25.2160     2.1320     3.7330    11.1240    13.1050    11.6250    -1.4420 
  189.1250   398.0100    25.0970     2.1140     3.6650    10.5900    12.0150     9.4670    -1.8130 
  189.2500   396.5720    25.0050     2.1060     3.5870    11.3950    12.6270     8.9360    -2.1790 
  189.3750   394.3810    24.9960     2.0960     3.5370    15.1630    15.8750    16.1410    -2.4710 
  189.5000   394.2210    24.9490     2.0920     3.5660    16.4610    19.3460    16.8780    -2.6450 
  189.6250   394.6290    24.9790     2.0880     3.6290    16.8360    21.1950    17.2620    -2.8410 
  189.7500   395.7190    25.0630     2.0890     3.6770    17.5930    23.7210    18.3610    -2.8590 
  189.8750   398.5220    25.2200     2.0910     3.5930    24.5580    36.9830    26.3050    -3.0490 
