~V
VERS. 2.00: Ver 2.00
~W
STRT.M 100.0000:
STOP.M 2000.0000:
STEP.M 0.1250:
NULL. -999.2500:
UWI. Z006:
~C
DEPT.M :
AC.US/MT :
CALI.CM :
DEN.GM/CC :
GR.API :
RI. :
RML.OHMM :
RXO.OHMM :
SP.MV :
~A
# ...
  240.0000   245.3790    25.2870     2.3920     3.8470    12.5610    14.9160    15.6260    -5.2050 
  240.1250   244.2390    25.1410     2.3840     3.7210    12.6540    15.5270    18.7680    -4.9620 
  240.2500   244.2420    25.1390     2.3770     3.6410    13.2720    16.3550    17.3020    -4.7640 
  240.3750   244.9410    25.1020     2.3800     3.4690    12.8110    16.0360    19.4440    -4.7910 
  240.5000   247.0490    25.0180     2.3830     3.3910    11.8840    14.7840    17.4970    -4.8310 
  240.6250   250.8260    24.8940     2.3860     3.3970    11.1920    14.3850    16.3320    -4.9190 
  240.7500   253.7220    24.7010     2.3720     3.3150    11.4980    14.0730    19.2460    -4.8850 
  240.8750   251.2320    24.4580     2.3530     3.2920    12.1280    14.8100    19.2010    -4.8060 
  241.0000   251.2030    24.3660     2.3380     3.3390    12.6390    14.5440    25.5080    -4.7270 
  241.1250   252.9560    24.2460     2.3280     3.5160    12.0240    13.5290    22.4340    -4.5830 
  241.2500   256.0570    24.1820     2.3310     3.6710    10.7360    13.4000    24.2750    -4.3550 
  241.3750   256.0740    24.2240     2.3540     3.8280     9.6390    13.7710    33.2370    -4.1590 
  241.5000   253.2630    24.3080     2.3770     3.9020    10.1710    14.3730    16.5770    -4.1300 
  241.6250   252.0300    24.3490     2.3870     3.8730    11.7610    15.0310    14.7670    -4.0870 
  241.7500   250.7280    24.4400     2.3940     3.8290    12.1870    15.6610    15.6980    -3.8940 
  241.8750   250.7560    24.4860     2.3930     3.8440    12.2650    16.3480    15.9820    -3.5620 
  242.0000   253.1210    24.4300     2.3720     3.9350    12.6010    15.7810    14.5210    -3.2560 
  242.1250   254.4340    24.3130     2.3580     4.0170    12.9060    15.0440    15.1100    -3.2670 
  242.2500   258.7940    24.2650     2.3360     3.9950    12.4010    14.6450    13.8270    -3.4230 
  242.3750   271.7250    24.2490     2.3270     3.8740    11.7800    14.1110     9.5250    -3.5810 
  242.5000   283.4370    24.2500     2.3320     3.7820    11.3590    13.4920    10.0580    -3.7670 
  242.6250   298.1170    24.2500     2.3290     3.8240    11.1430    12.3600    10.9480    -3.8500 
  242.7500   254.1760    24.3100     2.3350     3.8570    10.0490    11.2350    11.2740    -3.7930 
  242.8750   266.3040    24.4380     2.3670     3.7720     8.7740    10.8580    10.3010    -3.5220 
  243.0000   282.3900    24.4430     2.3850     3.7920     6.9950    10.3730     9.0800    -3.2630 
  243.1250   297.4240    24.4430     2.4020     3.8320     6.0870     9.4780     7.8610    -3.2550 
  243.2500   316.0390    24.4440     2.3770     3.6790     6.4250     8.9580     7.6240    -3.3190 
  243.3750   328.6510    24.4440     2.3500     3.4990     7.5010     8.6080     7.8320    -3.3510 
  243.5000   304.2090    24.4440     2.3320     3.4680     7.3450     8.5510     8.0410    -3.4530 
  243.6250   269.5650    24.3810     2.3410     3.4750     6.9710     9.0300     8.2490    -3.5380 
  243.7500   263.0110    24.3810     2.3700     3.5230     6.7200     9.6270     8.4580    -3.6370 
  243.8750   260.7870    24.3110     2.3740     3.5560     7.3160    10.5130     9.4980    -3.6000 
  244.0000   264.0630    24.2800     2.3790     3.5510     7.1810    10.0540     8.1450    -3.4460 
  244.1250   268.5820    24.2370     2.3990     3.5440     6.5340     9.3740     7.8870    -3.3180 
  244.2500   277.9740    24.1910     2.4120     3.5190     5.9910     8.8160     7.9630    -3.3170 
  244.3750   282.4930    24.1270     2.3900     3.5360     5.7040     8.4230     8.6590    -3.3170 
  244.5000   281.4630    24.1270     2.3510     3.5930     5.8150     8.5480     8.5330    -3.3810 
  244.6250   280.9510    24.1280     2.3320     3.6570     5.9280     8.7380     7.8920    -3.3170 
  244.7500   284.2270    24.1070     2.3200     3.6550     5.8190     8.9380     6.9920    -3.3170 
  244.8750   288.0150    24.0640     2.3110     3.6380     5.7060     8.7640     6.4830    -3.3170 
  245.0000   291.0560    24.0730     2.2800     3.5560     5.4420     8.5130     6.4740    -3.3160 
  245.1250   291.1150    24.1290     2.2690     3.5350     5.2450     8.1710     7.2180    -3.2440 
  245.2500   288.1190    24.1910     2.2840     3.5320     5.1980     8.4060     6.2800    -3.0500 
  245.3750   284.2790    24.2120     2.3070     3.5280     5.2680     8.7380     5.8750    -2.9960 
  245.5000   282.4400    24.2580     2.2950     3.5090     5.4540     9.1960     7.9600    -3.0310 
  245.6250   280.9730    24.1310     2.2770     3.5160     5.7090     9.2900     7.4140    -3.1240 
  245.7500   280.3450    23.9850     2.2650     3.6170     5.6330     8.9410     7.1220    -3.1710 
  245.8750   281.1100    23.8110     2.2630     3.6660     5.2310     8.8060     6.6520    -3.1880 
  246.0000   282.6610    23.7400     2.2680     3.6410     4.9470     8.5130     6.3570    -3.0330 
  246.1250   286.8060    23.6360     2.2810     3.5750     5.2020     8.4300     6.3680    -2.8190 
  246.2500   289.9050    23.5750     2.2930     3.5870     5.0670     8.8000     6.4850    -2.7400 
  246.3750   290.7850    23.4890     2.3020     3.6570     4.5230     9.2500     6.4900    -2.7400 
  246.5000   291.0900    23.3650     2.3100     3.6650     4.3120     9.8040     6.6130    -2.7930 
  246.6250   291.0920    23.3660     2.3060     3.6620     4.5280    10.3280     6.4850    -2.8030 
  246.7500   290.4640    23.4300     2.2900     3.7740     5.3750    10.8620     6.5120    -2.8030 
  246.8750   290.4670    23.4940     2.2830     3.8500     6.3450    10.9280     6.6130    -2.7390 
  247.0000   290.4700    23.6230     2.2680     3.8940     6.7340    10.9910     6.6130    -2.6440 
  247.1250   290.4720    23.6760     2.2570     3.9860     6.7350    10.8630     6.6130    -2.4830 
  247.2500   290.0420    23.6870     2.2590     4.0470     6.7350    10.9610     6.6130    -2.4190 
  247.3750   289.8470    23.7520     2.2680     3.8780     6.7230    10.9920     6.6130    -2.2480 
  247.5000   289.8500    23.7520     2.2600     3.7970     6.6190    10.9920     6.6140    -2.2910 
  247.6250   290.2530    23.8400     2.2510     3.7890     6.6090    10.8710     6.6140    -2.3540 
  247.7500   289.8550    23.9440     2.2520     3.9290     6.7370    10.9930     6.6140    -2.4050 
  247.8750   289.8580    23.8400     2.2550     3.8660     6.7380    10.9930     6.6140    -2.4760 
  248.0000   289.8610    23.9440     2.2550     3.8950     6.7380    10.9210     6.5700    -2.4820 
  248.1250   289.6900     0.0000     2.2480     3.9680     6.8380    10.8660     6.4870    -2.5290 
  248.2500   289.8120     0.0000     2.2390     3.9070     6.9690    10.8660     6.4870    -2.6090 
  248.3750   289.8690     0.0000     2.2080     3.9360     6.9950    10.7560     6.6050    -2.6090 
  248.5000   289.8720     0.0000     2.1870     3.8880     6.9950    10.6420     6.6150    -2.5570 
  248.6250   289.8750     0.0000     2.1590     3.7640     6.8760    10.5660     6.6150    -2.3700 
  248.7500   290.0010     0.0000     2.1060     3.7580     6.8690    10.4240     6.6150    -2.1530 
  248.8750   290.9510     0.0000     2.0900     3.8010     6.9520    10.2660     6.6270    -2.0330 
  249.0000   291.1450     0.0000     2.0770     3.8460     6.8860    10.3570     6.7310    -2.0740 
  249.1250   291.7790     0.0000     2.0790     3.8010     6.9310    10.2000     6.8540    -2.2520 
  249.2500   291.7810     0.0000     2.0830     3.8140     6.9990    10.1020     6.8710    -2.3520 
  249.3750   291.7840     0.0000     2.0840     3.8940     6.9030    10.2290     6.8710    -2.4440 
  249.5000   291.7870     0.0000     2.0870     3.7910     6.8720    10.2300     6.8710    -2.3640 
  249.6250   292.1640     0.0000     2.0770     3.7690     6.8770    10.2310     6.8710    -2.1100 
  249.7500   293.0540     0.0000     2.0540     3.8140     7.0010    10.2310     6.8710    -1.7970 
  249.8750   293.0570     0.0000     2.0390     3.8800     7.0010    10.3080     6.8710    -1.4790 
