~V
VERS. 2.00: Ver 2.00
~W
STRT.M 100.0000:
STOP.M 2000.0000:
STEP.M 0.1250:
NULL. -999.2500:
UWI. Z006:
~C
DEPT.M :
AC.US/MT :
CALI.CM :
DEN.GM/CC :
GR.API :
RI. :
RML.OHMM :
RXO.OHMM :
SP.MV :
~A
# ...
  190.0000   399.5100    25.3810     2.0940     3.6200    28.5660    46.8460    34.2110    -3.4080 
  190.1250   399.2930    25.3010     2.1000     3.6820    33.0300    57.0150    35.1950    -3.9120 
  190.2500   399.2950    25.1970     2.1010     3.6280    36.2170    67.1510    35.7830    -4.4200 
  190.3750   400.5810    25.1400     2.0990     3.6370    41.0630    62.4980    66.7090    -5.1370 
  190.5000   403.6890    25.1270     2.0960     3.6740    44.7340    56.6820    64.3880    -5.5570 
  190.6250   405.6280    25.2210     2.1020     3.6580    42.5990    50.8670    54.6940    -5.9960 
  190.7500   404.4110    25.3610     2.1080     3.5970    40.1370    45.0510    50.0520    -6.3070 
  190.8750   402.8820    25.3840     2.1120     3.5750    36.1760    39.2360    42.6980    -6.5560 
  191.0000   402.3750    25.3840     2.1090     3.5350    29.9830    44.3510    32.1730    -6.7580 
  191.1250   402.1610    25.3840     2.1010     3.4610    32.7800    51.6260    34.8350    -6.7990 
  191.2500   403.0800    25.3070     2.0970     3.4720    37.2790    52.4940    58.9050    -7.1060 
  191.3750   405.2270    25.2570     2.0950     3.5100    38.6440    53.3190    48.2230    -7.3590 
  191.5000   407.4590    25.2580     2.0920     3.4560    38.3130    59.2400    45.0700    -7.6430 
  191.6250   405.5370    25.2580     2.0930     3.4370    38.2220    75.4060    43.6260    -7.9740 
  191.7500   406.9910    25.3390     2.0910     3.4650    45.4190    90.2360    61.0480    -8.2940 
  191.8750   411.9730    25.5140     2.0850     3.4590    54.8910   108.8570    65.9770    -8.6050 
  192.0000   412.6100    25.5150     2.0810     3.3840    59.8740   123.9880    99.6160    -8.9170 
  192.1250   413.2450    25.4510     2.0760     3.3910    65.3270   116.4880   119.1580    -9.2290 
  192.2500   414.9770    25.3990     2.0750     3.4120    67.5910   106.1480   114.4440    -9.4770 
  192.3750   418.7200    25.3240     2.0770     3.4340    61.3550   100.2310    86.6120    -9.7880 
  192.5000   419.5770    25.1790     2.0760     3.4780    56.0430    85.9430    86.9330   -10.0170 
  192.6250   417.8480    25.0690     2.0710     3.5150    52.8820    62.6870    96.2930   -10.1950 
  192.7500   415.5420    24.9830     2.0700     3.5250    44.6130    45.1360    71.3860   -10.4380 
  192.8750   412.0780    24.9420     2.0770     3.4380    27.6360    38.9940    34.7560   -10.5420 
  193.0000   409.3330    25.0060     2.0850     3.3860    26.1620    33.8690    25.8040   -10.4860 
  193.1250   406.8850    25.0710     2.0930     3.3550    24.9630    32.7730    27.1880   -10.4060 
  193.2500   405.0400    25.0420     2.1010     3.2880    24.5890    33.0050    25.9770   -10.2430 
  193.3750   405.6740    24.9810     2.1050     3.2290    26.5100    43.7840    23.4210   -10.1040 
  193.5000   407.5280    24.9440     2.0930     3.2160    31.7980    82.6880    34.2830   -10.1210 
  193.6250   409.3760    25.0090     2.0810     3.2870    51.7170   122.5760   100.9200   -10.4370 
  193.7500   411.8050    25.0720     2.0790     3.3860    69.3720   132.0100   105.7420   -10.8080 
  193.8750   413.3130    25.2280     2.0820     3.4410    73.4150   135.0460    96.8840   -11.0150 
  194.0000   415.0170    25.2650     2.0830     3.4120    76.7840   137.1220    92.7480   -11.0010 
  194.1250   415.0870    25.0950     2.0730     3.3020    77.9800   143.9740    92.4260   -10.9940 
  194.2500   413.9550    24.9980     2.0660     3.2180    77.7560   146.5630    95.7540   -11.2940 
  194.3750   411.9400    24.9150     2.0650     3.1990    78.7920   140.5370   102.5020   -11.6060 
  194.5000   411.3860    24.8330     2.0690     3.1310    79.0950   138.5150    97.6950   -11.9180 
  194.6250   412.0210    24.7550     2.0710     3.1920    78.5200   138.6170    92.0710   -12.1660 
  194.7500   412.0230    24.8190     2.0710     3.2600    79.4560   140.0850    91.6910   -12.4780 
  194.8750   411.8840    24.9480     2.0720     3.3340    80.7830   142.7650    96.8720   -12.7260 
  195.0000   411.3940    24.8850     2.0770     3.3420    83.9360   153.5440    96.2280   -13.0380 
  195.1250   410.4020    24.7930     2.0840     3.3280    87.1340   168.9600    94.5750   -13.2860 
  195.2500   409.3020    24.6370     2.0890     3.3920    91.7160   184.3750   110.4990   -13.5360 
  195.3750   409.6740    24.5870     2.0810     3.4990    93.8550   190.8670   125.7370   -13.6020 
  195.5000   412.1310    24.5660     2.0720     3.4940    90.2290   174.8980   119.0370   -13.6020 
  195.6250   414.6830    24.6130     2.0610     3.3870    82.7080   131.7220   104.1020   -13.6090 
  195.7500   417.1880    24.7710     2.0510     3.3360    74.0740   115.6680   106.7920   -13.5000 
  195.8750   417.0110    24.8930     2.0430     3.3220    65.4400    96.9340   102.6570   -13.2400 
  196.0000   414.7410    24.9510     2.0450     3.3180    56.8760    81.9170    71.0990   -12.9210 
  196.1250   413.2030    24.9510     2.0470     3.3210    53.8380    78.9170    68.4800   -12.6770 
  196.2500   412.6880    24.9090     2.0550     3.2300    52.0310    77.8830    65.0900   -12.3720 
  196.3750   412.0500    24.7840     2.0560     3.1440    50.6480    85.7730    56.5180   -12.4000 
  196.5000   412.6840    24.7600     2.0510     3.1360    50.9780    96.6140    56.3150   -12.5280 
  196.6250   413.3190    24.8180     2.0520     3.1500    56.4870    99.8280    66.0580   -12.7380 
  196.7500   413.1380    24.9280     2.0610     3.1580    60.7260   114.1560    88.2540   -12.8380 
  196.8750   412.6900    25.0810     2.0760     3.0790    66.5800   129.0140    94.3770   -12.8080 
  197.0000   412.8620    25.1450     2.0890     3.0870    69.9850   134.6010    94.8970   -12.7490 
  197.1250   416.0550    25.2100     2.0900     3.1290    70.1630   148.7980    96.6140   -12.4240 
  197.2500   417.3680    25.2100     2.0940     3.1740    75.3160   169.0320   101.9110   -12.3930 
  197.3750   416.3130    25.2740     2.1010     3.2170    82.1780   180.9640   121.6840   -12.4440 
  197.5000   414.9980    25.3230     2.1040     3.2600    83.9460   191.7000   130.9740   -12.5200 
  197.6250   413.0310    25.3080     2.1030     3.3030    82.0160   194.2280   139.2180   -12.3750 
  197.7500   412.0720    25.1840     2.1020     3.3460    79.4380   159.1170   138.3870   -12.0650 
  197.8750   412.2400    25.1000     2.1080     3.3880    53.3940    97.9690   132.2170   -11.8200 
  198.0000   413.1510    24.9910     2.1160     3.4300    41.8310    79.2270   113.7360   -11.7310 
  198.1250   415.1180    24.8930     2.1230     3.3770    37.1510    61.0510    39.3510   -11.7570 
  198.2500   417.4720    24.8540     2.1200     3.3320    34.3630    73.7610    38.1900   -11.8830 
  198.3750   420.5800    24.8300     2.1120     3.2940    38.5790    86.4700    40.8900   -11.7580 
  198.5000   423.3580    24.9660     2.1050     3.2630    47.7170    99.0610    49.7590   -11.5490 
  198.6250   421.2910    25.1600     2.0970     3.2550    53.6460   111.5760    80.5180   -11.3220 
  198.7500   418.2300    25.3420     2.0890     3.2900    57.2020   109.6140   102.1350   -11.1310 
  198.8750   413.9340    25.3420     2.0810     3.3510    54.8630   100.5310    92.7840   -10.8220 
  199.0000   410.1970    25.1960     2.0780     3.4140    51.0360    94.8550    75.4240   -10.5910 
  199.1250   409.2210    25.1070     2.0860     3.4550    49.3550    84.9340    75.3910   -10.4200 
  199.2500   414.0300    25.0240     2.1010     3.4620    47.7060    83.1260    72.6340   -10.5530 
  199.3750   422.9790    25.0240     2.1130     3.4190    46.2130    87.8440    78.5890   -10.8240 
  199.5000   425.3810    24.9610     2.1170     3.3490    48.2630    93.2000    61.9340   -11.0640 
  199.6250   423.2500    25.0760     2.1060     3.2810    50.8790    88.8270    72.3620   -11.2930 
  199.7500   420.4930    25.2260     2.0960     3.2280    50.6110    76.9570    82.7960   -11.3060 
  199.8750   420.9610    25.3320     2.0890     3.2040    44.8960    68.3740    70.0710   -11.1190 
