~V
VERS. 2.00: Ver 2.00
~W
STRT.M 100.0000:
STOP.M 2000.0000:
STEP.M 0.1250:
NULL. -999.2500:
UWI. Z006:
~C
DEPT.M :
AC.US/MT :
CALI.CM :
DEN.GM/CC :
GR.API :
RI. :
RML.OHMM :
RXO.OHMM :
SP.MV :
~A
  100.0000   463.2930    25.7960     2.1940     5.1870     2.2240     3.1850     2.7710    -0.3820 
  100.1250   455.6650    25.8950     2.1900     5.1390     1.9830     3.0580     2.5880    -0.5930 
  100.2500   449.5930    25.8950     2.1880     5.0230     1.9040     3.0090     2.5880    -0.5930 
  100.3750   441.2100    25.7920     2.1860     4.9290     2.0600     3.1860     2.7160    -0.5300 
  100.5000   437.7350    25.5290     2.2010     4.8960     2.1590     3.4410     3.6810    -0.4330 
  100.6250   439.0030    25.3390     2.2180     4.9730     2.2860     3.5520     4.6990    -0.6570 
  100.7500   443.6830    25.2750     2.2270     5.0970     2.5400     3.5690     4.4000    -0.9050 
  100.8750   450.2730    25.5910     2.2270     5.0400     2.6400     3.3480     4.5000    -1.1130 
  101.0000   453.7090    25.9070     2.2150     4.9530     2.6680     3.1870     5.2940    -1.2460 
  101.1250   456.9030    26.2290     2.2060     4.9020     2.3910     3.1040     3.1660    -1.3550 
  101.2500   449.5210    26.6640     2.1940     4.8190     1.9080     2.7270     2.8670    -1.4500 
  101.3750   439.3600    26.1190     2.1700     4.8410     1.9140     2.6890     3.1810    -1.5330 
  101.5000   430.4050    25.5880     2.1590     4.8680     2.2870     3.0720     3.7500    -1.4470 
  101.6250   420.4620    25.2610     2.1640     4.8570     2.7850     3.6370     4.1020    -1.4070 
  101.7500   415.8480    25.2610     2.1730     4.7440     3.2420     4.0730     3.6130    -1.3440 
  101.8750   457.5290    25.2780     2.1870     4.7160     3.4760     4.6640     4.1220    -1.2550 
  102.0000   483.9980    25.4380     2.1950     4.7170     3.1930     4.7470     4.7510    -1.1520 
  102.1250   440.7980    25.5650     2.1950     4.7240     3.0320     4.2280     4.4970    -1.0920 
  102.2500   410.9720    25.5810     2.1910     4.6340     2.9270     4.2500     4.6750    -1.4070 
  102.3750   432.3050    25.6460     2.1870     4.5810     3.0760     4.3940     8.5370    -1.5620 
  102.5000   459.4620    25.6460     2.1710     4.5630     3.3090     4.1800     7.0840    -1.7160 
  102.6250   486.1940    25.6460     2.1600     4.4440     3.3090     3.9050     3.2260    -1.7700 
  102.7500   493.6870    25.5870     2.1600     4.3520     3.2990     3.5600     3.4370    -1.8410 
  102.8750   467.4870    25.5310     2.1650     4.1930     2.9300     3.3520     3.8900    -1.9080 
  103.0000   441.8100    25.4240     2.1740     4.0000     2.6770     3.1930     4.0930    -1.9890 
  103.1250   440.5420    25.3150     2.1820     3.8280     2.7980     3.1930     3.5740    -2.2380 
  103.2500   432.0570    25.2230     2.1740     3.7330     3.0810     3.3220     3.3420    -2.4210 
  103.3750   422.7650    25.1380     2.1600     3.5340     3.5240     3.6360     6.0420    -2.5430 
  103.5000   415.5030    25.0050     2.1360     3.4710     4.0380     4.1960     8.1850    -2.6460 
  103.6250   413.4900    24.8630     2.1250     3.3750     4.5370     4.7970     5.4890    -2.7870 
  103.7500   429.8940    24.7590     2.1230     3.3120     5.1370     5.4520     5.2540    -2.7870 
  103.8750   450.7720    24.6920     2.1210     3.2360     5.6320     5.9750     6.2020    -2.7870 
  104.0000   462.1330    24.6930     2.1040     3.2310     5.0660     6.7070     7.0980    -2.7870 
  104.1250   461.2000    24.7660     2.0850     3.3000     4.2760     6.5940     6.9140    -2.6630 
  104.2500   465.0920    24.8210     2.0690     3.3590     3.7550     5.9730     6.4300    -2.5250 
  104.3750   460.8910    24.8900     2.0580     3.3680     3.6980     5.7020     6.0490    -2.4570 
  104.5000   462.7540    24.9490     2.0520     3.3270     3.9520     5.3620     5.7320    -2.4090 
  104.6250   465.3280    25.0070     2.0540     3.3450     4.4360     5.3630     5.6440    -2.3550 
  104.7500   457.6950    24.9150     2.0570     3.4010     4.8410     5.6270     5.6440    -2.2700 
  104.8750   453.2120    24.7590     2.0590     3.4460     4.9680     5.8730     5.7710    -2.2250 
  105.0000   449.5010    24.8230     2.0530     3.4580     4.5530     5.8730     5.5080    -2.1560 
  105.1250   447.6050    24.8810     2.0420     3.4790     4.2080     5.5070     5.3000    -2.1500 
  105.2500   447.6780    24.9630     2.0370     3.5290     4.2090     5.3640     5.3900    -2.0930 
  105.3750   449.6280    25.0680     2.0360     3.6230     4.4770     5.5380     5.5170    -2.2210 
  105.5000   455.2520    24.9300     2.0380     3.7160     4.5900     5.6200     6.1450    -2.3430 
  105.6250   458.3690    24.8250     2.0430     3.7480     4.3170     5.6200     6.5270    -2.3440 
  105.7500   458.4050    24.8250     2.0330     3.7530     3.8300     5.3020     6.1090    -2.1600 
  105.8750   460.3900    24.8260     2.0350     3.7810     3.9580     5.2390     5.7720    -1.8960 
  106.0000   461.5830    24.8710     2.0450     3.8220     4.4540     5.4520     6.3620    -1.6650 
  106.1250   458.4010    24.9120     2.0530     3.7960     4.7720     5.7020     7.0180    -1.4110 
  106.2500   453.7450    25.0180     2.0560     3.7520     4.8470     5.8770     6.5360    -1.0720 
  106.3750   451.0440    24.9910     2.0600     3.6830     4.8480     5.8770     5.7720    -0.8350 
  106.5000   446.3160    24.8360     2.0630     3.6560     4.6220     5.7500     5.6450    -0.6360 
  106.6250   442.2890    24.7640     2.0630     3.7240     4.5010     5.6230     5.9150    -0.3850 
  106.7500   441.8630    24.7810     2.0650     3.8250     4.4690     5.6230     6.1540    -0.2070 
  106.8750   451.8070    24.9660     2.0710     3.9050     4.4700     5.6240     6.1480    -0.4540 
  107.0000   459.5830    25.1220     2.0840     3.9860     4.5650     5.6240     5.9630    -0.5790 
  107.1250   466.1470    25.2680     2.0770     4.0670     4.7980     5.7300     5.5290    -0.7070 
  107.2500   468.6060    25.5070     2.0620     4.1480     5.0460     5.9800     5.5190    -0.7700 
  107.3750   467.6580    25.6880     2.0450     4.2280     4.8540     5.5280     8.0250    -0.6580 
  107.5000   464.8150    25.7900     2.0210     4.3210     4.4160     4.7790    23.6540    -0.5630 
  107.6250   462.5920    25.9160     2.0270     4.3060     3.8010     4.0970    36.8970    -0.3300 
  107.7500   456.4460    25.9160     2.0790     4.2030     2.9870     3.7370     5.7420    -0.0950 
  107.8750   449.0430    25.5570     2.1190     4.1900     2.5820     3.3480     2.8500     0.1790 
  108.0000   442.7800    25.4000     2.1340     4.2220     2.4440     3.2060     2.7340     0.2760 
  108.1250   440.2300    25.2300     2.1350     4.2440     2.6450     3.3510     3.3160     0.3600 
  108.2500   438.7800    25.1070     2.1560     4.1990     3.1100     3.7000     4.1760     0.2990 
  108.3750   431.2720    25.0240     2.1630     4.2890     3.2070     4.0860     5.0120     0.1140 
  108.5000   435.2880    25.0250     2.1710     4.4070     2.8720     4.5860     4.9440     0.0200 
  108.6250   443.0340    25.0480     2.1800     4.5290     2.5900     4.4340     4.6300    -0.0130 
  108.7500   449.6750    25.1540     2.1890     4.6970     2.6800     3.9150     4.7700    -0.0120 
  108.8750   450.9000    25.2800     2.2030     4.7970     2.0540     3.4980     3.3880    -0.0750 
  109.0000   445.9110    25.4000     2.1940     4.8060     1.5610     3.2390     2.5550    -0.1240 
  109.1250   440.0260    25.4730     2.1880     4.7530     1.6850     3.1170     2.2150    -0.2240 
  109.2500   434.6810    25.3570     2.1930     4.8290     2.3770     3.2090     2.3850    -0.4340 
  109.3750   436.8660    25.0910     2.2040     4.8620     2.7520     3.4830     2.9080    -0.5850 
  109.5000   444.5120    25.0270     2.2100     4.8380     3.0000     3.9070     3.6390    -0.6880 
  109.6250   453.4730    25.1020     2.2090     4.8540     3.1400     3.8410     4.1230    -0.7410 
  109.7500   457.5590    25.2460     2.2140     4.8820     2.8330     3.5890     3.1450    -0.7650 
  109.8750   458.5790    25.3730     2.2280     4.7040     2.5790     3.2120     2.2110    -0.7010 
