~V
VERS. 2.00: Ver 2.00
~W
STRT.M 100.0000:
STOP.M 2000.0000:
STEP.M 0.1250:
NULL. -999.2500:
UWI. Z006:
~C
DEPT.M :
AC.US/MT :
CALI.CM :
DEN.GM/CC :
GR.API :
RI. :
RML.OHMM :
RXO.OHMM :
SP.MV :
~A
# ...
  110.0000   459.9770    25.4780     2.2220     4.6210     2.5890     2.9560     1.9610    -0.7320 
  110.1250   463.3760    25.5830     2.1990     4.5950     2.7070     2.9570     1.9620    -0.9090 
  110.2500   464.2740    25.6040     2.1890     4.5950     2.7130     2.9570     2.5280    -1.0330 
  110.3750   457.2420    25.6040     2.1950     4.5950     2.8810     3.0850     2.9050    -1.0790 
  110.5000   449.6740    25.5410     2.1880     4.4560     3.0890     3.2120     2.8670    -1.1420 
  110.6250   443.3450    25.5410     2.1910     4.2720     3.0900     3.3200     2.0490    -1.1420 
  110.7500   439.3490    25.5100     2.2050     4.0660     2.9740     3.4680     2.1870    -1.0890 
  110.8750   438.3510    25.4780     2.2160     3.9360     2.6450     3.3170     3.7230    -1.0780 
  111.0000   435.3420    25.4780     2.2110     3.7320     2.4280     2.9970     4.5000    -1.1410 
  111.1250   428.2060    25.4700     2.2070     3.4790     2.3310     3.4970     2.7550    -1.1880 
  111.2500   422.6130    25.3500     2.2090     3.3180     2.7120     4.1160     2.6250    -1.1410 
  111.3750   421.1120    25.2670     2.2130     3.2860     3.5080     4.3530     5.0470    -1.1060 
  111.5000   424.8660    25.2250     2.2170     3.2920     3.8940     3.9380     8.2460    -1.0140 
  111.6250   427.9840    25.1640     2.2000     3.3110     3.5870     3.7360     9.1230    -0.9510 
  111.7500   430.7880    25.0980     2.1930     3.3000     3.2750     3.6510     2.4780    -1.1240 
  111.8750   423.2970    25.0980     2.1900     3.2390     3.2910     3.8460     3.2820    -1.5030 
  112.0000   412.9160    25.1620     2.1940     3.2650     3.4770     4.4510     4.4900    -1.6350 
  112.1250   381.2040    25.2390     2.2010     3.3290     4.0280     5.0290     3.8350    -2.1860 
  112.2500   373.3770    25.2070     2.2090     3.3870     4.7680     5.9610     8.3530    -2.4420 
  112.3750   390.7120    25.0960     2.1920     3.4600     5.0210     6.1480    11.4920    -2.6960 
  112.5000   404.6300    25.0010     2.1650     3.4910     4.3150     5.5900     6.5640    -2.9100 
  112.6250   419.5770    24.9080     2.1610     3.4140     4.1140     4.8550     3.8750    -3.0130 
  112.7500   429.0790    24.9090     2.1670     3.3690     4.1140     4.8260     5.6510    -3.0890 
  112.8750   433.7650    24.8450     2.1680     3.3690     4.1150     5.0220     6.4850    -3.0890 
  113.0000   441.2840    24.7820     2.1490     3.3840     3.7140     4.2280     4.4790    -3.0450 
  113.1250   441.6160    24.8190     2.1280     3.3950     3.6080     4.1750     3.5410    -2.8780 
  113.2500   449.6380    25.0710     2.1170     3.3700     3.6160     4.4890     4.3000    -2.7740 
  113.3750   459.3600    25.3720     2.1110     3.3660     3.9990     5.0580     5.5540    -2.7110 
  113.5000   442.7350    25.4220     2.1220     3.4100     4.5290     5.4850     6.0340    -2.7430 
  113.6250   420.2390    25.1910     2.1360     3.4680     4.8080     5.6420     5.6570    -2.9430 
  113.7500   405.0750    24.9120     2.1520     3.5110     4.8800     5.5390     5.2550    -3.0760 
  113.8750   409.1900    24.9760     2.1660     3.5350     4.5170     4.6810     7.9420    -3.1680 
  114.0000   420.5530    25.0400     2.1790     3.5860     3.6400     3.8960    11.9840    -3.2760 
  114.1250   427.8870    25.2960     2.1980     3.6250     2.9480     3.2990    11.1070    -3.3310 
  114.2500   420.2010    25.3350     2.1710     3.5880     2.7480     3.1350     5.0560    -3.3390 
  114.3750   389.9410    25.2330     2.1440     3.5470     3.1630     3.8900     2.4740    -3.2570 
  114.5000   348.6880    24.9920     2.1350     3.6010     4.0090     4.7730     4.4500    -3.1790 
  114.6250   316.6980    24.7860     2.1280     3.6790     4.9110     5.5400     9.5870    -3.1500 
  114.7500   312.6030    24.8510     2.1110     3.7320     5.5250     6.5390    17.2760    -2.9780 
  114.8750   335.8380    24.7730     2.1110     3.7670     5.9000     6.5450    11.8100    -2.7750 
  115.0000   361.3330    24.5940     2.1150     3.7980     5.5880     6.2550     9.0800    -2.6080 
  115.1250   387.4120    24.5320     2.1190     3.7930     5.1880     6.0800     6.9930    -2.3500 
  115.2500   404.5730    24.5330     2.1240     3.7720     4.9930     6.0290     5.6570    -2.1540 
  115.3750   412.1190    24.5330     2.1270     3.7460     4.8690     6.1090     5.4000    -1.8890 
  115.5000   418.3190    24.5330     2.1290     3.7700     4.7610     5.9020     6.1960    -1.8260 
  115.6250   425.4520    24.6530     2.1280     3.8190     4.7610     5.7120     6.4470    -1.7630 
  115.7500   432.8950    24.7260     2.1220     3.8640     4.9820     5.5200     5.4000    -1.9520 
  115.8750   433.5370    24.7260     2.1190     3.9030     5.2010     5.3720     5.6030    -1.9060 
  116.0000   431.4720    24.6200     2.1230     3.8700     5.2710     5.2660     6.3590    -1.7450 
  116.1250   429.2720    24.6630     2.1270     3.8190     5.0840     5.3220     6.6420    -1.5730 
  116.2500   428.4530    24.7510     2.1300     3.7770     4.8730     5.5680     6.3730    -1.3870 
  116.3750   427.1920    24.8550     2.1260     3.7720     4.9810     5.9060     6.0810    -1.1780 
  116.5000   428.6980    24.8560     2.1180     3.7830     5.2400     6.4110     5.6280    -1.0460 
  116.6250   439.6900    24.8560     2.1130     3.7940     5.4370     6.7970     5.1470    -0.9430 
  116.7500   448.4890    24.7360     2.1060     3.7840     5.5280     6.4000     5.1470    -0.8860 
  116.8750   450.3930    24.7290     2.1060     3.7210     5.0210     5.7110     5.2710    -0.8720 
  117.0000   452.7000    24.7290     2.1110     3.6700     4.7670     6.1610     5.7720    -0.8170 
  117.1250   456.3650    24.7300     2.1220     3.6630     4.9310     6.2890     6.1650    -0.9530 
  117.2500   457.0110    24.7300     2.1320     3.7100     5.2420     6.4800     5.5500    -1.1480 
  117.3750   431.9540    24.7480     2.1370     3.8020     5.5300     6.6720     5.4020    -1.4460 
  117.5000   419.6440    24.8580     2.1380     3.9510     5.6580     6.7780     5.7500    -1.5080 
  117.6250   417.9880    24.9860     2.1410     4.0910     5.6590     6.9810     6.1460    -1.6140 
  117.7500   409.1820    24.9870     2.1520     4.1740     5.6740     7.3100     6.4200    -1.6340 
  117.8750   396.4180    24.9870     2.1680     4.2630     5.6600     7.4410     6.5470    -1.5710 
  118.0000   386.6190    24.9490     2.1810     4.2990     5.5330     7.5980     6.4200    -1.4880 
  118.1250   385.5200    25.0830     2.1970     4.2770     4.7840     7.8180     6.1360    -1.3480 
  118.2500   406.9420    25.2360     2.2120     4.3830     3.9100     6.6970     4.8780    -1.1580 
  118.3750   429.9840    25.4220     2.2240     4.5020     3.1630     5.6800     3.4920    -1.0660 
  118.5000   446.2060    25.5790     2.2220     4.5200     2.6470     4.4500     2.6740    -1.3320 
  118.6250   456.4160    25.6280     2.2070     4.4000     2.2560     3.7660     2.3620    -1.4440 
  118.7500   452.8670    25.6920     2.1910     4.3120     2.0900     3.4520     2.4780    -1.3400 
  118.8750   450.7330    25.6150     2.1810     4.2430     1.9830     3.2340     2.9040    -1.1810 
  119.0000   448.7190    25.4030     2.1850     4.1940     2.2660     3.2530     3.4490    -0.9320 
  119.1250   448.2070    25.2460     2.1940     4.2450     2.6340     3.3630     2.7330    -0.6850 
  119.2500   449.2110    25.1850     2.1990     4.2770     2.8420     3.3630     2.9190    -0.8110 
  119.3750   449.4540    25.2210     2.2000     4.2210     3.0010     3.2610     3.6230    -0.8950 
  119.5000   446.3770    25.2610     2.1950     4.2400     2.8740     3.2390     3.0740    -0.9480 
  119.6250   446.3290    25.3660     2.1900     4.3520     2.6200     3.3430     2.8910    -1.0010 
  119.7500   448.0520    25.4500     2.1860     4.2540     2.3280     3.4650     3.8460    -1.0010 
  119.8750   451.8650    25.5420     2.1840     4.1730     2.2410     3.6190     5.1500    -0.9050 
