~V
VERS. 2.00: Ver 2.00
~W
STRT.M 100.0000:
STOP.M 2000.0000:
STEP.M 0.1250:
NULL. -999.2500:
UWI. Z006:
~C
DEPT.M :
AC.US/MT :
CALI.CM :
DEN.GM/CC :
GR.API :
RI. :
RML.OHMM :
RXO.OHMM :
SP.MV :
~A
# ...
  200.0000   419.5570    25.3460     2.0880     3.2290    41.2070    66.2320    52.8320   -10.8050 
  200.1250   417.2930    25.3140     2.0890     3.2850    38.2430    60.2980    53.0530   -10.5520 
  200.2500   415.5530    25.2420     2.0930     3.3400    35.4620    55.9930    50.6670   -10.3640 
  200.3750   414.1550    25.2190     2.1060     3.3870    32.3780    54.4600    45.6310   -10.2920 
  200.5000   411.8270    25.3840     2.1260     3.4330    31.5000    59.5940    39.2010   -10.3560 
  200.6250   410.0420    25.5310     2.1300     3.3610    33.9980    66.7880    37.3990   -10.2560 
  200.7500   409.0080    25.4320     2.1340     3.3110    37.1540    69.1500    44.8930   -10.0800 
  200.8750   408.3300    25.1840     2.1390     3.3280    38.9220    66.9210    62.5720    -9.8710 
  201.0000   410.1010    25.0510     2.1450     3.3890    38.3290    67.2410    51.2770    -9.7820 
  201.1250   413.7130    24.9010     2.1340     3.4660    37.4450    68.3880    54.6850    -9.7820 
  201.2500   417.4540    24.8980     2.1200     3.4990    38.1560    67.0790    58.1430    -9.7820 
  201.3750   418.4560    24.7740     2.1050     3.5190    38.4430    68.5930    62.4760    -9.7190 
  201.5000   417.1160    24.7740     2.0900     3.4990    37.9610    73.0330    48.6650    -9.6550 
  201.6250   415.2980    24.8010     2.0830     3.4700    40.0970    75.5390    45.0300    -9.5310 
  201.7500   416.6500    25.0140     2.0840     3.4220    41.7810    78.5870    58.4720    -9.4640 
  201.8750   420.3480    25.0950     2.0710     3.4880    44.7760    85.6970    62.0350    -9.3190 
  202.0000   423.2680    25.2350     2.0660     3.5930    49.0780    92.8070    67.4190    -9.2130 
  202.1250   424.1580    25.3520     2.0680     3.5510    49.5360    81.4590    78.1070    -9.1720 
  202.2500   423.9340    25.2380     2.0580     3.5560    43.8740    63.7550    53.3550    -9.3710 
  202.3750   422.5550    25.0910     2.0550     3.5610    40.7050    57.2220    46.2650    -9.6210 
  202.5000   421.5500    24.9870     2.0610     3.5660    37.3170    54.9800    41.9620    -9.7820 
  202.6250   420.5450    24.9370     2.0640     3.5630    35.6690    60.2090    37.6450    -9.7820 
  202.7500   421.0070    24.9060     2.0560     3.5300    37.2970    71.9080    39.4080    -9.7820 
  202.8750   421.0090    24.9060     2.0440     3.5140    39.4200    73.3810    53.2570    -9.8710 
  203.0000   420.6070    24.9950     2.0400     3.5990    41.2830    74.1120    62.5120    -9.9090 
  203.1250   419.8900    25.1250     2.0410     3.7330    41.8860    73.7190    60.6110    -9.8450 
  203.2500   419.1150    25.2180     2.0490     3.7420    37.7740    63.8260    62.0960    -9.7210 
  203.3750   418.4880    25.2270     2.0630     3.6070    32.4610    52.3920    66.1500    -9.5400 
  203.5000   418.1020    25.2280     2.0780     3.5230    32.1140    54.1560    36.4880    -9.3470 
  203.6250   416.0800    25.1870     2.0800     3.5390    33.3920    56.7930    39.3750    -9.1440 
  203.7500   414.1950    25.0970     2.0750     3.4990    34.8640    57.1180    39.6870    -9.0260 
  203.8750   411.8080    24.9930     2.0690     3.4440    35.2090    56.7440    41.2770    -8.9530 
  204.0000   410.1750    25.0410     2.0640     3.4090    35.5340    58.9780    45.3620    -8.7800 
  204.1250   410.8300    25.1250     2.0680     3.4360    35.9050    57.8550    49.6980    -8.6480 
  204.2500   414.9730    25.2090     2.0740     3.4640    35.5910    55.4050    54.0340    -8.6170 
  204.3750   419.1150    25.3800     2.0810     3.4370    34.8690    57.2130    43.9980    -8.7970 
  204.5000   421.6670    25.6340     2.0880     3.3530    35.5350    67.3010    41.9910    -9.0190 
  204.6250   419.7410    25.6780     2.0930     3.3090    36.8460    71.1790    49.4140    -9.1860 
  204.7500   416.9470    25.6480     2.0950     3.3260    39.9630    73.1390    54.2970    -9.4550 
  204.8750   414.7710    25.5650     2.0930     3.3100    43.0080    77.9890    53.2990    -9.4910 
  205.0000   413.3320    25.4480     2.0870     3.3350    46.2130    76.0250    63.7830    -9.5260 
  205.1250   412.2880    25.4240     2.0780     3.3810    44.9790    73.9940    78.3340    -9.4620 
  205.2500   412.1960    25.3600     2.0770     3.4430    44.5910    71.6580    73.7900    -9.3860 
  205.3750   413.9440    25.4840     2.0820     3.5280    45.5290    74.0930    57.1180    -9.2950 
  205.5000   415.3610    25.4300     2.0940     3.5650    47.1040    79.4140    64.1330    -9.1260 
  205.6250   413.9520    25.3020     2.1070     3.5000    49.0660    84.0720    69.1690    -8.9300 
  205.7500   410.8150    25.1790     2.1120     3.4810    50.4540    86.4770    74.6190    -8.8880 
  205.8750   407.9300    25.1060     2.1160     3.5160    51.5500    68.3930    86.0500    -8.8880 
  206.0000   404.1810    25.1070     2.1250     3.5350    48.5150    60.6650    88.1710    -8.8250 
  206.1250   403.0440    25.1070     2.1350     3.5280    44.6210    56.7360   122.7230    -8.6750 
  206.2500   407.6220    25.1120     2.1450     3.5210    40.7820    56.9830    88.8130    -8.4440 
  206.3750   411.9920    25.2060     2.1470     3.5140    41.3630    62.0960    50.4640    -8.2080 
  206.5000   410.0210    25.2380     2.1400     3.5160    42.8690    64.8790    56.8100    -7.9700 
  206.6250   402.9700    25.3000     2.1370     3.5980    43.8270    50.9460    67.4240    -7.8730 
  206.7500   398.5870    25.2370     2.1470     3.6280    38.7810    38.5780    79.1050    -7.7190 
  206.8750   397.0500    25.1770     2.1620     3.6330    34.6970    30.9450    90.7850    -7.6770 
  207.0000   398.5640    25.1730     2.1620     3.6950    23.7940    28.9430    35.4250    -7.5600 
  207.1250   394.3330    25.1740     2.1600     3.7830    22.3360    28.2720    36.8320    -7.7410 
  207.2500   392.1370    25.1450     2.1650     3.8890    22.3620    28.6340    39.6340    -7.6910 
  207.3750   399.9170    25.0470     2.1700     3.9640    24.8780    36.0560    25.0000    -7.5720 
  207.5000   424.3180    25.1830     2.1670     4.0540    29.9270    44.1690    36.7770    -7.4150 
  207.6250   434.9130    25.3070     2.1520     4.1160    34.5410    53.2450    47.8710    -7.0300 
  207.7500   440.5390    25.4010     2.1390     4.0740    39.3610    58.5090    50.8190    -6.6510 
  207.8750   446.3750    25.4950     2.1310     3.9210    41.4020    60.7480    51.1820    -6.3360 
  208.0000   445.7450    25.5600     2.1290     3.8450    42.0280    62.0930    52.4360    -6.0210 
  208.1250   453.7950    25.5240     2.1330     3.7780    41.5240    62.3590    53.6900    -5.7010 
  208.2500   469.7250    25.4540     2.1400     3.7450    41.4270    61.4080    54.9430    -5.7540 
  208.3750   515.1940    25.4330     2.1460     3.6980    42.3140    60.7800    56.1970    -5.8600 
  208.5000   531.7230    25.4010     2.1440     3.7100    42.0840    60.2310    57.3840    -6.0120 
  208.6250   478.0830    25.4340     2.1390     3.7610    39.8910    55.8250    83.0320    -6.1350 
  208.7500   433.8200    25.4240     2.1410     3.8250    38.3160    52.4560   111.0040    -6.2280 
  208.8750   428.6130    25.3070     2.1530     3.9130    37.8830    54.6900    40.1100    -6.3040 
  209.0000   424.8840    25.3070     2.1700     3.8910    41.3610    60.0120    43.1020    -6.3860 
  209.1250   450.5820    25.2640     2.1950     3.8580    45.4450    62.6540    50.7930    -6.4650 
  209.2500   474.1310    25.0990     2.2170     3.8510    48.0310    60.2540    68.0000    -6.4980 
  209.3750   478.3320    24.9880     2.2150     3.9010    46.2940    58.2910    51.5970    -6.5540 
  209.5000   454.2500    24.9250     2.2120     3.9320    45.2580    65.7420    41.9710    -6.6330 
  209.6250   400.1470    24.8420     2.2120     3.8410    45.8880    70.6400    45.4950    -6.6560 
  209.7500   405.8970    24.7980     2.2340     3.7730    49.9170    72.0520    44.2250    -6.5670 
  209.8750   399.2350    24.7980     2.2750     3.9150    48.8990    84.3650    47.3390    -6.5130 
