~V
VERS. 2.00: Ver 2.00
~W
STRT.M 100.0000:
STOP.M 2000.0000:
STEP.M 0.1250:
NULL. -999.2500:
UWI. Z006:
~C
DEPT.M :
AC.US/MT :
CALI.CM :
DEN.GM/CC :
GR.API :
RI. :
RML.OHMM :
RXO.OHMM :
SP.MV :
~A
# ...
  130.0000   448.5970    25.5490     2.2090     4.7580     2.4690     3.4780     4.5010     0.2340 
  130.1250   448.1210    25.6750     2.1920     4.6910     2.2850     3.6120     4.0940     0.3680 
  130.2500   444.7300    25.7750     2.1740     4.5860     2.1990     3.6470     3.3540     0.4630 
  130.3750   439.6850    25.7970     2.1590     4.5730     2.1590     3.5710     2.6980     0.5930 
  130.5000   438.1480    25.9290     2.1590     4.6420     2.1980     3.4870     3.0160     0.3780 
  130.6250   437.2650    25.9170     2.1630     4.7150     2.2870     3.4040     3.6430    -0.0090 
  130.7500   436.0020    25.8750     2.1670     4.7580     2.4030     3.6170     3.8890    -0.3500 
  130.8750   433.5440    25.7500     2.1690     4.7030     2.4560     3.7760     3.0090    -0.5920 
  131.0000   432.9020    25.5820     2.1580     4.7620     2.6410     3.7760     3.1050    -0.7300 
  131.1250   434.7080    25.4710     2.1560     4.7660     2.6700     3.7770     3.9060    -0.7300 
  131.2500   437.7800    25.5990     2.1640     4.4840     2.6710     3.7770     3.9480    -0.7300 
  131.3750   440.2630    25.6960     2.1690     4.4930     2.6720     3.6850     3.8220    -0.7300 
  131.5000   439.5690    25.5760     2.1650     4.4950     2.6720     3.5290     3.6960    -0.7300 
  131.6250   436.9940    25.2550     2.1610     4.3910     2.7440     3.3950     3.1940    -0.6910 
  131.7500   433.6410    25.1290     2.1600     4.3490     2.8000     3.5230     3.1900    -0.5430 
  131.8750   424.6730    25.0900     2.1640     4.4620     2.9280     3.7180     3.4210    -0.3580 
  132.0000   418.4900    25.0910     2.1710     4.5600     3.1730     4.0980     3.8880    -0.1820 
  132.1250   416.5040    25.2160     2.1770     4.6640     3.3480     4.3920     4.0240    -0.0640 
  132.2500   425.8980    25.2190     2.1780     4.7950     3.5640     4.8000     4.0290     0.0760 
  132.3750   450.2880    25.2090     2.1740     4.7920     3.1320     4.3830     4.7230     0.2630 
  132.5000   469.8510    25.4620     2.1710     4.6840     2.8810     3.8950     4.5680     0.5340 
  132.6250   503.4070    25.6460     2.1560     4.6290     2.6470     3.4540     2.4210     0.5970 
  132.7500   519.5100    25.7950     2.1450     4.6550     2.2970     3.1380     1.9350     0.5910 
  132.8750   533.2520    25.7150     2.1460     4.4810     2.2410     3.0680     2.3250     0.4060 
  133.0000   485.5000    25.6290     2.1500     4.3290     2.1710     3.3330     2.6820     0.2190 
  133.1250   436.0510    25.4750     2.1550     4.2420     2.1710     3.5980     2.2140     0.0980 
  133.2500   426.8600    25.3500     2.1510     4.1540     2.3670     3.8620     2.2350     0.1200 
  133.3750   420.9520    25.2220     2.1390     4.1380     2.9290     4.0380     2.7970     0.2360 
  133.5000   417.8310    25.1780     2.1340     4.1580     3.3160     4.2930     3.9020     0.3260 
  133.6250   418.9270    25.0810     2.1400     4.1070     3.4430     4.2280     4.5610     0.2650 
  133.7500   422.3490    24.9990     2.1510     4.0710     3.4000     4.1850     4.2060     0.2210 
  133.8750   422.7370    24.9160     2.1530     4.0780     3.0790     4.4010     3.4460     0.2510 
  134.0000   419.3950    24.8410     2.1520     4.1010     3.0640     4.6260     3.6710     0.3620 
  134.1250   418.8130    24.8410     2.1600     4.1320     3.1570     4.8510     4.6500     0.5600 
  134.2500   422.8750    24.8450     2.1700     4.1440     3.9120     5.0600     4.5920     0.7320 
  134.3750   428.5580    24.9700     2.1720     4.0670     4.3350     4.7580     4.6750     0.7900 
  134.5000   431.6780    24.9700     2.1760     3.9610     3.9440     4.3400     4.8310     0.6200 
  134.6250   428.6050    25.0950     2.1900     3.8680     3.6080     4.2960     4.5180     0.4450 
  134.7500   422.6240    25.2140     2.2180     3.8630     3.1940     4.2960     4.1420     0.2580 
  134.8750   420.3030    25.3460     2.2490     3.9040     4.0520     5.2210     3.9560     0.0960 
  135.0000   419.1640    25.4710     2.2750     3.8950     5.2950     6.8500     5.1950    -0.0480 
  135.1250   419.5340    25.6470     2.2940     3.7590     5.6070     8.6630     9.0170    -0.2560 
  135.2500   419.8230    25.6740     2.3110     3.7350     5.1250     8.8880    10.0930    -0.3450 
  135.3750   408.0560    25.5670     2.3230     3.7230     5.0390     6.7480    12.0370    -0.4080 
  135.5000   364.6390    25.4570     2.3290     3.6380     5.2290     6.2510     7.6100    -0.4370 
  135.6250   359.9750    25.4200     2.3220     3.6380     5.0150     6.0770     8.7310    -0.5330 
  135.7500   382.2140    25.4200     2.3100     3.6820     4.2570     5.5680     8.8520    -0.4700 
  135.8750   409.2670    25.5490     2.2930     3.6250     3.6890     5.1060     4.9240    -0.4200 
  136.0000   430.2580    25.6700     2.2920     3.5060     3.1990     4.7740     4.0440    -0.2800 
  136.1250   414.9950    25.5240     2.3110     3.3830     4.2100     4.9680     3.5750    -0.1860 
  136.2500   340.7100    25.2870     2.3340     3.1940     7.6060     5.6930     8.2180    -0.0300 
  136.3750   295.9080    25.1740     2.3570     3.0220     9.2930     7.2910    14.6420     0.0920 
  136.5000   289.2320    25.0510     2.3730     2.9320     9.8720     9.6490    17.4180     0.1620 
  136.6250   288.9660    24.9760     2.3790     2.8360    11.0470    12.0320    14.8390     0.2260 
  136.7500   290.3500    25.0440     2.3680     2.7850    11.4750    13.6750    12.2490     0.0630 
  136.8750   292.9470    25.1410     2.3620     2.8170    10.6480    13.6860    11.8780    -0.1400 
  137.0000   288.2100    25.1700     2.3660     2.9240     9.5530    13.8250    13.4100    -0.3600 
  137.1250   281.4930    25.2960     2.3740     2.8860    10.0710    13.6670    14.9100    -0.6790 
  137.2500   275.7870    25.2690     2.3690     2.8370    11.1360    13.0490    12.3580    -1.0530 
  137.3750   270.9880    25.1770     2.3600     2.8570    12.3260    12.0160    10.3990    -1.2630 
  137.5000   268.0020    25.1700     2.3600     2.9140    13.0720    13.4140    17.6420    -1.4170 
  137.6250   266.8870    25.1700     2.3640     2.9290    13.2380    16.0080    16.3710    -1.4770 
  137.7500   267.1000    25.1710     2.3570     2.9010    13.1120    17.0480    15.6440    -1.4140 
  137.8750   269.7890    25.2220     2.3540     2.9130    12.8580    16.9690    20.3310    -1.6580 
  138.0000   271.3600    25.2840     2.3460     2.9500    13.0330    16.8540    14.8470    -1.8550 
  138.1250   271.3630    25.2870     2.3400     3.0000    14.4370    16.7280    15.9390    -2.1530 
  138.2500   268.9490    25.1890     2.3380     3.0800    15.5350    16.7390    15.5450    -2.3910 
  138.3750   266.7200    25.0770     2.3480     3.1530    16.4080    17.6830    15.7300    -2.5740 
  138.5000   266.3030    25.0450     2.3640     3.2100    15.8340    19.3490    22.9800    -2.7220 
  138.6250   268.0320    25.0450     2.3740     3.0980    15.2960    20.5970    24.1580    -2.7390 
  138.7500   270.9760    25.1100     2.3850     3.0740    14.9970    19.4550    20.2210    -2.7320 
  138.8750   275.0740    25.1290     2.3910     3.0930    14.8950    18.7090    15.2860    -2.6080 
  139.0000   278.9760    25.2380     2.3780     3.1510    14.8180    18.2040    18.0350    -2.5490 
  139.1250   278.3500    25.3480     2.3650     3.1920    14.6420    18.0880    17.6230    -2.4820 
  139.2500   277.5150    25.3030     2.3560     3.1360    13.9140    18.0990    15.6680    -2.2960 
  139.3750   276.4670    25.3030     2.3540     3.0720    13.0320    18.1100    16.4560    -2.1090 
  139.5000   275.8420    25.2790     2.3550     3.0380    11.6780    17.0780    16.7790    -1.9280 
  139.6250   275.8480    25.2400     2.3580     3.0200    11.2900    15.8260    14.3280    -2.0000 
  139.7500   277.9650    25.2400     2.3570     3.0390    12.1910    15.0210    11.5150    -2.1830 
  139.8750   280.5890    25.2400     2.3560     2.9690    12.8590    13.9940    11.4610    -2.2320 
