~V
VERS. 2.00: Ver 2.00
~W
STRT.M 100.0000:
STOP.M 2000.0000:
STEP.M 0.1250:
NULL. -999.2500:
UWI. Z006:
~C
DEPT.M :
AC.US/MT :
CALI.CM :
DEN.GM/CC :
GR.API :
RI. :
RML.OHMM :
RXO.OHMM :
SP.MV :
~A
# ...
  230.0000   293.7010    25.4130     2.2960     4.2920     6.2780     9.5090     9.3710    -3.0330 
  230.1250   290.2890    25.3660     2.2970     4.2290     6.4690    10.0110     7.9150    -2.8190 
  230.2500   288.2040    25.3030     2.2940     4.1360     6.8900    10.4320     7.6480    -2.7400 
  230.3750   289.5060    25.2500     2.2960     4.0840     7.2020    10.3040    13.0370    -2.7400 
  230.5000   290.7620    25.2840     2.3070     4.0060     7.0440    10.2100    12.0380    -2.7930 
  230.6250   291.3690    25.3320     2.3150     3.9520     6.5070     9.9210    13.9430    -2.8030 
  230.7500   289.8760    25.4320     2.3240     3.9140     6.4080     9.7940    15.1030    -2.8030 
  230.8750   285.1650    25.4320     2.3370     3.8870     6.5980     9.7940    15.1660    -2.7390 
  231.0000   284.9830    25.4110     2.3160     3.8870     6.8950     9.8720    39.3570    -2.6440 
  231.1250   286.7440    25.3070     2.2860     3.8760     6.5800     9.9230    11.0120    -2.4830 
  231.2500   290.2010    25.1780     2.2620     3.7780     6.3140     9.7920    10.3840    -2.4190 
  231.3750   290.7540    25.1660     2.2630     3.6860     6.1050     9.2880     9.9980    -2.2480 
  231.5000   288.8630    25.1140     2.2750     3.6990     6.0290     9.0290     8.3960    -2.2910 
  231.6250   292.9060    25.1710     2.2880     3.7730     6.0300     8.7990     9.2280    -2.3540 
  231.7500   301.3700    25.2250     2.3060     3.8340     6.1580     8.6460     8.0240    -2.4050 
  231.8750   313.6720    25.2860     2.3100     3.7820     6.2860     8.6190    10.8790    -2.4760 
  232.0000   324.8500    25.3720     2.3100     3.7620     5.8520     8.5190    15.5740    -2.4820 
  232.1250   324.2690    25.3630     2.3220     3.8100     5.6650     8.2850     9.5320    -2.5290 
  232.2500   321.0830    25.2440     2.3380     3.9000     5.7780     8.1360     7.3640    -2.6090 
  232.3750   347.4890    25.1810     2.3650     3.9510     5.7030     8.0520     7.6960    -2.6090 
  232.5000   377.2200    25.1170     2.3760     4.0000     5.6520     8.2180     5.5830    -2.5570 
  232.6250   387.0020    25.0540     2.3640     4.0240     5.7070     8.3660     6.2440    -2.3700 
  232.7500   420.1230    25.1180     2.3530     4.0490     5.9640     8.6630     7.7310    -2.1530 
  232.8750   429.5810    25.1730     2.3440     3.9780     6.1630     8.9710     7.3640    -2.0330 
  233.0000   445.0240    25.3200     2.3410     3.9290     6.3060     8.6490     7.8170    -2.0740 
  233.1250   392.7560    25.3750     2.3620     3.9060     6.2910     8.4410     8.0030    -2.2520 
  233.2500   371.4440    25.3750     2.3770     3.8100     6.2610     8.2670     7.3680    -2.3520 
  233.3750   327.9530    25.2740     2.3780     3.6960     6.0440     8.3610     5.7020    -2.4440 
  233.5000   327.6900    25.1840     2.3530     3.7150     5.7290     8.7210     5.4510    -2.3640 
  233.6250   349.7980    25.1080     2.3340     3.6500     5.5290     9.1700     6.1600    -2.1100 
  233.7500   379.1480    25.0570     2.3240     3.5850     5.6020     9.6430     7.6140    -1.7970 
  233.8750   334.1770    25.0570     2.3310     3.5290     5.7940     9.9310     7.4430    -1.4790 
  234.0000   322.2720    25.1650     2.3330     3.5250     6.0710     9.9080     6.7520    -1.0590 
  234.1250   284.8530    25.2890     2.3170     3.5480     6.3120     9.8440     8.0510    -0.7730 
  234.2500   277.5590    25.0900     2.2920     3.5810     6.4960     9.8610     7.8800    -0.6580 
  234.3750   277.8220    24.8420     2.2670     3.5500     6.5560     9.8040     6.8560    -0.9550 
  234.5000   279.5610    24.7330     2.2510     3.5120     6.6910     9.8040     7.2680    -1.2350 
  234.6250   281.7450    24.6110     2.2640     3.5560     6.8070     9.2970     8.1390    -1.5790 
  234.7500   283.2530    24.5480     2.2860     3.6250     6.7490     9.0850     8.6420    -1.9270 
  234.8750   283.8870    24.5480     2.3000     3.6890     6.3140     9.2010     7.3690    -2.1890 
  235.0000   284.8260    24.7980     2.3030     3.6710     5.8880     8.8360     6.3460     0.0000 
  235.1250   285.7870    25.1120     2.3020     3.7230     5.2810     8.7410     6.8370    -7.9760 
  235.2500   284.6580    25.2750     2.3030     3.8400     5.0760     8.8510     7.6220    -7.8110 
  235.3750   281.7390    25.3170     2.3080     3.8440     5.6170     9.2330     7.4230    -7.9290 
  235.5000   276.3560    25.2640     2.3250     3.8390     6.2950    10.0950     7.1120    -8.0420 
  235.6250   271.9560    25.1900     2.3420     3.9240     6.8110    10.4490     6.8830    -8.2160 
  235.7500   267.8240    25.1900     2.3670     3.9930     6.6680    10.8040     7.1120    -8.3080 
  235.8750   263.8980    25.2170     2.3880     4.0300     6.6340    11.1580     9.3850    -8.4120 
  236.0000   261.8160    25.3910     2.3940     3.9570     7.4540    11.5130    27.4590    -8.4960 
  236.1250   262.2870    25.4470     2.3790     3.8720     8.4260    11.8670    48.0200    -8.3740 
  236.2500   262.4530    25.4010     2.3730     3.8230     8.9590    12.2220    15.7750    -8.1930 
  236.3750   260.5280    25.3070     2.3700     3.8420     8.5980    12.5760    15.0710    -8.0500 
  236.5000   254.8970    25.2560     2.3670     3.8130     8.7250    12.9310    13.5790    -8.0500 
  236.6250   251.7950    25.2570     2.3650     3.7850     9.3880    13.2850    15.8920    -8.1040 
  236.7500   251.1010    25.3060     2.3620     3.8080    10.4330    13.3050    15.7450    -7.9400 
  236.8750   253.2770    25.3850     2.3590     3.7500    10.7430    12.1260    19.1790    -7.6670 
  237.0000   259.2720    25.4860     2.3570     3.6470     9.9020    11.5190    22.6280    -7.3460 
  237.1250   263.9200    25.6700     2.3690     3.6200     8.6540    11.1380    19.0750    -6.9910 
  237.2500   265.3570    25.7330     2.3770     3.5830     8.0440    11.3880    12.7290    -6.4210 
  237.3750   263.3140    25.7020     2.3760     3.5120     8.0320    11.7220    11.0610    -5.9800 
  237.5000   261.8510    25.5580     2.3720     3.5290     8.7020    12.0560    11.4460    -5.4850 
  237.6250   261.8540    25.4240     2.3570     3.5330     9.8360    12.3900    12.4550    -5.0410 
  237.7500   263.8100    25.2990     2.3490     3.4990    10.2030    12.3630    11.6860    -4.7260 
  237.8750   265.8590    25.2390     2.3580     3.5830     9.9730    11.8600    13.3220    -4.4100 
  238.0000   266.2820    25.2640     2.3650     3.6580     9.3270    12.0270    13.4480    -4.1550 
  238.1250   262.0720    25.4120     2.3450     3.7510     9.2420    12.4800    11.8420    -3.9670 
  238.2500   260.0270    25.5040     2.3310     3.8480     9.4540    13.1100    10.8220    -3.7830 
  238.3750   256.1860    25.5170     2.3160     3.9070    10.1920    14.2120    12.4450    -3.8360 
  238.5000   253.2940    25.4160     2.3170     3.8870    11.0260    14.5470    15.4100    -3.8560 
  238.6250   251.4560    25.3900     2.3330     3.8480    10.9460    14.6460    15.5960    -4.0620 
  238.7500   248.8950    25.3270     2.3540     3.7950    10.9000    14.8630    18.1240    -4.3230 
  238.8750   247.3650    25.3270     2.3800     3.7130    11.2450    15.1000    18.6020    -4.4530 
  239.0000   248.5270    25.3270     2.3920     3.7210    11.6650    14.5850    19.0800    -4.6810 
  239.1250   250.8070    25.3280     2.3960     3.6540    11.4110    13.2700    18.7760    -4.8610 
  239.2500   252.7630    25.3920     2.4030     3.6420    10.9680    13.4280    16.5520    -4.9880 
  239.3750   253.0580    25.3920     2.4140     3.7050    10.7760    14.3040    15.0730    -5.1740 
  239.5000   254.2590    25.4570     2.4110     3.7860    10.9880    14.8700    15.3650    -5.2790 
  239.6250   255.5890    25.4570     2.4020     3.8590    11.7080    15.2490    18.7430    -5.4240 
  239.7500   252.1480    25.5080     2.4030     3.9120    12.3060    15.0080    17.6800    -5.4300 
  239.8750   248.3520    25.4540     2.4010     3.9570    12.4720    14.6790    15.1550    -5.3140 
