~V
VERS. 2.00: Ver 2.00
~W
STRT.M 100.0000:
STOP.M 2000.0000:
STEP.M 0.1250:
NULL. -999.2500:
UWI. Z006:
~C
DEPT.M :
AC.US/MT :
CALI.CM :
DEN.GM/CC :
GR.API :
RI. :
RML.OHMM :
RXO.OHMM :
SP.MV :
~A
# ...
  140.0000   283.0720    25.2410     2.3610     2.9040    12.6050    13.8970    14.6710    -2.3010 
  140.1250   286.7530    25.2990     2.3650     2.9190    12.2330    16.9410    17.7180    -2.3210 
  140.2500   290.5040    25.2710     2.3640     3.0130    11.8530    16.8760    15.3510    -2.3420 
  140.3750   293.7060    25.3060     2.3560     3.1110    11.7270    15.5340    13.7580    -2.3180 
  140.5000   292.6320    25.2630     2.3470     3.1470    11.8400    14.6010    11.6760    -2.2480 
  140.6250   291.0990    25.2430     2.3460     3.0590    11.8550    14.6740    12.8180    -2.1850 
  140.7500   284.9200    25.2430     2.3570     2.9850    12.1090    15.5680    13.1400    -2.0720 
  140.8750   282.4860    25.2430     2.3660     2.8820    12.3960    16.5680    13.7500    -2.0100 
  141.0000   278.9400    25.2750     2.3710     2.8410    11.9630    17.0690    17.1440    -1.9140 
  141.1250   277.1950    25.3690     2.3760     2.8290    11.2820    16.4660    19.1070    -1.7000 
  141.2500   277.9750    25.4360     2.3630     2.8460    10.3910    14.5680    14.6020    -1.5550 
  141.3750   283.1150    25.4140     2.3470     2.8690     9.0600    13.6510    12.7440    -1.3410 
  141.5000   290.0360    25.3540     2.3400     2.8870     8.2330    12.7680    13.5040    -1.1860 
  141.6250   299.5230    25.2570     2.3400     2.8150     7.2200    10.5400     9.9280    -0.9050 
  141.7500   301.8490    25.3100     2.3470     2.7840     7.0340     9.9620     7.5040    -0.6490 
  141.8750   296.9040    25.3100     2.3540     2.8120     7.5710    10.9020     8.8470    -0.5860 
  142.0000   293.1310    25.3100     2.3600     2.8160     9.0530    11.9190    10.6250    -0.5860 
  142.1250   294.0850    25.3110     2.3590     2.7510     9.0770    12.6910    11.4460    -0.5920 
  142.2500   289.1650    25.2470     2.3570     2.7570     8.2010    12.0630    10.7600    -0.8070 
  142.3750   283.8470    25.1840     2.3620     2.8080     8.2740    11.9920     9.5630    -0.9310 
  142.5000   279.6310    25.1840     2.3700     2.8690     9.4950    13.7750    12.5790    -1.0270 
  142.6250   276.6480    25.1990     2.3790     2.8540    10.8480    15.1660    14.4000    -1.0270 
  142.7500   277.2450    25.2490     2.3840     2.8220    10.1650    16.4280    16.8180    -1.0160 
  142.8750   280.7250    25.2970     2.3880     2.8360     9.6640    14.1780    15.9140    -0.9130 
  143.0000   282.7570    25.2490     2.3670     2.9040    10.1930    13.3740    12.7250    -0.8520 
  143.1250   281.2240    25.2500     2.3490     2.9420    11.1090    14.3240    10.5840    -0.7280 
  143.2500   279.2230    25.2500     2.3460     2.9540    11.1690    15.3700    13.5320    -0.5340 
  143.3750   277.9490    25.2500     2.3450     2.9790    10.8150    15.8530    18.0910    -0.3760 
  143.5000   281.6850    25.2510     2.3430     3.0000    10.3910    14.8750    14.9160    -0.1980 
  143.6250   285.4210    25.2510     2.3350     2.9750     9.9750    13.9600    12.0250    -0.1410 
  143.7500   288.0830    25.2510     2.3310     2.9650    10.5610    13.9860    12.7990    -0.1410 
  143.8750   288.0830    25.2520     2.3460     3.1230    11.4890    14.5410    11.0260    -0.1410 
  144.0000   286.2770    25.2520     2.3760     3.2080    11.4420    14.9070    12.6620    -0.0380 
  144.1250   285.5740    25.2850     2.3830     3.1590    11.3120    15.1680    15.4200     0.0750 
  144.2500   285.7860    25.3170     2.3940     3.1100    11.1520    15.2910    13.8680     0.2620 
  144.3750   287.8130    25.4450     2.4040     3.1400    10.8560    15.0380    12.6200     0.3660 
  144.5000   288.1230    25.4450     2.3940     3.1810    10.7290    14.1510    14.0660     0.0550 
  144.6250   287.2870    25.3450     2.3790     3.1600    10.6590    13.8890    17.7180    -0.0680 
  144.7500   282.3440    25.2530     2.3690     3.1270    10.8580    14.0000    13.4150    -0.1490 
  144.8750   278.6600    25.1790     2.3610     3.1270    11.2290    14.8240    11.9450    -0.2650 
  145.0000   276.6160    25.1270     2.3620     3.1670    11.7230    15.4200    14.0440    -0.3430 
  145.1250   273.8760    25.1270     2.3660     3.2130    12.0020    15.2290    11.9840    -0.5660 
  145.2500   271.2290    25.1280     2.3640     3.2560    11.6670    15.6220    14.2670    -0.8500 
  145.3750   268.2990    25.0740     2.3560     3.1360    11.2780    16.4600    15.5480    -0.9590 
  145.5000   265.2400    25.0650     2.3570     3.1220    12.2300    17.2970    14.7850    -1.1150 
  145.6250   262.1810    24.9730     2.3640     3.2090    14.6290    18.9940    17.1210    -1.2090 
  145.7500   260.3820    24.9380     2.3740     3.2930    13.2700    20.3810    27.4060    -1.2120 
  145.8750   264.4460    24.9430     2.3800     3.2210    11.5000    17.2710    16.3050    -1.2120 
  146.0000   272.2260    25.0030     2.3820     3.1450    10.3360    15.4300    12.9010    -1.1740 
  146.1250   277.3910    25.0870     2.3790     3.1170     9.8370    14.7990    13.6700    -0.9740 
  146.2500   279.9380    25.1580     2.3740     3.1140     9.4580    13.8640    12.7430    -0.7930 
  146.3750   281.7220    25.2590     2.3660     3.0700     9.0870    13.2890    14.2670    -0.5430 
  146.5000   282.5420    25.3020     2.3530     3.0300     8.7710    12.7890     9.1210    -0.3200 
  146.6250   282.5490    25.3230     2.3410     3.0150     8.5210    12.5440     8.2750    -0.1280 
  146.7500   281.9240    25.4040     2.3310     3.0550     8.4530    12.6190     9.5550    -0.0090 
  146.8750   282.5630    25.3880     2.3240     3.0640     8.4540    12.6760    10.8850    -0.1040 
  147.0000   282.9400    25.3150     2.3160     3.0000     8.3270    12.9210     9.2850    -0.2580 
  147.1250   285.1600    25.1330     2.3180     2.9970     7.7620    12.7110    11.4940    -0.2610 
  147.2500   288.9170    25.1330     2.3210     3.1050     6.9050    12.0840    10.6270    -0.2050 
  147.3750   294.8910    25.0710     2.3300     3.1890     6.3530    11.0560     8.7360    -0.0570 
  147.5000   300.8750    25.0990     2.3270     3.2190     5.9380    10.1830     8.7170     0.0810 
  147.6250   302.7380    25.1600     2.3160     3.1310     5.9170     9.1820     8.6180     0.2350 
  147.7500   303.7050    25.3170     2.3140     3.0720     6.0440     8.7950     7.0840     0.2760 
  147.8750   304.7340    25.3090     2.3250     3.0360     6.5290     9.1680     6.6450     0.3310 
  148.0000   284.0240    25.2850     2.3300     3.0340     6.9350    10.1520     6.9050     0.3720 
  148.1250   275.6380    25.2640     2.3240     3.0530     6.8060    11.0380     9.0210     0.3570 
  148.2500   284.6170    25.2640     2.3200     3.0500     6.5560    11.0930    10.1620     0.3450 
  148.3750   298.0890    25.2720     2.3150     2.9630     6.3080    10.6440     8.4520     0.3730 
  148.5000   300.9610    25.3290     2.3010     2.8910     6.5430    10.3280     8.8560     0.4360 
  148.6250   300.9640    25.3290     2.2910     2.8620     7.3190    10.8860     8.7040     0.4370 
  148.7500   298.7560    25.3290     2.2800     2.8660     7.7000    11.6720     8.0070     0.4370 
  148.8750   296.6050    25.2020     2.2700     2.8860     7.3830    12.2430     7.8970     0.4370 
  149.0000   294.6770    25.2020     2.2670     2.9160     7.0660    12.1700     9.0580     0.4890 
  149.1250   291.2170    25.1390     2.2770     2.9450     6.9400    11.5970    10.1320     0.3570 
  149.2500   290.9650    25.1390     2.3020     2.9090     7.2740    11.7330     9.8470     0.1770 
  149.3750   292.5400    25.0120     2.3050     2.9220     8.1710    12.2920     9.5800     0.0630 
  149.5000   296.1970    24.9480     2.3120     3.0060     8.3340    12.6270    10.3430    -0.0680 
  149.6250   299.0840    24.8850     2.3210     3.1000     8.0030    12.0200    12.0990    -0.1310 
  149.7500   299.6310    24.8850     2.3190     3.1160     7.7390    11.5640    11.3430    -0.1300 
  149.8750   297.5800    24.8860     2.3180     3.0970     7.7050    11.3530    10.0470    -0.1930 
