~V
VERS. 2.00: Ver 2.00
~W
STRT.M 100.0000:
STOP.M 251.0000:
STEP.M 0.1250:
NULL. -999.2500:
UWI. Z007:
~C
DEPT.M :
AC.US/MT :
CALI.CM :
DEN.GM/CC :
GR.API :
RI. :
RML.OHMM :
RXO.OHMM :
SP.MV :
~A
# ...
  160.0000   412.5480    25.0410     2.1730     4.4020    60.7690    80.5610   114.1670   -31.1180 
  160.1250   413.0410    24.7710     2.1670     4.4100    62.4280    87.9540   121.0000   -30.7760 
  160.2500   412.5960    24.8480     2.1640     4.3160    60.6760    89.7130    98.5600   -30.2350 
  160.3750   412.5560    25.1810     2.1750     4.3650    58.6930    87.6340    87.2670   -29.6860 
  160.5000   412.5580    25.5320     2.1770     4.2490    56.2210    83.4650    89.9880   -28.9900 
  160.6250   410.8980    25.8460     2.1760     4.2480    53.9600    64.0470    90.7750   -27.8020 
  160.7500   411.2960    25.3300     2.1770     4.3070    51.3170    60.3010    71.8620   -26.5430 
  160.8750   411.2990    25.2320     2.1760     4.3160    50.1500    60.1190    76.3110   -25.4540 
  161.0000   413.3500    25.3430     2.1820     4.3020    52.3910    64.9840    86.9140   -24.3740 
  161.1250   414.3530    25.5470     2.1970     4.2290    53.8910    70.2910    73.5100   -23.3570 
  161.2500   411.9400    25.6880     2.2040     4.4270    51.2850    67.1500    60.1050   -22.0600 
  161.3750   408.7490    25.7330     2.2160     4.6440    49.8340    65.5470    46.7010   -19.6910 
  161.5000   406.8730    25.7730     2.2220     4.7570    51.5620    72.5340    33.2960   -17.3240 
  161.6250   406.6200    25.8020     2.2250     4.8560    55.0290    76.3200   102.3780   -16.0190 
  161.7500   406.8090    25.8030     2.2250     4.7490    57.5830    79.2680    97.7520   -15.4910 
  161.8750   406.4200    25.8030     2.2120     4.7340    55.1950    83.0750    90.4000   -14.9960 
  162.0000   406.8860    25.8380     2.2040     4.9390    52.9620    82.0050    93.4460   -14.7330 
  162.1250   406.8890    25.8950     2.2000     5.1040    52.3300    80.6080    95.6800   -14.0980 
  162.2500   406.2580    25.8700     2.1980     4.9000    51.8420    78.7820    90.7770   -13.3520 
  162.3750   406.2600    25.8040     2.1980     4.8230    44.5150    76.3910    88.0620   -12.5890 
  162.5000   406.2630    25.7830     2.2030     4.7870    37.6180    48.9690    70.6460   -11.9510 
  162.6250   406.5430    25.7440     2.2160     4.6550    32.4040    42.5550    51.1650   -11.3600 
  162.7500   406.2680    25.7420     2.2220     4.7390    29.5910    37.1920    31.6830   -10.5960 
  162.8750   405.9790    25.7420     2.2320     4.8400    32.3300    35.9680    42.0070    -9.8640 
  163.0000   402.8530    25.7430     2.2400     5.0400    41.7020    52.9430    53.1810    -9.2130 
  163.1250   399.3040    25.7430     2.2480     5.0670    43.4350    58.9320    65.7300    -8.4030 
  163.2500   400.3090    25.6990     2.2610     5.0270    42.8300    62.0670    67.4740    -7.9720 
  163.3750   407.2510    25.6810     2.2590     5.0970    41.1330    62.9100    61.7030    -7.5700 
  163.5000   411.0100    25.6810     2.2830     5.1350    37.0670    60.0880    61.2640    -7.2970 
  163.6250   411.6430    25.6810     2.2760     5.1600    34.7530    53.6160    29.9680    -7.3500 
  163.7500   406.2360    25.6960     2.2670     5.0600    32.1430    38.2440    25.3450    -7.8780 
  163.8750   404.3810    25.7680     2.2580     5.0500    21.8290    27.8950    12.5880    -8.3490 
  164.0000   403.5290    25.8090     2.2380     5.1720    20.1310    24.7220    24.1080    -8.7290 
  164.1250   402.6770    25.8090     2.2400     5.1630    19.7110    22.4710    25.4390    -9.0270 
  164.2500   402.4980    25.7360     2.2610     5.1670    29.6850    31.7220    48.2130    -9.3690 
  164.3750   404.9450    25.6200     2.2820     4.9800    32.5620    46.8570    82.4710    -9.7190 
  164.5000   408.0920    25.5730     2.2960     5.1890    33.4620    49.6690    85.3360   -10.0430 
  164.6250   408.9110    25.4840     2.3070     5.2800    28.8160    44.6120    68.9810   -10.4220 
  164.7500   413.4200    25.4320     2.3160     5.2760    24.3090    32.8010    52.6260   -10.8010 
  164.8750   418.2060    25.3060     2.3240     5.3450    17.6830    24.2150    36.2700   -11.3710 
  165.0000   422.2280    25.2430     2.3290     5.5690    12.5760    16.9110    25.0510   -11.8760 
  165.1250   420.1380    25.1810     2.3310     5.4720    10.7260    13.7030    13.1250   -12.3710 
  165.2500   415.3020    25.1180     2.3240     5.4070     9.8400    12.3060    10.9100   -13.6040 
  165.3750   412.6590    25.1350     2.3020     5.4270     8.7360    10.0410     8.6980   -14.2490 
  165.5000   405.3200    25.2580     2.2940     5.2580     7.8140     9.2280     7.6210   -14.5480 
  165.6250   401.2350    25.4450     2.2930     5.1290     7.8530     9.5190    10.2660   -14.9060 
  165.7500   388.7500    25.3720     2.3010     4.9230     9.3190    11.9030    21.0390   -15.2050 
  165.8750   366.7570    25.3720     2.3160     4.8540    12.9900    14.4440    33.4320   -15.7640 
  166.0000   370.3760    25.3090     2.3270     4.7860    21.3470    25.1360    48.5400   -16.3300 
  166.1250   380.5380    25.3160     2.3350     4.8310    23.3000    35.6080    63.9670   -17.3120 
  166.2500   397.6560    25.1940     2.3380     4.9260    24.8740    39.4630    52.4000   -18.4050 
  166.3750   406.4280    25.1500     2.3330     5.0810    21.6480    33.7090    23.2310   -19.1180 
  166.5000   408.2470    25.1750     2.3290     5.2930    14.3170    24.8530    16.0590   -20.4180 
  166.6250   409.7190    25.1060     2.3250     5.2610    11.6100    15.0280    11.3980   -21.2580 
  166.7500   412.6500    25.0590     2.3190     5.3290     9.4280    12.7250    16.6810   -21.6950 
  166.8750   414.2410    24.9490     2.3060     5.1810    10.2240    13.5230    21.6790   -22.2330 
  167.0000   414.2440    24.8070     2.3090     5.2260    11.2750    15.4290    29.1830   -22.6960 
  167.1250   413.5820    24.8070     2.3080     5.3020    12.4810    16.8240    19.9020   -23.3220 
  167.2500   411.1310    24.9260     2.3010     5.2970     9.6220    15.6030     9.0630   -23.7800 
  167.3750   406.8570    25.1520     2.2940     5.0680     8.2580    10.4650     9.0220   -24.2350 
  167.5000   405.2630    25.2880     2.2890     5.0990     7.8810     9.7560     9.5500   -24.7940 
  167.6250   404.8260    25.1630     2.2710     5.1830     8.0690     9.8540    10.3420   -25.2340 
  167.7500   405.1050    25.1070     2.2500     5.2510     9.4800    11.5540    13.9100   -25.8280 
  167.8750   406.2630    25.0620     2.2330     5.1140    11.2370    15.4130    17.9570   -26.3800 
  168.0000   407.0110    24.9740     2.2160     5.1650    11.7410    15.9650    18.7480   -26.8350 
  168.1250   405.1010    25.0330     2.2130     5.1140    12.6210    16.4300    19.9200   -27.3710 
  168.2500   403.8490    25.1230     2.2110     4.9960    13.5160    19.5030    22.1140   -28.0440 
  168.3750   402.1880    25.1340     2.2050     5.0230    18.4490    27.1650    37.8500   -29.2030 
  168.5000   400.7980    25.1870     2.1890     5.0830    24.9060    33.0460    55.2320   -29.9420 
  168.6250   399.6260    25.2950     2.1840     4.9290    29.9380    42.3250    72.6140   -30.1790 
  168.7500   398.1580    25.3730     2.1790     4.6260    33.9260    46.2900    64.3190   -30.5130 
  168.8750   398.1360    25.4520     2.1860     4.6350    33.5080    38.5120    52.0730   -30.6880 
  169.0000   398.1630    25.5070     2.1920     4.7260    29.7750    35.0560    63.5500   -31.0910 
  169.1250   398.1660    25.5700     2.1950     4.4480    33.4480    38.5040    75.0270   -31.3520 
  169.2500   398.1690    25.5080     2.1950     4.4370    45.4970    50.3880    86.5040   -31.8040 
  169.3750   398.5600    25.5080     2.1890     4.5320    45.3530    58.4650    97.9820   -32.1840 
  169.5000   403.9930    25.2560     2.1810     4.6130    43.7560    56.6740    61.0000   -32.6010 
  169.6250   401.2660    25.2560     2.1740     4.4570    42.7000    51.8530    87.0000   -32.6950 
  169.7500   398.3140    25.1930     2.1670     4.3960    49.3990    55.3220    74.2570   -32.8260 
  169.8750   398.1870    25.1430     2.1700     4.4050    52.6650    64.3590    91.7100   -33.1000 
