~V
VERS. 2.00: Ver 2.00
~W
STRT.M 100.0000:
STOP.M 251.0000:
STEP.M 0.1250:
NULL. -999.2500:
UWI. Z007:
~C
DEPT.M :
AC.US/MT :
CALI.CM :
DEN.GM/CC :
GR.API :
RI. :
RML.OHMM :
RXO.OHMM :
SP.MV :
~A
# ...
  120.0000   417.8110    24.8690     2.1340     4.7150     7.2450     5.6170    25.3510    -6.4450 
  120.1250   425.8660    24.8210     2.1400     4.9780     8.3740     7.1210    17.2750    -6.9630 
  120.2500   424.7490    24.7550     2.1390     4.9570     8.5060     8.6470     9.5210    -7.1020 
  120.3750   421.8890    24.7410     2.1300     4.9190     7.9300     8.8180     9.1780    -7.3410 
  120.5000   419.7470    24.6940     2.1280     4.7520     7.1400     8.0180     9.1790    -7.4330 
  120.6250   418.9280    24.6780     2.1440     4.5240     7.3950     7.3880     9.6550    -7.3380 
  120.7500   422.2610    24.7400     2.1580     4.3900     7.3950     7.2650     9.9420    -7.3060 
  120.8750   426.6580    24.7120     2.1710     4.6300     7.3950     7.2950     9.6970    -7.0950 
  121.0000   428.6270    24.6810     2.2070     4.6270     7.3950     7.2960     9.0840    -6.9800 
  121.1250   415.6330    24.6800     2.2260     4.6210     7.3950     7.2970     8.8250    -6.7540 
  121.2500   397.1080    24.6800     2.2310     4.8040     7.1400     7.2990     8.8050    -6.5090 
  121.3750   385.8000    24.6800     2.2110     4.9270     6.9700     7.1590     8.6790    -6.2230 
  121.5000   388.8430    24.7120     2.1840     5.2070     6.8850     7.0470    10.1870    -5.9400 
  121.6250   392.6730    24.7440     2.1720     5.0320     6.8850     6.7940    13.1090    -5.7450 
  121.7500   404.1090    24.7450     2.1680     4.8420     7.4260     6.7950    15.8600    -5.5870 
  121.8750   424.8450    24.7450     2.1710     4.6810     8.0600     7.3080    13.9560    -5.5250 
  122.0000   427.1260    24.7450     2.2130     4.7710     7.9050     8.3230    10.7920    -5.6480 
  122.1250   419.9500    24.7460     2.2450     4.9210     7.8570     8.4520     9.6890    -5.9710 
  122.2500   394.1350    24.8720     2.2590     4.9490     7.6430     7.8220     8.9410    -6.4740 
  122.3750   372.3970    24.9360     2.2690     4.7860     7.3950     7.0540     8.5610    -6.7680 
  122.5000   362.3540    25.0000     2.2750     4.7730     7.1400     6.8010    10.3000    -7.2650 
  122.6250   360.0210    24.8560     2.2100     4.8010     7.8440     6.9130    13.7170    -7.7380 
  122.7500   378.7070    24.7300     2.1930     4.7900     9.1790     7.7840    15.8810    -8.0000 
  122.8750   402.5490    24.6260     2.1830     4.7960    10.7010     8.9460    16.6700    -8.4370 
  123.0000   423.0760    24.5580     2.1970     4.8480    11.2120    10.5800    16.0610    -8.9750 
  123.1250   428.0880    24.5690     2.2220     4.9070     9.6710    11.6370    12.3850    -9.1510 
  123.2500   427.6600    24.6620     2.2340     4.7930     8.6890    10.9010     8.9270    -9.4460 
  123.3750   428.6960    24.7490     2.2160     4.8060     6.7820     9.5090     7.1150    -9.6260 
  123.5000   431.4730    24.7590     2.1970     4.8780     5.8940     7.3560     7.6630    -9.5120 
  123.6250   435.5080    24.8640     2.1960     4.8370     5.8650     6.7260     9.0480    -9.4360 
  123.7500   440.8150    24.9800     2.1980     4.8250     5.8650     6.0500     8.7210    -9.3800 
  123.8750   446.6590    25.0940     2.2010     5.0710     5.7800     5.7970     7.4000    -9.3910 
  124.0000   450.2590    25.2010     2.1910     4.7540     5.1470     5.5960     8.1490    -9.4420 
  124.1250   453.0720    25.3570     2.1660     4.7090     4.5140     5.5450     5.5320    -9.4410 
  124.2500   448.0370    25.3840     2.1200     4.7880     4.1360     5.2920     5.7870    -9.4030 
  124.3750   424.3350    25.0660     2.1040     4.5000     3.8250     4.7200     6.4230    -8.9410 
  124.5000   421.9720    24.6920     2.1160     4.3480     3.5700     4.2770     3.7690    -8.4650 
  124.6250   423.0830    24.5350     2.1220     4.1150     3.5700     4.0240     6.3180    -8.0420 
  124.7500   425.4850    24.5000     2.1110     4.0630     4.3710     4.8990     8.5470    -7.6840 
  124.8750   427.0570    24.5480     2.1170     4.1210     5.6610     5.6060     9.3720    -7.1390 
  125.0000   427.6940    24.6210     2.1250     4.2870     6.0800     6.3150     9.8230    -6.7590 
  125.1250   428.2600    24.7250     2.1310     4.2590     6.6300     6.3170    10.1080    -6.3550 
  125.2500   427.6990    24.8110     2.1310     4.3180     6.6300     6.5720    10.1090    -5.9610 
  125.3750   427.2130    24.8920     2.1300     4.3930     6.4930     6.5730     9.6840    -5.7540 
  125.5000   428.2460    24.9970     2.1250     4.4480     6.3750     6.5210     8.4160    -5.3630 
  125.6250   426.9580    24.8820     2.1200     4.5930     6.3750     6.4430     7.7710    -5.0330 
  125.7500   426.4400    24.8820     2.1160     4.6630     6.3750     6.3660     7.4490    -4.7690 
  125.8750   426.4430    24.8830     2.1100     4.5170     6.3750     6.3230     7.7480    -5.0290 
  126.0000   428.0990    24.9460     2.1240     4.3940     6.3750     6.1690     8.4590    -5.2120 
  126.1250   429.9910    24.9460     2.1300     4.3300     6.3750     6.0470     8.4670    -5.2770 
  126.2500   429.0710    24.9470     2.1320     4.3480     6.3750     5.8180     8.3420    -5.1150 
  126.3750   428.3360    24.8210     2.1330     4.3310     6.3750     5.5650     8.2010    -4.8870 
  126.5000   427.7160    24.6970     2.1530     4.5630     6.3750     5.5660     8.0900    -4.7330 
  126.6250   427.0920    24.6540     2.1790     4.5120     6.3750     5.5790     7.9640    -4.7320 
  126.7500   429.5810    24.6320     2.2000     4.4140     6.3750     5.8230     7.7890    -4.5330 
  126.8750   435.2000    24.6560     2.2190     4.7330     6.1280     6.0780     7.7130    -4.2900 
  127.0000   438.4730    24.7230     2.2280     4.7850     6.3260     6.2100     7.7140    -4.0490 
  127.1250   440.3430    24.8110     2.2400     4.7130     6.3750     6.3360     7.7900    -3.9040 
  127.2500   440.4310    24.9990     2.2500     4.9750     6.1200     6.5900     7.8430    -3.9080 
  127.3750   439.2930    25.2100     2.2550     5.0500     6.1200     6.5910     7.8440    -3.9590 
  127.5000   438.5320    25.4560     2.2330     5.1050     6.1200     6.2190     7.8450    -3.9770 
  127.6250   435.4930    25.2420     2.2280     5.1000     6.1200     5.8360     7.1030    -4.1920 
  127.7500   430.5900    25.0460     2.2370     5.0260     5.2730     4.9570     5.4520    -4.3710 
  127.8750   418.3100    24.9510     2.2560     5.0640     4.6410     4.5610     4.1700    -4.4850 
  128.0000   418.4680    24.8880     2.2710     4.9720     4.2630     3.4420     4.5790    -4.5330 
  128.1250   426.0830    24.8490     2.2810     5.1830     4.0200     3.5190     6.0360    -4.5320 
  128.2500   417.0550    24.9520     2.2840     5.4640     4.4940     3.8990     6.5200    -4.4160 
  128.3750   384.9390    24.9890     2.2840     5.5830     4.9380     4.2950     5.4190    -4.8230 
  128.5000   362.9700    25.0780     2.2810     5.6090     4.8450     4.5200     4.5250    -4.5740 
  128.6250   352.2280    24.8710     2.2760     5.4570     4.3350     4.0970     4.1160    -4.5110 
  128.7500   394.9570    24.7010     2.2490     5.3160     4.0800     3.8060     9.5640    -4.1300 
  128.8750   413.9230    24.6380     2.2150     5.2460     4.4190     4.1220    12.8010    -3.7170 
  129.0000   418.8950    24.7160     2.2090     5.2460     5.6490     4.9880     9.8220    -3.3190 
  129.1250   416.0580    24.8280     2.2210     5.3000     6.1190     5.7960     6.4460    -2.9540 
  129.2500   417.6260    24.9090     2.2400     5.3750     4.8140     5.0070     5.3370    -2.4580 
  129.3750   423.1570    25.0660     2.2560     5.4490     4.0800     4.3760     4.9970    -2.1140 
  129.5000   429.5200    25.2370     2.2610     5.2810     3.8250     4.0670     5.0720    -1.7970 
  129.6250   432.8630    25.4140     2.2440     5.1730     3.8250     4.0680     5.1510    -1.6680 
  129.7500   432.4840    25.6100     2.2140     5.6150     3.8250     4.1000     5.3280    -1.6040 
  129.8750   432.6670    25.2650     2.2010     5.4100     3.6890     4.3250     5.0750    -1.5400 
