~V
VERS. 2.00: Ver 2.00
~W
STRT.M 100.0000:
STOP.M 251.0000:
STEP.M 0.1250:
NULL. -999.2500:
UWI. Z007:
~C
DEPT.M :
AC.US/MT :
CALI.CM :
DEN.GM/CC :
GR.API :
RI. :
RML.OHMM :
RXO.OHMM :
SP.MV :
~A
# ...
  170.0000   398.5010    25.1310     2.1760     4.3580    56.7030    73.1780   114.7300   -33.2620 
  170.1250   397.1040    25.0680     2.1830     4.3800    72.3060    89.8930   147.8180   -33.4640 
  170.2500   394.4990    25.0690     2.1830     4.3340    77.6420   103.2660   167.1040   -33.5750 
  170.3750   390.5090    25.0690     2.1810     4.3220    75.8070   108.9800   117.6530   -33.3810 
  170.5000   390.5990    25.0840     2.1850     4.5010    76.5910   109.6280   109.4080   -33.1710 
  170.6250   394.5950    25.1040     2.1900     4.5780    79.7080   114.9560   158.8110   -33.0320 
  170.7500   398.3280    25.1230     2.1950     4.3890    91.0770   120.8330   173.8120   -32.8730 
  170.8750   400.7420    25.1330     2.1970     4.2800   101.4210   129.3650   199.7470   -32.7560 
  171.0000   401.3780    25.0710     2.1990     4.3130   105.8100   148.0640   234.5950   -32.6470 
  171.1250   402.0510    25.0710     2.1850     4.3440   112.2330   171.5630   272.0910   -32.6000 
  171.2500   400.7480    25.0710     2.1710     4.5370   105.7310   198.7490   197.8620   -32.7710 
  171.3750   398.8700    25.0720     2.1570     4.6150    94.6760   194.8720   128.8850   -32.6520 
  171.5000   395.5640    25.0720     2.1630     4.6060    91.3040   164.9020   165.0620   -32.3300 
  171.6250   392.1780    25.0720     2.1690     4.5480    93.3870   146.0420   172.4270   -31.9370 
  171.7500   391.0650    25.1370     2.1750     4.5730    88.1320   143.5920   140.1140   -31.7300 
  171.8750   390.7200    25.2830     2.1700     4.4870    82.5490   131.2470   102.3660   -31.3930 
  172.0000   390.8420    25.3890     2.1640     4.4510    75.8790   109.0690   115.4560   -30.6080 
  172.1250   391.6590    25.4990     2.1580     4.3500    75.6290   105.6030   124.9120   -30.0180 
  172.2500   392.5370    25.4110     2.1560     4.2250    76.6120   108.8440   126.6990   -29.5550 
  172.3750   393.8900    25.0920     2.1670     4.2770    74.7270   114.1010   127.2940   -29.0820 
  172.5000   395.0760    24.9860     2.1820     4.2420    73.6570   117.0470   127.3820   -28.1110 
  172.6250   395.8940    24.9080     2.1900     4.2520    74.7320   118.4610   129.9820   -27.4120 
  172.7500   396.9810    24.8230     2.1830     4.3030    75.6890   118.4950   131.3260   -26.7870 
  172.8750   390.2430    24.8230     2.1760     4.2210    76.3750   117.8010   117.5540   -26.0150 
  173.0000   386.7740    24.8460     2.1680     4.1570    73.3930   113.2230   106.5200   -25.1850 
  173.1250   385.5890    24.9240     2.1710     4.2320    70.3990   110.1110    99.5600   -24.7230 
  173.2500   387.7350    25.0600     2.1590     4.2930    71.8160   106.8410   107.6000   -24.3690 
  173.3750   393.2740    25.2390     2.1540     4.2740    75.9380   111.0680   136.4870   -23.9620 
  173.5000   399.3090    25.3330     2.1540     4.1650    86.7620   123.2160   242.4710   -23.4410 
  173.6250   408.6770    25.3930     2.1570     3.8910    97.1440   140.6370   224.1750   -22.9060 
  173.7500   413.4870    25.4570     2.1560     3.9260   107.5250   162.4110   255.5760   -22.3190 
  173.8750   412.8310    25.4570     2.1520     3.9820   120.6430   193.0460   229.4260   -21.7620 
  174.0000   406.5970    25.4580     2.1470     4.0040   124.7040   231.4910   221.6160   -20.9290 
  174.1250   401.5330    25.4680     2.1430     3.8060   127.0380   251.6570   300.5670   -20.2640 
  174.2500   390.3070    25.4870     2.1530     3.6440   139.1220   273.9250   403.5140   -19.4280 
  174.3750   370.1970    25.5060     2.1770     3.5930   137.6210   322.1000   279.3020   -18.6280 
  174.5000   351.0680    25.5220     2.2040     3.6990   140.9960   346.5990   346.4380   -17.5080 
  174.6250   314.4930    25.4340     2.2430     3.6270   145.2200   363.9840   317.4480   -16.6390 
  174.7500   295.8540    25.4000     2.2710     3.5940   143.9820   357.0950   299.6210   -15.9110 
  174.8750   323.0620    25.2790     2.3000     3.6350   142.4050   365.4640   312.5510   -15.2040 
  175.0000   346.8370    25.2710     2.3150     3.7500   149.6780   380.0090   382.6990   -14.3090 
  175.1250   364.6940    25.2670     2.3130     3.7670   160.6280   377.3760   545.2200   -13.3840 
  175.2500   378.0040    25.1980     2.2200     3.7110   164.7430   379.7960   604.0540   -12.5470 
  175.3750   386.5910    25.1460     2.1890     3.6650   163.0570   399.8100   600.0310   -12.1120 
  175.5000   403.7790    25.0830     2.1720     3.8070   152.1590   464.2880   532.2320   -11.4130 
  175.6250   408.6250    25.0830     2.1620     3.7350   146.5220   527.0750   420.3710   -11.1530 
  175.7500   411.6110    25.0050     2.1600     3.9150   145.3820   535.8220   427.3330   -10.9560 
  175.8750   406.5470    25.0210     2.1780     4.0120   130.8330   525.7640   452.9300   -10.8260 
  176.0000   404.6500    25.1030     2.1890     4.0090   115.6130   471.2660   376.1580   -10.4650 
  176.1250   407.1850    25.2460     2.1900     3.8510    89.8400   449.2630   223.6670    -9.9660 
  176.2500   408.4670    25.4340     2.1920     3.8560    48.0700   419.0770    44.6340    -9.6720 
  176.3750   408.4570    25.5270     2.1930     4.0020    46.1140   274.8810    56.6350    -9.3730 
  176.5000   406.0140    25.6120     2.1930     3.8130    50.6730    57.5740    70.4690    -9.1080 
  176.6250   399.8700    25.6780     2.1880     3.8440    54.5720    53.1120    80.7080    -8.9180 
  176.7500   388.6550    25.5280     2.2010     3.8050    57.7600    62.8290    88.3510    -8.8020 
  176.8750   380.9840    25.5280     2.2200     3.8750    58.1470    69.7370    81.6240    -9.1190 
  177.0000   359.7780    25.6190     2.2290     3.9760    55.4630    74.0830    78.0980    -9.4690 
  177.1250   313.7870    25.7180     2.2470     3.8150    56.0920    75.9300    86.7960   -10.2050 
  177.2500   210.4790    25.6560     2.3040     3.7530    61.4830    73.8680   136.6090   -10.8630 
  177.3750   204.2470    25.3950     2.4610     3.8300    78.3980    79.3480   174.3770   -11.0870 
  177.5000   198.6790    25.2110     2.6210     3.8620    92.1090   103.2230   184.7100   -11.1380 
  177.6250   223.7120    25.2150     2.6340     3.7910   102.3030   128.4330   284.8250   -11.1510 
  177.7500   238.8580    25.1790     2.6360     3.7720   112.4980   150.4790   340.9800   -11.3640 
  177.8750   247.4800    25.1350     2.6290     3.7310   122.6920   184.2640   593.7860   -11.5160 
  178.0000   282.3150    25.0910     2.6050     3.8690    91.2840   228.2700   779.5780   -11.6840 
  178.1250   324.4910    25.0120     2.5420     4.1310    60.4170   275.6070   864.6620   -12.1040 
  178.2500   366.6670    24.9190     2.5110     4.2120    29.7680   289.3360   444.9020   -12.2900 
  178.3750   408.6890    24.8390     2.4540     4.2580    19.9950    78.1230    44.7150   -12.6360 
  178.5000   417.9510    24.8100     2.4270     4.2050    14.2550    53.4390    46.0850   -13.3620 
  178.6250   422.1740    24.7790     2.4220     4.1140     6.8560    30.0190     2.0010   -14.4750 
  178.7500   426.3260    24.6970     2.4190     3.9790     4.3310    19.4720     1.1660   -15.7180 
  178.8750   427.9080    24.6410     2.3920     3.8370     3.8210    13.0280     2.5060   -16.4660 
  179.0000   427.0580    24.5880     2.3170     3.8900     3.5670     9.1280     3.8460   -16.9240 
  179.1250   423.6160    24.5660     2.2840     3.7510     3.5670     3.2280     3.1000   -17.2430 
  179.2500   421.0180    24.5410     2.2720     3.7860     3.5670     3.4840     3.4310   -17.6490 
  179.3750   424.7540    24.5260     2.2690     3.7040     3.6880     3.8790     3.4730   -18.0570 
  179.5000   429.7980    24.5260     2.2810     3.5580     3.8210     3.9970     3.5980   -19.2000 
  179.6250   433.6300    24.5190     2.2950     3.5700     3.8210     3.9980     3.4720   -19.9920 
  179.7500   439.9000    24.4810     2.3080     3.5470     3.5670     3.9990     3.3510   -21.0730 
  179.8750   441.1750    24.5250     2.3100     3.3490     3.2370     4.0000     3.2580   -21.5140 
