~V
VERS. 2.00: Ver 2.00
~W
STRT.M 100.0000:
STOP.M 251.0000:
STEP.M 0.1250:
NULL. -999.2500:
UWI. Z007:
~C
DEPT.M :
AC.US/MT :
CALI.CM :
DEN.GM/CC :
GR.API :
RI. :
RML.OHMM :
RXO.OHMM :
SP.MV :
~A
# ...
  210.0000   390.6590    25.1160     2.3540     5.0410     5.0930     5.2110     5.1150    -8.4720 
  210.1250   396.2810    25.1790     2.3620     5.1860     4.6130     5.2880     5.1330    -9.1360 
  210.2500   389.3380    25.2460     2.3600     5.3580     4.0740     5.1160     4.8710    -9.6850 
  210.3750   378.0150    25.3760     2.3580     5.6730     4.0740     4.7790     5.2670    -9.8890 
  210.5000   376.7470    25.5020     2.3650     6.0510     4.6680     4.6930     7.0390    -9.8890 
  210.6250   378.4570    25.5800     2.3720     6.3570     5.5590     5.1110     7.8000    -9.6460 
  210.7500   381.2320    25.6850     2.3790     6.4480     6.1110     6.2220     7.9380    -9.2840 
  210.8750   383.4600    25.6220     2.3730     6.4450     6.1110     7.3410     7.9390    -9.0770 
  211.0000   384.3400    25.5690     2.3620     6.3660     6.1110     7.5210     8.0670    -8.7930 
  211.1250   382.9190    25.5600     2.3430     6.3280     6.1110     7.3320     7.9410    -8.6550 
  211.2500   380.5360    25.4640     2.3270     6.4370     6.1110     7.0890     7.9420    -8.5910 
  211.3750   373.8730    25.3090     2.3340     6.3060     6.1110     7.0730     7.8160    -8.7420 
  211.5000   370.7090    25.3510     2.3370     6.4210     6.1110     6.9490     7.8510    -9.1070 
  211.6250   369.1980    25.3170     2.3270     5.6570     6.1110     6.8360     8.5150    -9.9570 
  211.7500   367.3660    25.3090     2.3150     5.5380     6.3650     6.8370     8.9820   -10.9310 
  211.8750   358.0920    25.2740     2.3000     5.2830     6.7940     6.8380     8.4230   -11.2560 
  212.0000   348.3080    25.2260     2.2780     4.8940     8.2920     7.0950    12.4210   -11.1920 
  212.1250   353.6250    25.1880     2.2540     4.7470    10.8010     7.8580    21.8170   -11.2750 
  212.2500   363.5950    25.2200     2.2320     4.8140    12.9610    10.3870    30.3870   -11.3050 
  212.3750   369.0870    25.2480     2.2400     4.6570    16.5640    13.9540    31.6010   -11.3170 
  212.5000   371.6180    25.1840     2.2440     4.8130    17.9600    18.5580    30.1670   -11.3790 
  212.6250   372.2490    25.1620     2.2290     4.7180    18.7810    20.6250    27.6880   -11.3790 
  212.7500   372.8790    25.1400     2.2260     4.5970    18.8410    21.3320    28.1000   -11.6830 
  212.8750   372.8750    25.1240     2.2370     4.7180    18.8410    21.1160    28.4790   -12.2130 
  213.0000   372.8720    25.1240     2.2450     4.9360    19.4080    20.9580    29.1860   -12.6700 
  213.1250   364.6290    25.1240     2.2460     4.8910    19.6050    21.5950    31.6100   -13.1100 
  213.2500   356.9880    25.1250     2.2450     5.0570    19.3510    22.1180    29.1040   -13.5250 
  213.3750   357.2070    25.1580     2.2600     4.9900    18.9260    21.5330    26.6300   -13.9960 
  213.5000   361.8730    25.2190     2.2680     4.8970    18.6240    20.8460    28.9810   -14.3900 
  213.6250   367.4920    25.2520     2.2640     4.9290    19.4230    20.6100    34.0240   -15.1030 
  213.7500   372.9750    25.2520     2.2610     4.9250    20.6980    21.9460    26.9730   -15.6170 
  213.8750   376.9300    25.2820     2.2570     4.8640    20.2440    22.4590    30.0620   -16.2160 
  214.0000   379.7430    25.3160     2.2530     4.9180    18.0400    20.9940    26.5820   -16.5290 
  214.1250   381.5950    25.1320     2.2570     5.0180    17.1750    19.5920    25.7190   -17.0890 
  214.2500   382.3420    24.9010     2.2630     5.1210    16.8040    18.7630    25.7990   -17.8510 
  214.3750   382.3380    25.0320     2.2630     4.9260    16.8040    18.3710    23.1650   -18.8240 
  214.5000   382.2730    25.1370     2.2620     4.8950    16.5490    18.1170    23.8740   -19.6760 
  214.6250   381.7510    25.2540     2.2610     4.7160    17.5600    18.0410    26.2870   -20.3800 
  214.7500   382.3710    25.3420     2.2690     4.9230    19.8640    22.2960    27.5850   -21.4420 
  214.8750   382.9570    24.7680     2.2790     4.8650    24.2140    25.0060    44.4000   -22.3100 
  215.0000   383.8350    24.8150     2.3010     4.9640    27.8700    31.2150    80.7020   -22.5750 
  215.1250   384.1720    24.8150     2.3180     5.0670    24.8890    34.1610    68.1240   -22.7580 
  215.2500   381.6420    24.8980     2.3280     5.1180    18.5590    36.9860    48.2080   -22.8640 
  215.3750   367.1530    24.9420     2.3310     5.1590    13.8030    21.2550    28.2910   -22.5820 
  215.5000   361.2330    24.9870     2.2730     4.9220     9.8020    11.3980     8.3750   -22.1370 
  215.6250   364.0900    25.0680     2.2390     4.7740     8.0950     7.5570    22.0450   -21.6830 
  215.7500   368.9690    24.8230     2.2140     4.8270     9.0150     6.3610    38.8030   -21.0760 
  215.8750   371.5220    24.7280     2.2090     4.6460    11.4060     7.2010    55.5610   -20.6130 
  216.0000   371.5180    24.6280     2.2090     4.6640    19.7350     9.5800    50.9460   -20.4380 
  216.1250   371.5150    24.6290     2.2120     4.7280    24.2870    13.8380    41.3040   -20.3460 
  216.2500   370.8770    24.6290     2.2150     4.9620    24.0760    26.5750    35.4740   -20.2060 
  216.3750   369.8320    24.7100     2.2100     4.7620    23.6780    28.5160    34.3860   -20.3860 
  216.5000   367.2100    24.7720     2.2100     4.6570    26.2530    27.3620    36.8870   -20.4120 
  216.6250   362.3400    24.8190     2.2090     4.7320    29.5910    30.4980    38.0220   -20.0320 
  216.7500   360.2550    24.8190     2.2060     4.7750    31.2740    33.2100    46.3690   -19.4880 
  216.8750   361.3550    24.8200     2.2180     4.9030    33.1730    38.2850    70.0000   -19.0140 
  217.0000   363.3530    24.8240     2.2260     4.7440    31.4000    41.5960    43.4990   -18.6700 
  217.1250   366.2860    24.9090     2.2320     4.7010    29.6120    37.3930    40.7950   -18.5160 
  217.2500   368.3980    24.8470     2.2400     4.4690    29.9580    34.4090    42.8380   -18.4520 
  217.3750   372.3820    24.7850     2.2440     4.4660    31.7460    33.4950    44.3210   -18.4040 
  217.5000   375.8540    24.7590     2.2390     4.3110    32.8430    34.4550    43.0540   -18.2670 
  217.6250   380.5550    24.8850     2.2280     4.5140    34.8090    35.6250    62.9400   -17.9860 
  217.7500   383.2260    24.9480     2.2190     4.4720    37.5950    36.9750    68.0490   -18.0730 
  217.8750   382.6610    25.0520     2.2250     4.5280    42.0080    43.6030    69.0150   -18.4050 
  218.0000   380.5630    25.0750     2.2340     4.6300    41.8900    46.9880    67.1040   -18.4010 
  218.1250   378.6840    25.0670     2.2320     4.6960    42.1120    47.8810    67.7650   -18.5870 
  218.2500   383.1920    24.9900     2.2330     4.6030    43.4720    48.6040    90.5680   -18.6400 
  218.3750   390.5880    24.9500     2.2410     4.6660    44.9160    49.7060   104.0000   -18.5720 
  218.5000   397.9200    24.9710     2.2610     4.7310    42.2450    52.0910    69.8650   -18.4380 
  218.6250   402.3310    25.0900     2.2720     4.4680    34.2560    50.6480    45.5480   -18.2170 
  218.7500   401.8070    25.1400     2.2790     4.4890    31.4000    39.7990    39.7710   -18.0150 
  218.8750   379.7740    25.1790     2.2660     4.5500    31.0600    34.5900    41.4600   -18.1880 
  219.0000   358.7900    25.1410     2.2600     4.5840    31.0600    33.7690    49.3060   -18.4620 
  219.1250   344.3910    25.1410     2.2630     4.6120    30.7520    34.0260    62.0290   -18.5890 
  219.2500   353.0920    25.0480     2.2580     4.4680    28.9920    33.6010    50.4860   -18.0340 
  219.3750   380.2050    24.8940     2.2360     4.3440    26.2600    31.2990    36.9710   -17.5700 
  219.5000   400.1030    24.7670     2.2240     4.4720    20.6750    27.2030    27.4090   -16.9840 
  219.6250   403.0900    24.7640     2.2200     4.4750    19.1310    23.1380    29.8030   -16.6310 
  219.7500   403.0860    24.7020     2.2280     4.4450    21.2840    20.3710    31.1800   -16.2460 
  219.8750   401.8150    24.7650     2.2390     4.5290    22.6580    20.6580    31.1900   -15.9160 
