~V
VERS. 2.00: Ver 2.00
~W
STRT.M 100.0000:
STOP.M 251.0000:
STEP.M 0.1250:
NULL. -999.2500:
UWI. Z007:
~C
DEPT.M :
AC.US/MT :
CALI.CM :
DEN.GM/CC :
GR.API :
RI. :
RML.OHMM :
RXO.OHMM :
SP.MV :
~A
# ...
  230.0000   430.0000    25.1710     2.4810     3.6540    14.5090    16.2850    20.2960    -9.5200 
  230.1250   476.6380    25.2380     2.4940     3.5010    14.5090    15.7080    50.0000    -9.6500 
  230.2500   498.8660    25.3110     2.4960     3.5330    14.5380    16.1490     8.4230    -9.5320 
  230.3750   514.2130    25.3850     2.4750     3.7090    11.8900    15.0680    17.3590    -9.4280 
  230.5000   514.3980    25.4240     2.4670     3.8050     7.0440    10.4810    26.2950    -9.4270 
  230.6250   549.3180    25.4250     2.4920     3.9550     5.3450     5.7260    35.2300    -9.5530 
  230.7500   495.3430    25.4760     2.4800     4.0810     7.9180     6.8740    29.3110    -9.5190 
  230.8750   469.6000    25.2990     2.4520     4.0190     6.5350     7.1480     7.7340    -9.9590 
  231.0000   468.0830    25.3000     2.4450     4.0030     5.4400     6.0560     3.8750   -10.4070 
  231.1250   490.0510    25.3000     2.4750     4.0090     4.8620     5.2180     4.6020   -10.8680 
  231.2500   523.4270    25.3000     2.4640     4.1310     6.0080     5.5790     6.0390   -11.2630 
  231.3750   531.7950    25.2300     2.4190     4.2020     6.3630     6.2450     8.3720   -12.1360 
  231.5000   480.3330    25.1860     2.3960     4.0850     5.6780     6.2460     5.8550   -12.5890 
  231.6250   420.7200    25.1760     2.3900     4.2230     4.5740     5.6270     4.3800   -12.6310 
  231.7500   391.8590    25.1760     2.3770     4.2270     4.0730     4.2850     4.3860   -12.3590 
  231.8750   399.7430    25.2260     2.3640     4.2770     3.8180     4.2140     4.7070   -12.0960 
  232.0000   416.8130    25.2200     2.3560     4.3450     3.6220     4.4270     5.1280   -11.8000 
  232.1250   393.8130    25.1590     2.3440     4.4180     3.9390     4.9710     5.3970   -11.5740 
  232.2500   360.3290    25.1140     2.3360     4.4740     4.3270     5.2280     5.7130   -11.4510 
  232.3750   346.8610    25.1780     2.3330     4.5210     4.8020     5.2290     6.0290   -11.2750 
  232.5000   343.7270    25.1780     2.3440     4.3920     4.8360     5.2300     6.2810   -11.0940 
  232.6250   338.9630    25.1780     2.3580     4.3530     4.8360     5.2310     6.3460   -11.6700 
  232.7500   332.3710    25.1790     2.3770     4.3360     4.8360     5.3050     6.3470   -11.8080 
  232.8750   327.2590    25.1790     2.3920     4.3930     4.8360     5.4960     6.3480   -11.9550 
  233.0000   323.5680    25.1790     2.3880     4.4630     4.8360     5.7470     6.3490   -11.9730 
  233.1250   326.0350    25.1040     2.3670     4.3540     4.8360     5.7480     6.3510   -11.8270 
  233.2500   327.2430    25.0890     2.3530     4.3860     5.0910     5.7490     6.3520   -11.6500 
  233.3750   329.2510    25.0740     2.3520     4.2590     5.0910     5.7500     6.3530   -11.4290 
  233.5000   322.8880    25.0590     2.3540     4.3150     4.8720     5.7510     6.3540   -11.1250 
  233.6250   319.5260    25.1180     2.3560     4.1590     5.0900     5.7520     6.5440   -10.7840 
  233.7500   319.1150    25.0560     2.3520     4.1050     5.0260     5.7530     6.7380   -10.4230 
  233.8750   321.1330    25.0560     2.3410     4.0790     4.8360     5.5040     5.9750   -10.2230 
  234.0000   327.1580    25.0820     2.3360     4.1320     4.8360     5.5000     6.1030    -9.9240 
  234.1250   329.4000    25.1340     2.3320     4.1860     4.8360     5.5010     6.1050    -9.6590 
  234.2500   329.4850    25.1830     2.3290     4.0440     4.8360     5.3800     6.5140   -10.1820 
  234.3750   329.2250    25.1380     2.3290     4.0820     4.9210     5.2470     7.2730   -10.4170 
  234.5000   322.1570    25.1250     2.3340     3.9280     5.0470     5.2480     7.8630   -10.5620 
  234.6250   316.4860    25.1240     2.3430     3.9820     4.8820     5.2490     6.8680   -10.7080 
  234.7500   309.5920    25.1950     2.3660     4.0850     4.8360     5.2500     6.3670   -10.6880 
  234.8750   309.3240    25.2420     2.3810     4.0310     4.8360     5.2510     6.2840   -10.6720 
  235.0000   318.9230    25.2890     2.3900     4.1150     4.8580     5.5980     6.1300   -10.7190 
  235.1250   326.2540    25.3360     2.3960     4.1610     5.6420     6.2350     6.4020   -10.7870 
  235.2500   329.5640    25.3740     2.3970     4.0380     6.3430     6.1960     6.9440   -10.8950 
  235.3750   327.2930    25.3750     2.3910     4.1300     5.8540     6.0240     8.2240   -11.0020 
  235.5000   321.6030    25.3600     2.3820     4.3060     5.8540     5.9480    10.8370   -11.0790 
  235.6250   314.0970    25.3600     2.3980     4.2090     6.1080     5.7700    11.1780   -11.1120 
  235.7500   309.0950    25.3320     2.4240     4.0840     6.6220     6.0270    10.1210   -11.7420 
  235.8750   304.0850    25.3130     2.4280     4.0780     7.1260     6.4800    12.5090   -12.3670 
  236.0000   307.1840    25.3130     2.4240     4.1500     7.3810     6.7980    13.7490   -12.8730 
  236.1250   310.1980    25.3140     2.4150     4.2030     6.8720     6.7990    16.5300   -13.2070 
  236.2500   294.9200    25.2420     2.4210     4.1910     7.1260     6.8000     9.3020   -13.4610 
  236.3750   286.5060    24.9390     2.4360     4.2120     7.4960     7.0580    11.0310   -13.7150 
  236.5000   275.2770    24.9740     2.4320     4.2420     7.6350     7.3150     9.7740   -13.5110 
  236.6250   267.1600    25.0210     2.4930     4.0990     8.9650     8.0890    14.3070   -13.1540 
  236.7500   260.1890    25.1100     2.4940     3.9860    10.6790     9.7010    18.2970   -12.5960 
  236.8750   255.1990    25.1400     2.4820     3.9840    11.1980    10.6490    12.4750   -12.0440 
  237.0000   253.5100    25.2150     2.4710     3.9750    10.9610    10.9060    15.0890   -11.5640 
  237.1250   257.3720    25.2870     2.4630     3.9100    11.0500    10.9070    18.8440   -11.2340 
  237.2500   265.6440    25.2580     2.4880     3.9490    11.4530    11.1650    15.0970   -10.8510 
  237.3750   270.4230    25.0030     2.5080     4.0490    11.0030    11.0540    14.0100   -10.5830 
  237.5000   266.5320    25.0030     2.5170     4.1940    10.4530    10.5760    14.6420   -10.3380 
  237.6250   269.4050    25.0760     2.5210     4.2840    10.0950    10.0980    13.4580    -9.9650 
  237.7500   274.0500    25.1300     2.5240     4.2930     9.4660     9.1200    14.1640    -9.6890 
  237.8750   279.8990    25.1300     2.5180     4.2820     9.1620     8.8640    15.2610    -9.4110 
  238.0000   282.9990    25.1850     2.5080     4.2530     9.1620     8.8660    12.4000    -9.1230 
  238.1250   285.4690    25.2340     2.4970     4.3880     9.5770     9.2580    12.5040    -8.7930 
  238.2500   287.3080    25.2570     2.4790     4.3940     9.8610     9.6360    10.6310    -8.4720 
  238.3750   288.5870    25.2540     2.4670     4.2800     9.9260     9.7650    12.8270    -8.3330 
  238.5000   288.6300    25.1920     2.4580     4.3150     9.1360     9.5890    15.2430    -8.3190 
  238.6250   288.8460    25.1320     2.4630     4.3060     8.3550     9.2080    10.9400    -8.7200 
  238.7500   284.6260    25.1950     2.4770     4.2190     7.6350     8.3660     9.4310    -8.8680 
  238.8750   278.4380    25.1330     2.4870     4.1300     7.9220     7.9850     9.0750    -8.8670 
  239.0000   269.6510    25.1330     2.4890     4.2720     8.8130     8.0940    10.3840    -8.7440 
  239.1250   265.5730    25.1560     2.4890     4.4060     9.1920     8.5880    12.5150    -8.7130 
  239.2500   263.8310    25.1950     2.4890     4.3360     9.8270     9.3690    12.5160    -8.5370 
  239.3750   263.3920    25.2600     2.4840     4.2690     9.9250     9.8270    14.5360    -8.3900 
  239.5000   264.4520    25.2600     2.4770     4.3040     9.9250     9.9040    16.5840    -8.0750 
  239.6250   260.8450    25.2610     2.4800     4.2280     9.5810     9.9050    15.8880    -7.8710 
  239.7500   263.3320    25.3030     2.4840     4.2490     9.4160     9.9060    18.9320    -7.5980 
  239.8750   269.5240    25.2650     2.4870     4.1600     9.4230     9.6050    17.8610    -7.3900 
