~V
VERS. 2.00: Ver 2.00
~W
STRT.M 100.0000:
STOP.M 251.0000:
STEP.M 0.1250:
NULL. -999.2500:
UWI. Z007:
~C
DEPT.M :
AC.US/MT :
CALI.CM :
DEN.GM/CC :
GR.API :
RI. :
RML.OHMM :
RXO.OHMM :
SP.MV :
~A
# ...
  190.0000   397.0310    25.4910     2.2090     4.1120    19.0220    14.1140    53.8460   -27.2270 
  190.1250   403.0500    25.5220     2.1850     4.2570    22.8690    24.5620    46.0400   -27.6910 
  190.2500   402.4920    25.5590     2.1690     4.3580    36.4390    32.6270    43.8260   -28.3730 
  190.3750   392.0080    25.5960     2.1910     4.4430    43.2780    40.6910    67.1360   -29.1730 
  190.5000   375.0100    25.6290     2.2100     4.5400    49.9410    48.7550    95.5130   -29.9600 
  190.6250   368.8470    25.5900     2.2230     4.4340    48.8980    55.6170    82.8520   -30.5710 
  190.7500   383.0150    25.6300     2.2340     4.3130    45.9860    64.1870    70.9500   -31.4630 
  190.8750   395.8120    25.6810     2.2100     4.2250    46.8150    55.4840    98.1160   -32.3230 
  191.0000   403.7980    25.6300     2.1950     4.5210    52.2140    57.6000   120.1480   -32.7880 
  191.1250   406.5110    25.6310     2.1740     4.5780    56.3070    69.3980   100.3410   -33.1460 
  191.2500   407.1420    25.5680     2.1590     4.3860    54.1320    67.0250    82.1940   -33.5180 
  191.3750   407.1380    25.5680     2.1700     4.2690    52.9990    62.6750    95.8530   -33.7800 
  191.5000   406.2730    25.5910     2.1720     4.0250    53.0370    60.7870   201.9730   -33.9640 
  191.6250   404.1500    25.6320     2.1590     3.9950    60.8880    65.0310   147.7760   -34.1150 
  191.7500   399.2420    25.6320     2.1560     4.0290    63.6540    72.0830    99.8660   -34.3590 
  191.8750   399.7170    25.6940     2.1560     4.0750    62.6490    79.3140    79.3230   -34.6880 
  192.0000   400.0160    25.7570     2.1550     4.0060    60.6440    81.6710    92.9810   -34.9420 
  192.1250   397.4310    25.4780     2.1550     3.9100    60.0740    73.9750   125.0890   -34.9410 
  192.2500   395.2120    25.2840     2.1570     3.8010    70.4760    74.7080   145.8380   -34.9010 
  192.3750   390.6030    25.1280     2.1610     3.8890    67.9880    90.6070   177.0550   -34.7490 
  192.5000   388.6010    25.0990     2.1670     4.0900    65.4990    93.8310   128.4370   -34.6160 
  192.6250   390.0750    25.1300     2.1760     4.1000    52.5740    98.0000    98.2330   -34.4140 
  192.7500   394.3650    25.0810     2.1630     4.1410    48.5880    70.2180    63.5780   -34.0000 
  192.8750   400.4050    25.1100     2.1520     4.1500    47.2720    56.3630    85.4900   -33.4860 
  193.0000   406.1240    25.1520     2.1360     3.9990    46.6550    53.7830    98.3680   -33.0220 
  193.1250   409.8220    25.1950     2.1170     4.0740    49.8480    52.9020    37.7860   -32.8880 
  193.2500   412.8900    25.1950     2.1160     4.0080    65.6500    60.9640    40.6140   -32.7750 
  193.3750   411.4400    25.1960     2.1330     4.0360    80.5110    65.0290    60.7280   -33.3420 
  193.5000   405.2170    25.1330     2.1470     4.1340    88.2350   109.9980    95.7420   -33.8840 
  193.6250   401.4840    25.1360     2.1470     4.1740    88.7630   131.0300   118.5090   -34.1080 
  193.7500   393.4670    25.0710     2.1450     4.1200    82.5770   152.0630   137.3250   -34.2820 
  193.8750   392.3660    25.0200     2.1380     4.0560    77.2010   134.5200   136.2740   -34.2630 
  194.0000   391.0800    25.0080     2.1280     4.0710    72.7470   114.3000   107.9560   -34.0450 
  194.1250   391.0310    25.0240     2.1240     4.1320    71.2750   103.0400    98.8570   -33.7590 
  194.2500   391.9270    25.0530     2.1240     4.3230    72.3360    99.1510   111.0080   -33.5500 
  194.3750   393.7170    25.0970     2.1290     4.2840    75.0630   100.9000   125.3110   -33.2280 
  194.5000   394.9640    25.1360     2.1220     4.3340    74.6250   104.2120   126.5050   -32.7950 
  194.6250   396.7670    25.1360     2.1230     4.3980    73.9080   106.1510    98.9180   -32.5310 
  194.7500   397.5130    25.0940     2.1370     4.3850    74.9430   103.8220   113.7070   -32.1470 
  194.8750   397.9280    25.1160     2.1430     4.4030    76.5690   106.3420   110.8070   -31.8710 
  195.0000   398.1400    25.0740     2.1460     4.5370    76.6080   109.5060   119.3580   -31.5460 
  195.1250   397.0710    25.0740     2.1450     4.6390    75.1340   110.5870   110.5890   -31.3430 
  195.2500   397.1450    25.1150     2.1450     4.4680    76.0320   108.9240   120.5490   -30.8030 
  195.3750   397.4540    25.1380     2.1450     4.3910    68.0020   109.7560    80.7100   -30.3080 
  195.5000   397.5360    25.1390     2.1390     4.5270    68.9850   107.4790   104.3300   -30.0580 
  195.6250   398.8240    25.2010     2.1350     4.4130    70.0390    94.4740   118.1580   -29.8430 
  195.7500   400.6900    25.2640     2.1280     4.2780    71.1660    97.5300    87.8130   -29.6110 
  195.8750   404.3470    25.3470     2.1060     4.2360    74.4550    99.8880    93.3610   -29.5410 
  196.0000   408.0770    25.4300     2.1030     4.2980    78.0350   103.4540   125.6350   -29.4560 
  196.1250   412.0670    25.5140     2.1130     4.1720    78.5230   123.0690   123.5710   -29.3290 
  196.2500   413.9670    25.5650     2.1220     4.0610    76.6860   125.0860   117.7920   -29.0140 
  196.3750   413.8210    25.5310     2.1310     4.0720    73.7070   117.2620   108.0060   -28.7740 
  196.5000   413.3240    25.4720     2.1240     4.1540    73.1130   110.3420   104.7470   -28.5110 
  196.6250   407.0010    25.4570     2.1120     4.3700    73.5480   108.1950   104.6150   -28.9120 
  196.7500   402.2550    25.4570     2.1040     4.2220    73.3370   105.2220   105.0750   -29.2180 
  196.8750   396.9710    25.4570     2.1040     4.1100    71.8160    99.8780   100.9070   -29.5150 
  197.0000   400.3050    25.4060     2.1130     4.2000    67.5450    97.8390   103.7600   -29.3910 
  197.1250   405.8400    25.3950     2.1250     4.2050    65.3290    97.1860    92.6150   -28.9200 
  197.2500   410.0850    25.3920     2.1320     4.2430    63.1610    97.7600   111.0780   -28.3440 
  197.3750   412.6180    25.3590     2.1400     4.4930    64.1920    97.4660   103.3500   -27.9330 
  197.5000   411.5790    25.3640     2.1450     4.3690    65.4530    99.1430    95.7910   -27.6000 
  197.6250   409.6540    25.3040     2.1450     4.3190    62.2050    96.7710    99.4740   -27.2650 
  197.7500   409.8900    25.1790     2.1430     4.2600    56.5960    91.0410    91.6290   -26.8430 
  197.8750   412.3370    25.0820     2.1270     4.2770    51.0150    68.8880    48.0770   -26.5380 
  198.0000   413.9110    24.9760     2.1190     4.5740    33.2690    57.0970    47.8640   -26.4050 
  198.1250   413.0500    24.8940     2.1220     4.4530    34.1710    45.3060    95.5020   -26.2820 
  198.2500   409.8660    25.1190     2.1250     4.4200    45.1600    37.1230   110.2760   -26.1480 
  198.3750   403.1560    25.3170     2.1280     4.4420    65.3190    72.3850    96.6090   -25.9270 
  198.5000   398.6680    25.4620     2.1280     4.3350    70.2370    72.3870    89.2040   -25.5090 
  198.6250   401.2300    25.4620     2.1300     4.3820    65.4800   114.6860   146.6990   -25.0050 
  198.7500   405.7920    25.4630     2.1310     4.2040    52.8320   123.7850    79.3840   -24.6190 
  198.8750   409.4530    25.4630     2.1220     4.3120    45.0670   115.7400    66.4090   -24.1710 
  199.0000   412.6100    25.4790     2.1180     4.2240    38.5930    84.7780    70.6370   -23.7730 
  199.1250   415.1040    25.5350     2.1310     4.0340    35.7790    69.4680    41.8040   -23.4870 
  199.2500   416.3290    25.5700     2.1470     4.1540    33.8710    50.1360    38.2650   -23.1800 
  199.3750   415.5300    25.6050     2.1570     4.2170    42.2870    39.9240    47.5860   -22.7670 
  199.5000   412.6860    25.6400     2.1640     4.2780    47.1520    41.6960   108.3010   -22.8240 
  199.6250   406.6880    25.7010     2.1610     4.2730    52.1840    71.0820   101.8390   -23.2970 
  199.7500   399.5680    25.6260     2.1580     4.1880    52.5640    73.7930   105.6410   -23.7420 
  199.8750   396.7230    25.3510     2.1640     4.2350    55.1570    79.0250    95.7260   -24.0790 
