~V
VERS. 2.00: Ver 2.00
~W
STRT.M 100.0000:
STOP.M 251.0000:
STEP.M 0.1250:
NULL. -999.2500:
UWI. Z007:
~C
DEPT.M :
AC.US/MT :
CALI.CM :
DEN.GM/CC :
GR.API :
RI. :
RML.OHMM :
RXO.OHMM :
SP.MV :
~A
# ...
  150.0000   294.1740    25.3280     2.4450     3.8530    10.1950    11.1240    15.6240     2.2480 
  150.1250   297.3340    25.3290     2.4520     3.8180    10.1950    11.1250    16.6940     1.9090 
  150.2500   300.1340    25.3290     2.4630     3.8120    10.1020    11.1260    14.3920     1.9270 
  150.3750   301.4340    25.3020     2.4520     3.9300     9.4700    10.4520    12.2090     2.1060 
  150.5000   302.7050    25.2670     2.4450     3.9150     8.9210     9.8550    12.0110     2.1430 
  150.6250   305.2170    25.2820     2.4400     3.8410     8.9210     9.3980    13.2170     2.1110 
  150.7500   307.0940    25.1200     2.4380     3.8000     9.1760     9.9310    12.9850     1.9310 
  150.8750   306.0370    25.0150     2.4380     3.9350     9.1760    10.1130    10.2040     1.6330 
  151.0000   304.2320    24.9200     2.4450     3.9310     8.9210     9.4700    10.0820     1.2020 
  151.1250   302.8600    24.8260     2.4640     4.0420     8.6660     8.8740    11.2090     0.8720 
  151.2500   303.1680    24.9020     2.4760     3.9500     8.4110     8.0790    12.2140     0.1640 
  151.3750   305.2340    24.9680     2.4760     3.9450     8.5920     8.2650    10.9640    -0.1640 
  151.5000   305.4580    25.0800     2.4730     4.0500     8.9210     8.5910    10.4360    -0.3070 
  151.6250   305.6570    25.0800     2.4670     4.0710     8.9210     8.7710    12.0100    -0.6780 
  151.7500   305.5540    25.1260     2.4610     4.1070     8.9210     8.9990    14.1970    -0.8680 
  151.8750   305.4050    25.1440     2.4560     4.1630     8.9210     8.8490    14.0430    -1.0990 
  152.0000   306.8070    25.1440     2.4600     4.1930     8.9210     9.3590    12.0530    -1.3510 
  152.1250   308.3850    25.1450     2.4690     4.1200     8.9210     9.5280    13.5850    -1.7090 
  152.2500   310.1270    25.1450     2.4810     4.0270     9.1760     9.6160    14.6170    -2.5080 
  152.3750   311.1680    25.1450     2.4890     3.9350     9.1760     9.4090    11.5140    -3.3620 
  152.5000   306.5260    25.1080     2.4920     4.0360     8.9210     9.5070    11.7460    -3.8130 
  152.6250   302.4580    25.0830     2.4960     3.9470     8.5270     9.4640    11.4770    -5.2250 
  152.7500   298.6700    25.0200     2.4970     4.0310     7.8960     8.8320     9.2760    -6.3430 
  152.8750   294.6800    24.8540     2.4950     3.8740     7.7750     8.4540    12.3720    -7.1920 
  153.0000   291.6430    24.8000     2.4890     3.7710     8.9180     8.1130    14.9400    -8.2650 
  153.1250   286.8950    24.9870     2.4850     3.8760     9.5540     8.6360    15.6790   -10.0500 
  153.2500   286.1910    25.0850     2.4780     3.8470     9.9400    10.1620    15.0940   -11.4030 
  153.3750   286.2680    25.1480     2.4720     3.7940     9.9400    10.9000    13.0500   -12.3720 
  153.5000   287.5390    25.1350     2.4640     3.8320    10.1950    11.4110    12.6110   -13.2910 
  153.6250   290.6300    24.9470     2.4550     3.7510     9.9400    11.4120    14.0720   -14.2220 
  153.7500   297.5120    24.8970     2.4450     3.6220     9.6980    11.4130    14.7620   -15.2840 
  153.8750   305.9640    24.9200     2.4370     3.5570     9.3810    11.2870    13.7180   -16.3340 
  154.0000   308.8880    25.0560     2.4250     3.5210     9.1750    11.1610    12.8200   -17.3360 
  154.1250   310.2770    25.2130     2.4150     3.7040     8.7490    10.0230    12.0680   -18.1650 
  154.2500   309.7430    25.3690     2.4030     3.8610     8.2000     9.1480    11.7320   -19.1600 
  154.3750   310.3800    25.3400     2.3880     3.9370     7.9010     8.5040    16.8570   -19.9610 
  154.5000   318.9120    25.3410     2.3670     4.0090     7.9010     8.1080    16.6550   -20.5760 
  154.6250   345.6750    25.4040     2.3540     4.0680     8.4810     8.4710    13.1970   -21.3200 
  154.7500   369.1430    25.3780     2.3270     3.9800     8.9200     9.1060    15.0700   -21.9410 
  154.8750   392.6100    25.4130     2.2970     3.9060     8.7610     9.3860    10.5670   -22.6630 
  155.0000   416.0780    25.4740     2.2630     3.8520     8.2250     9.1610     9.1210   -23.2150 
  155.1250   439.5450    25.5270     2.2210     4.1290     7.8480     8.5610    11.5780   -23.7450 
  155.2500   463.0130    25.4960     2.1830     4.4480     7.3910     8.1390    12.5630   -24.4980 
  155.3750   495.6370    25.4170     2.1690     4.3730     7.6900     7.6070     9.1130   -25.0030 
  155.5000   486.5890    25.4560     2.1570     4.2840    10.0330     7.8200    64.2820   -25.4610 
  155.6250   476.6100    25.4700     2.1530     4.3940    20.8860    11.4270    58.6140   -25.9140 
  155.7500   468.5200    25.5360     2.1660     4.4740    24.0160    22.7070    48.2040   -26.2310 
  155.8750   462.5350    25.6150     2.1800     4.3500    24.9760    28.2480    37.7930   -26.6410 
  156.0000   481.0220    25.6610     2.1940     4.2660    25.9260    28.7180    27.3830   -27.0280 
  156.1250   499.5490    25.7240     2.2020     4.1710    34.4210    30.7970    57.9910   -27.5230 
  156.2500   491.9470    25.7240     2.2040     4.3210    46.9210    49.2880   128.0000   -27.8620 
  156.3750   535.1230    25.6620     2.1960     4.4730    50.8340    60.5850   108.8870   -28.1810 
  156.5000   543.6740    25.5450     2.1910     4.3650    49.1000    65.1990    70.4360   -28.3470 
  156.6250   509.7170    25.2990     2.1970     4.2780    39.2480    52.9340    58.2670   -28.3470 
  156.7500   521.1470    24.9680     2.2040     4.4910    37.5360    39.7760    58.1680   -28.2820 
  156.8750   499.6600    24.7300     2.2130     4.5510    36.1280    37.6860    47.0030   -28.3450 
  157.0000   458.4350    24.6900     2.2140     4.6320    41.8400    39.7430    44.9720   -28.4680 
  157.1250   417.2110    24.6530     2.2080     4.4620    48.8050    46.2550    95.4310   -28.8350 
  157.2500   384.3690    24.7170     2.1990     4.4330    57.7480    54.9450   141.1320   -29.6460 
  157.3750   378.9040    24.7220     2.1940     4.3570    65.6010    74.6300   126.4570   -30.7010 
  157.5000   382.4030    24.8200     2.1870     4.2670    69.7290    81.6320   105.0590   -31.9870 
  157.6250   386.6460    24.8440     2.1680     4.2020    68.2140    90.4300    94.2320   -32.4660 
  157.7500   392.7010    24.9080     2.1570     4.2340    65.7450    92.1290   111.0190   -33.3210 
  157.8750   396.9270    25.1130     2.1540     4.2120    60.7180    87.0930   102.6240   -33.7100 
  158.0000   400.7900    25.3520     2.1560     4.1980    59.1690    74.3920    97.8910   -33.5400 
  158.1250   404.7760    25.5390     2.1570     4.1440    68.9540    81.0040   104.7670   -33.4160 
  158.2500   407.0020    25.6040     2.1590     4.1180    69.9430    92.5580   103.7210   -33.2060 
  158.3750   407.8950    25.6040     2.1640     4.1370    68.4910    92.1090   110.3380   -33.0870 
  158.5000   408.7150    25.5920     2.1600     4.2430    67.9760    90.2670   126.7920   -33.1060 
  158.6250   409.3510    25.5140     2.1620     4.1500    71.9880   101.0230   129.2180   -33.1960 
  158.7500   408.0510    25.4550     2.1820     4.1920    76.4700   105.1000   140.2550   -32.9860 
  158.8750   406.4870    25.3870     2.1970     4.4060    73.5190   111.4130   139.3890   -32.6440 
  159.0000   405.5560    25.4960     2.2020     4.5050    67.7070   109.6790   132.4170   -32.2710 
  159.1250   404.3240    25.5980     2.2020     4.4310    64.7920   105.7590   117.9580   -32.2680 
  159.2500   403.6600    25.6960     2.2020     4.7120    59.7070    87.4460   106.1630   -32.2670 
  159.3750   403.0290    25.7330     2.1900     4.6840    51.7380    68.7340    75.3100   -32.1480 
  159.5000   403.0320    25.6810     2.1730     4.5250    50.0860    64.8010    70.3780   -32.0350 
  159.6250   406.6830    25.6170     2.1760     4.5420    49.1850    61.9130    75.5330   -31.9470 
  159.7500   410.1940    25.5450     2.1820     4.4940    50.9780    62.6180    86.6150   -31.6450 
  159.8750   412.3420    25.3170     2.1790     4.3310    55.2570    68.9970    93.4770   -31.4840 
