~V
VERS. 2.00: Ver 2.00
~W
STRT.M 100.0000:
STOP.M 251.0000:
STEP.M 0.1250:
NULL. -999.2500:
UWI. Z007:
~C
DEPT.M :
AC.US/MT :
CALI.CM :
DEN.GM/CC :
GR.API :
RI. :
RML.OHMM :
RXO.OHMM :
SP.MV :
~A
# ...
  140.0000   268.6040    25.5050     2.5350     4.4470    13.9270    13.5760    18.2460    -8.4890 
  140.1250   271.2180    25.4910     2.5190     4.3270    13.4550    13.3230    18.3630    -8.6570 
  140.2500   275.8260    25.4910     2.4960     4.2300    13.0010    14.4190    22.3960    -8.8100 
  140.3750   278.3200    25.4280     2.4750     4.1840    13.0490    15.2570    24.2600    -9.0230 
  140.5000   277.6900    25.3650     2.4820     4.1420    13.5970    15.6900    22.0650    -9.2050 
  140.6250   273.9920    25.3660     2.4830     4.1200    14.0610    16.1270    24.6030    -9.3940 
  140.7500   270.1770    25.3660     2.4870     4.1200    14.4400    15.3920    20.5020    -9.5410 
  140.8750   268.2500    25.3030     2.5020     4.2700    13.9890    14.6670    18.1090    -9.8460 
  141.0000   266.2860    25.2400     2.5120     4.0100    13.3570    14.0360    20.6960   -10.0290 
  141.1250   276.1910    25.2410     2.5140     3.8360    12.9790    14.1870    19.3870   -10.0940 
  141.2500   284.8430    25.1780     2.5110     3.8370    13.0740    14.9140    22.4560   -10.1960 
  141.3750   292.5190    25.2410     2.5150     4.0470    13.2560    15.1920    25.0340   -10.2240 
  141.5000   295.4730    25.2560     2.5160     4.0180    13.2560    14.8630    19.5850   -10.1230 
  141.6250   294.5090    25.3050     2.5080     4.0570    11.7190    13.3350    15.7300    -9.9600 
  141.7500   290.3670    25.3060     2.5110     4.2000    10.4560    11.0100    13.1480   -10.1300 
  141.8750   283.1520    25.3060     2.5250     4.1450     9.4400     9.8700    12.6140    -9.7990 
  142.0000   275.5240    25.3060     2.5360     4.0340     9.1770     9.5220    13.2440    -9.6490 
  142.1250   273.2930    25.3070     2.5450     3.9630    10.1660    10.2420    17.1480    -9.3390 
  142.2500   273.4620    25.3070     2.5560     3.9190    11.2900    11.8940    20.5710    -9.0850 
  142.3750   273.9330    25.2450     2.5650     3.8850    12.4710    13.6480    19.9240    -8.8170 
  142.5000   268.7700    25.2440     2.5580     3.8170    12.7460    13.8100    17.8650    -8.5480 
  142.6250   267.9450    25.2110     2.5340     3.8990    11.7860    12.9460    19.7490    -8.2840 
  142.7500   268.8700    25.2450     2.5130     3.8380    11.6580    12.8680    16.2420    -7.9950 
  142.8750   263.5150    25.1820     2.5100     3.7370    12.7090    13.9980    15.2510    -8.1970 
  143.0000   259.7070    25.1830     2.5170     3.7250    12.7460    13.8490    17.1260    -8.2050 
  143.1250   264.7030    25.1330     2.5150     3.7520    12.4910    13.4720    22.5860    -7.9830 
  143.2500   283.0480    25.0640     2.5140     3.8330    13.4140    13.6220    25.0040    -7.7900 
  143.3750   287.7730    25.0880     2.5220     3.8400    14.2240    15.8990    22.7030    -7.6100 
  143.5000   289.3040    25.1210     2.5300     3.9150    13.6940    15.3920    19.8890    -7.6090 
  143.6250   286.1740    25.1210     2.5310     4.0220    12.6150    14.3830    16.8780    -7.5600 
  143.7500   283.0450    25.0580     2.5270     4.1050    11.7260    12.8570    16.6590    -7.6710 
  143.8750   280.5480    25.1220     2.5140     3.8880    11.5620    11.7170    16.9420    -7.8040 
  144.0000   279.0500    25.1240     2.5110     3.9380    11.7260    11.5770    18.8300    -7.9630 
  144.1250   272.8100    25.2140     2.5130     3.9000    11.7260    11.5780    29.2550    -8.1130 
  144.2500   268.3490    25.2490     2.5080     3.8340    11.9810    11.8120    19.6160    -8.3590 
  144.3750   264.8670    25.2210     2.5030     3.7970    12.4030    12.5500    17.2860    -8.6190 
  144.5000   265.1120    25.0660     2.5000     3.8940    12.7640    13.5650    19.8070    -8.6180 
  144.6250   266.5040    25.0020     2.4980     4.0050    13.1600    14.4820    21.0650    -8.6180 
  144.7500   269.3410    24.8990     2.4980     3.9890    13.5390    14.8940    21.8320    -8.6170 
  144.8750   272.8610    24.7970     2.5040     4.0490    13.7650    14.6400    19.7650    -8.6160 
  145.0000   274.3700    24.7090     2.5110     3.9750    13.5100    14.3870    19.6020    -8.5520 
  145.1250   272.9550    24.6830     2.5180     3.9940    13.5100    14.3880    16.9870    -8.5510 
  145.2500   270.1760    24.6200     2.5190     3.8940    12.7340    14.3890    16.2200    -8.4870 
  145.3750   270.2080    24.6210     2.5120     3.7920    12.1020    13.5470    19.1540    -8.6530 
  145.5000   272.0830    24.6210     2.5070     3.7000    12.2390    13.5260    19.9350    -9.1340 
  145.6250   273.6580    24.6210     2.4980     3.7630    12.8710    14.7220    19.2390    -9.3090 
  145.7500   276.4730    24.6220     2.4960     3.7150    13.0000    15.1580    16.7670    -9.1890 
  145.8750   277.6430    24.6220     2.4960     3.7410    12.2570    14.5470    14.9430    -9.0370 
  146.0000   278.8420    24.6220     2.4860     3.7670    11.2320    13.6950    14.1730    -8.8000 
  146.1250   279.6520    24.7020     2.4750     3.9910    10.7060    12.8090    15.9720    -8.9260 
  146.2500   279.7420    24.7490     2.4640     3.9630    10.7060    11.4150    17.5820    -8.9130 
  146.3750   279.7460    24.9390     2.4490     3.9690    11.1370    11.7060    15.8640    -8.5830 
  146.5000   279.7490    24.9590     2.4440     3.9950    11.2160    12.1860    14.4460    -8.2520 
  146.6250   280.3860    25.0270     2.4480     3.7060    11.2160    11.8560    15.1270    -8.0120 
  146.7500   282.2690    25.1110     2.4520     3.6710    10.9610    11.8570    17.1410    -7.6720 
  146.8750   286.0280    25.2870     2.4550     3.7970    10.9610    11.9420    16.7850    -7.3800 
  147.0000   291.3230    25.5140     2.4460     3.6950    11.4210    12.5350    16.1780    -7.2700 
  147.1250   295.2200    25.7350     2.4520     3.5190    11.4700    12.5520    14.0740    -7.1830 
  147.2500   298.5090    25.7320     2.4610     3.5940    10.7650    11.4480    15.0930    -7.1380 
  147.3750   302.9760    25.5020     2.4450     3.6190    10.1330    10.7880    10.7300    -6.8070 
  147.5000   307.7240    25.3980     2.4420     3.6960     9.5010    10.1840     9.2190    -6.4530 
  147.6250   311.6240    25.2820     2.4470     3.6710     8.9210     8.5150     8.7520    -5.7490 
  147.7500   311.1110    25.2590     2.4610     3.5480     6.9650     7.1400     8.5300    -5.2240 
  147.8750   308.0870    25.1920     2.4680     3.4430     6.6470     7.0300     8.5630    -4.6730 
  148.0000   303.8820    25.1320     2.4520     3.4350     6.8820     7.0310     8.9550    -4.0830 
  148.1250   303.6900    25.0700     2.4460     3.5240     7.4090     7.5560     9.8200    -3.4900 
  148.2500   303.4510    25.1120     2.4440     3.5310     8.0590     8.4390    10.8690    -3.1460 
  148.3750   303.2570    25.1620     2.4270     3.7560     8.1570     9.0740    11.8720    -2.5620 
  148.5000   303.8940    25.2610     2.4020     3.7610     8.4110     9.5820    12.5990    -2.2320 
  148.6250   303.2630    25.2770     2.4080     3.7250     8.1570     9.5830    11.4490    -1.7810 
  148.7500   303.2660    25.3430     2.4000     3.8370     8.1560     9.2040    11.0780    -1.0810 
  148.8750   303.6820    25.3250     2.4000     3.7380     8.1560     8.8310    10.9520    -0.5200 
  149.0000   301.1920    25.3260     2.4240     3.6460     8.1560     8.5680    11.2070     0.1480 
  149.1250   296.5580    25.3260     2.4420     3.7220     8.2840     8.5690    11.4620     0.6930 
  149.2500   292.1720    25.3260     2.4550     3.8090     8.6010     8.8250    11.9680     1.1430 
  149.3750   289.3340    25.3390     2.4640     3.8800     8.9150     9.0590    15.1240     1.6770 
  149.5000   287.8190    25.3900     2.4680     3.8370     9.0380     9.3360    12.9020     2.2140 
  149.6250   288.1830    25.4360     2.4730     3.9160     9.5070     9.5650    13.7640     2.6260 
  149.7500   289.3440    25.3910     2.4730     3.9820     9.6860    10.0440    15.1500     2.9410 
  149.8750   291.5060    25.3690     2.4580     3.9170     9.9410    11.0910    14.3510     2.6780 
