~V
VERS. 2.00: Ver 2.00
~W
STRT.M 100.0000:
STOP.M 251.0000:
STEP.M 0.1250:
NULL. -999.2500:
UWI. Z007:
~C
DEPT.M :
AC.US/MT :
CALI.CM :
DEN.GM/CC :
GR.API :
RI. :
RML.OHMM :
RXO.OHMM :
SP.MV :
~A
  100.0000   429.8410    25.5700     2.2950     5.6860     3.8270     3.5530     4.7560    -3.2050 
  100.1250   432.2890    25.6550     2.2950     5.8050     3.9500     3.7480     4.9010    -3.1850 
  100.2500   435.8190    25.8870     2.2880     5.9200     4.3320     3.5550     5.0130    -3.1590 
  100.3750   439.5320    25.7780     2.2810     5.8030     4.3370     3.3030     5.0730    -3.1200 
  100.5000   443.0850    25.6260     2.2800     5.6280     4.0820     3.0500     4.8210    -3.1300 
  100.6250   444.9930    25.5070     2.2790     5.5680     3.7200     3.0510     4.7100    -3.2470 
  100.7500   441.3800    25.3190     2.3020     5.2860     3.3420     3.0520     4.5400    -3.3330 
  100.8750   432.9270    25.1520     2.3150     5.2100     3.3160     3.0530     4.3320    -3.4280 
  101.0000   427.6840    25.2330     2.3200     5.3890     3.3160     3.0540     4.5190    -3.7660 
  101.1250   420.6160    25.4640     2.3180     5.2480     3.5160     3.3090     5.1470    -4.1650 
  101.2500   387.7330    25.6300     2.2710     5.0760     3.5710     3.3100     5.3340    -4.3640 
  101.3750   377.3410    25.3400     2.2210     5.2190     3.8260     3.5650     4.9020    -4.4780 
  101.5000   373.0870    25.2580     2.1980     5.1800     3.8260     3.8200     7.0720    -4.6210 
  101.6250   384.4550    25.0570     2.2070     5.0890     4.6640     4.6830    10.0370    -3.9260 
  101.7500   415.5810    24.9110     2.2070     5.1890     5.6120     5.3460    11.0030    -3.0440 
  101.8750   431.6240    24.8790     2.2030     5.1770     5.8030     5.2510     6.8090    -2.5330 
  102.0000   435.5900    24.8800     2.2150     5.0620     5.1700     4.8400     6.4810    -2.1400 
  102.1250   435.6030    24.9430     2.2300     5.0130     4.8470     4.5870     6.4840    -1.8090 
  102.2500   427.8720    25.0670     2.2570     5.0190     4.8470     4.5880     6.5630    -1.6640 
  102.3750   427.8740    25.1390     2.2840     4.7610     4.8470     4.5900     6.7370    -1.6490 
  102.5000   426.8900    25.3240     2.3430     4.6230     4.8470     4.8440     7.0740    -1.6190 
  102.6250   426.0980    25.3910     2.3920     4.4910     5.1020     4.5920     7.4110    -1.4510 
  102.7500   421.6110    25.4930     2.4860     4.4600     5.1020     4.5930     7.5020    -1.2180 
  102.8750   355.7830    25.5630     2.4960     4.5020     5.1020     4.3400     7.0260    -1.0520 
  103.0000   306.7100    25.6280     2.5010     4.5230     5.1020     4.3410    10.6140    -0.8210 
  103.1250   257.6380    25.5700     2.4630     4.4850     5.6340     5.1690    25.9190    -0.3550 
  103.2500   225.6450    25.1530     2.3540     4.4310     6.9580     6.5670    41.2240    -0.0360 
  103.3750   230.1420    25.0310     2.2610     4.4880    10.7280    13.3890    56.4360     0.1060 
  103.5000   251.6940    24.8650     2.1690     4.5180    15.1880    16.6570    45.7950    -0.4710 
  103.6250   329.0150    24.7410     2.1020     4.4570    16.0580    16.6240    35.3410    -1.2840 
  103.7500   422.3460    24.6310     2.0970     4.5470    11.7310    14.6100    24.8880    -1.6310 
  103.8750   468.8120    24.6320     2.0970     4.6700     8.9370     9.8170    14.4350    -1.9570 
  104.0000   461.4020    24.6320     2.1050     4.7940     6.0020     7.9530     6.9420    -2.0730 
  104.1250   458.5780    24.6320     2.1290     4.7500     5.6120     4.6050     6.5760    -2.1360 
  104.2500   484.6360    24.7660     2.1450     4.8470     5.6120     4.6060     6.6390    -2.2120 
  104.3750   501.0750    24.9030     2.1630     4.9800     5.8670     4.8610     6.9480    -2.3020 
  104.5000   522.0100    24.9500     2.1800     5.2070     5.8670     4.8620     7.1370    -2.0750 
  104.6250   525.0760    24.9500     2.1950     5.3860     5.4990     4.8630     7.0110    -1.7190 
  104.7500   461.8770    24.9510     2.2130     5.4460     5.0070     4.7120     6.7590    -1.3540 
  104.8750   447.5000    24.9510     2.2240     5.4930     4.3360     4.1040     4.7320    -1.0130 
  105.0000   451.2490    24.9510     2.2330     5.3300     4.0810     3.8510     5.1790    -0.4160 
  105.1250   455.4650    25.0270     2.2370     5.2630     4.3360     4.1110     5.7140     0.0480 
  105.2500   458.8230    25.1060     2.2340     5.2520     4.3360     4.3230     6.5250     0.3200 
  105.3750   457.8680    25.1840     2.2310     5.4040     4.3360     4.0990     5.5070     0.5760 
  105.5000   452.0480    25.2260     2.2200     5.4160     4.0470     3.4700     4.9560     0.7440 
  105.6250   442.2630    25.2550     2.2070     5.5460     3.6340     3.3490     4.6110     0.8440 
  105.7500   437.2220    25.1330     2.2080     5.6140     3.3160     3.6040     4.7030     0.9540 
  105.8750   436.2010    24.9410     2.2130     5.4610     3.5710     3.8590     4.8670     1.0330 
  106.0000   437.4740    24.8910     2.2180     5.0400     3.8520     4.1140     5.2490     1.1620 
  106.1250   437.3240    24.8970     2.2120     5.0640     4.0810     4.3690     5.5200     1.2690 
  106.2500   436.8040    25.0310     2.2000     5.0600     4.3360     4.3700     5.8350     1.3550 
  106.3750   436.2110    25.1480     2.1900     4.9560     4.3360     4.3710     6.0120     1.4820 
  106.5000   436.2130    25.2530     2.1850     4.8320     4.5910     4.1660     5.6070     1.4830 
  106.6250   435.7840    25.2090     2.1880     4.7810     4.5910     4.1190     5.0060     1.4840 
  106.7500   434.3130    25.2090     2.2280     4.7360     4.5910     4.2240     5.9520     1.4850 
  106.8750   434.3150    25.2920     2.2450     4.8170     4.4860     4.8580     6.7700     1.3960 
  107.0000   435.5880    25.4080     2.2600     5.0140     4.7280     5.3920     7.1590     1.0410 
  107.1250   437.4960    25.4960     2.2710     5.1750     5.1010     5.6470     6.8220     0.8530 
  107.2500   441.0550    25.5540     2.2730     5.4880     5.3560     5.0470     5.8550     0.6960 
  107.3750   445.7580    25.5340     2.2580     5.5830     4.9680     4.4180     4.9310     0.6010 
  107.5000   447.5750    25.4640     2.2490     5.4420     4.0810     3.8730     3.9940     0.5390 
  107.6250   443.0470    25.4650     2.2550     5.3810     3.5710     3.8740     4.0500     0.5390 
  107.7500   434.4840    25.4650     2.2730     5.4200     3.6950     3.8750     4.5700     0.5400 
  107.8750   430.9720    25.4760     2.2880     5.4930     3.8260     3.8760     4.6980     0.5410 
  108.0000   428.3210    25.5160     2.2980     5.4960     3.8260     3.8780     4.4310     0.5270 
  108.1250   427.0430    25.5290     2.3060     5.3190     3.8260     3.8790     5.1300     0.3370 
  108.2500   427.5930    25.5330     2.3110     5.2520     3.8260     3.6260     5.1080    -0.0210 
  108.3750   429.1210    25.5930     2.2880     5.1230     3.8260     3.6270     4.5080    -0.3180 
  108.5000   431.9870    25.5940     2.2920     5.1910     3.8260     3.6280     4.5210    -0.3510 
  108.6250   435.1380    25.6580     2.2980     5.2600     3.6530     3.6290     4.9250    -0.4690 
  108.7500   437.0160    25.6580     2.2840     4.9820     3.4150     3.4760     5.7790    -0.8180 
  108.8750   439.1110    25.6580     2.2620     4.8620     3.3160     3.3770     5.1410    -1.1550 
  109.0000   441.0580    25.6050     2.2640     4.7630     3.0610     3.1240     4.1720    -1.2180 
  109.1250   442.6530    25.5710     2.3580     4.6680     3.0610     3.1260     3.7610    -1.3040 
  109.2500   437.5450    25.3070     2.3910     4.6390     3.2570     3.1270     3.3960    -1.4290 
  109.3750   418.0960    24.9870     2.4160     4.7440     3.3160     3.1280     3.4750    -1.4790 
  109.5000   335.3750    24.9080     2.3640     4.3090     3.5040     3.4550     4.2300    -1.4780 
  109.6250   298.9250    25.2180     2.2880     4.3000     4.3070     4.7260     7.6520    -1.4770 
  109.7500   333.4960    25.5000     2.2580     4.3180     6.2270     6.2150     7.8610    -1.4760 
  109.8750   355.5700    25.6480     2.2640     4.3250     5.9270     6.9420     5.9700    -1.5390 
