~V
VERS. 2.00: Ver 2.00
~W
STRT.M 100.0000:
STOP.M 251.0000:
STEP.M 0.1250:
NULL. -999.2500:
UWI. Z007:
~C
DEPT.M :
AC.US/MT :
CALI.CM :
DEN.GM/CC :
GR.API :
RI. :
RML.OHMM :
RXO.OHMM :
SP.MV :
~A
# ...
  180.0000   437.7950    24.4900     2.3160     3.4410     3.0570     3.9040     3.0940   -21.9030 
  180.1250   431.0180    24.4650     2.3380     3.5600     3.0570     3.7470     2.9760   -22.4330 
  180.2500   414.1190    24.4820     2.3580     3.6660     2.8020     3.7480     2.8510   -22.6660 
  180.3750   404.9910    24.5300     2.3730     3.5690     3.0100     4.0020     2.7160   -22.9290 
  180.5000   394.1270    24.5780     2.3820     3.7440     3.0570     4.0060     2.9710   -22.0230 
  180.6250   391.0980    24.6240     2.3740     3.8400     3.1570     4.0070     3.2880   -20.5780 
  180.7500   395.2350    24.6920     2.3550     4.2770     3.5670     4.2630     3.7900   -19.8280 
  180.8750   401.4920    24.6680     2.3620     4.3400     3.6310     4.5120     4.1180   -19.2970 
  181.0000   412.3300    24.7200     2.3810     4.4900     3.8420     4.7030     4.5570   -18.8510 
  181.1250   419.2170    24.7510     2.3910     4.8410     4.0530     4.7770     4.8370   -18.3700 
  181.2500   427.6040    24.6780     2.3800     5.0630     4.0760     4.7780     5.0880   -17.9760 
  181.3750   440.0310    24.7090     2.3610     5.1540     4.2530     5.0340     5.1600   -17.7090 
  181.5000   462.5330    24.7210     2.3660     5.1800     4.4310     5.0350     5.0000   -17.4920 
  181.6250   475.4230    24.6940     2.3590     5.3500     4.5850     5.0360     4.6280   -17.4090 
  181.7500   483.6510    24.6590     2.3410     5.2790     4.5850     5.0380     4.2530   -16.9940 
  181.8750   402.7410    24.6250     2.3460     5.0240     4.5850     5.0390     6.8980   -16.5250 
  182.0000   408.8350    24.6130     2.3650     4.9220     4.8700     5.5500     8.9250   -14.9160 
  182.1250   408.6970    24.6040     2.3860     5.0360     6.0160     6.3170    11.4560   -13.7100 
  182.2500   410.3210    24.6230     2.4040     5.0720     6.9060     7.0320    13.7130   -12.3700 
  182.3750   413.6130    24.6430     2.4180     5.0350     7.5400     7.5270    12.2090   -10.7160 
  182.5000   337.7060    24.6610     2.4340     4.8590     8.1740     8.0220    15.2220    -8.8420 
  182.6250   345.9450    24.6610     2.4220     4.8240     8.8090     8.6190    13.0610    -6.5670 
  182.7500   377.7930    24.7310     2.3970     4.9480     8.9320     8.8750    15.2920    -4.5510 
  182.8750   397.6630    24.8050     2.3830     5.1430    10.2210     9.3220    41.9000    -3.6050 
  183.0000   409.6010    24.8780     2.3680     5.2760    12.5000    11.9400    32.7480    -2.5420 
  183.1250   413.7110    24.9520     2.3610     5.2250    10.2800    13.3650    10.5500    -1.7060 
  183.2500   415.4090    24.9780     2.3520     5.1150     7.6530     6.2170     5.1360    -0.6430 
  183.3750   417.9650    24.9790     2.3500     5.1500     5.8590     5.1270     5.9580     0.4680 
  183.5000   416.0920    25.1050     2.3730     5.2790     5.6230     4.8470     6.6560     1.7890 
  183.6250   403.5680    25.0680     2.3950     5.0980     5.9650     5.3960     6.6110     2.8820 
  183.7500   389.2490    25.1680     2.4130     4.9320     6.3690     5.8640     6.5580     3.7190 
  183.8750   387.9090    25.2790     2.4310     5.0800     6.6230     6.1650     7.2670     4.3330 
  184.0000   398.3970    25.4180     2.4230     5.2730     6.6230     6.3340     9.4900     4.8580 
  184.1250   410.4810    25.6190     2.3930     5.1400     7.0620     7.0070    12.0200     5.4350 
  184.2500   420.8050    25.7120     2.3510     4.8010     8.3710     8.4080    16.9300     5.6600 
  184.3750   431.7830    25.7770     2.2780     4.6580     8.9160     8.8900    14.5780     5.8230 
  184.5000   437.8390    25.5680     2.2670     4.3980     7.6310     8.8430    11.8240     5.9370 
  184.6250   438.3070    25.1080     2.2790     4.2890     5.7870     7.7750     9.4310     5.8210 
  184.7500   428.6010    24.9760     2.2880     4.1660     5.3490     6.8320     7.7980     5.6220 
  184.8750   409.1900    24.9200     2.2960     4.2060     4.5850     6.0540     6.4190     5.4040 
  185.0000   405.4320    25.0290     2.3050     4.0560     4.1490     5.5640     4.3370     5.0470 
  185.1250   402.1390    25.0810     2.3150     4.0750     4.0760     4.6740     3.3210     5.0310 
  185.2500   398.9380    25.1100     2.2940     3.9530     3.8210     4.2990     3.5450     5.1420 
  185.3750   397.7990    25.0240     2.3200     3.8090     3.8620     4.3040     3.9880     5.1590 
  185.5000   400.6600    24.9210     2.3310     3.7370     4.0760     4.3050     4.1580     5.2160 
  185.6250   404.4210    24.8320     2.3360     3.7160     4.3300     4.1150     4.1590     5.2250 
  185.7500   407.9950    24.7960     2.3310     4.0240     4.3300     4.3070     4.1600     4.9530 
  185.8750   410.7770    24.7970     2.3210     4.1830     4.3300     4.3080     3.9870     4.4780 
  186.0000   412.8060    24.7970     2.3220     4.3220     4.1290     4.3090     3.9060     3.9310 
  186.1250   414.2870    24.7970     2.3460     4.4960     4.0760     4.2180     3.7820     3.1470 
  186.2500   414.9190    24.7980     2.3550     4.6140     4.0060     4.0600     3.5950     2.2990 
  186.3750   414.9150    24.7350     2.3590     4.7230     3.8210     4.0570     3.5300     1.5580 
  186.5000   414.9110    24.7350     2.3530     4.8880     3.8210     4.0580     3.5770     0.7940 
  186.6250   411.0910    24.7360     2.3460     4.9760     3.8210     3.8040     3.6590    -0.7040 
  186.7500   407.4300    24.7580     2.3790     4.8910     3.8210     3.8050     3.6600    -1.4350 
  186.8750   400.5430    24.7430     2.3990     4.9030     3.8210     3.8060     3.6610    -1.7740 
  187.0000   393.4690    24.7670     2.4160     4.9460     3.9450     3.8070     3.6630    -2.2990 
  187.1250   390.2530    24.7910     2.4250     4.8870     4.0720     4.0790     3.7910    -3.1550 
  187.2500   392.7410    24.8020     2.4030     4.9420     4.0760     4.1860     3.6650    -3.9980 
  187.3750   393.9280    24.8650     2.3840     5.0800     4.3050     4.2930     3.6930    -5.3750 
  187.5000   390.4740    24.9280     2.3700     5.1730     4.3300     4.3220     3.8800    -6.6800 
  187.6250   386.9360    24.9910     2.3620     5.2280     4.0760     4.3240     4.0890    -8.1600 
  187.7500   386.2630    25.0840     2.3560     5.2530     3.8210     4.1220     4.9010   -10.2100 
  187.8750   386.3210    25.1630     2.3460     5.1340     3.8210     4.0700     5.9580   -12.2010 
  188.0000   388.1650    25.3960     2.3360     5.0040     4.2140     4.3270     5.5580   -14.1120 
  188.1250   390.6050    25.5530     2.3340     5.0550     4.5850     4.8390     5.4520   -15.3110 
  188.2500   393.6690    25.6500     2.3410     5.0490     4.3300     4.9040     5.4530   -16.3490 
  188.3750   395.6430    25.6720     2.3500     5.1050     4.2650     4.8210     5.4540   -17.0980 
  188.5000   394.5010    25.6240     2.3500     5.3050     4.0760     4.6100     5.4550   -17.6760 
  188.6250   392.2310    25.5610     2.3430     5.2440     4.0760     4.3050     5.1470   -18.7070 
  188.7500   386.7580    25.6240     2.3330     5.1080     4.0760     4.0780     4.6950   -19.6680 
  188.8750   383.0890    25.5710     2.3210     5.0040     4.0750     3.9270     4.4410   -20.7750 
  189.0000   383.6580    25.4990     2.3030     5.1540     4.3300     3.8250     4.4430   -21.7150 
  189.1250   384.3520    25.4990     2.2960     5.0520     4.9280     4.6340     6.8580   -22.6340 
  189.2500   373.0810    25.5510     2.2980     5.1300     5.8580     5.3590     8.6720   -23.4680 
  189.3750   358.8830    25.6260     2.3030     4.8580     6.2810     5.6160    10.1350   -24.4600 
  189.5000   350.9030    25.5940     2.3070     4.3610     6.8960     5.8720     8.4500   -25.0310 
  189.6250   347.5140    25.5000     2.3000     4.2870     7.2940     6.1580    29.7470   -26.0600 
  189.7500   354.9280    25.4740     2.2900     4.1610     8.4740     6.9480    35.5980   -26.5640 
  189.8750   388.0390    25.4380     2.2630     3.9750    13.4170     9.4720    50.7750   -26.8770 
