~V
VERS. 2.00: Ver 2.00
~W
STRT.M 100.0000:
STOP.M 251.0000:
STEP.M 0.1250:
NULL. -999.2500:
UWI. Z007:
~C
DEPT.M :
AC.US/MT :
CALI.CM :
DEN.GM/CC :
GR.API :
RI. :
RML.OHMM :
RXO.OHMM :
SP.MV :
~A
# ...
  110.0000   388.0590    25.5480     2.2710     4.7520     3.7380     6.6580     4.6490    -1.8290 
  110.1250   416.2160    25.3200     2.2780     4.8350     3.3160     4.9660     4.1430    -2.2700 
  110.2500   413.1960    24.7650     2.2820     4.6800     3.7340     3.3890     4.3590    -2.7020 
  110.3750   413.7420    24.7410     2.2840     4.7430     3.8570     3.5230     5.2470    -2.8670 
  110.5000   417.5290    24.8840     2.2740     4.7330     4.2860     4.1540     5.6310    -2.7800 
  110.6250   420.8660    25.0930     2.2680     4.5660     4.5910     4.2930     5.2690    -2.6120 
  110.7500   421.6320    25.0940     2.2650     4.5620     4.5910     4.4100     5.8200    -2.5120 
  110.8750   415.7870    25.0310     2.2370     4.3350     4.3500     4.4110     6.4480    -2.4200 
  111.0000   412.2550    24.9740     2.2070     4.2510     4.5910     4.9200     6.6530    -2.3560 
  111.1250   408.1280    24.9050     2.1890     4.3300     4.5910     5.1750     5.0390    -2.3200 
  111.2500   409.0870    24.7930     2.1960     4.4120     4.6560     4.9220     4.6530    -2.1980 
  111.3750   414.7810    24.6820     2.2330     4.5590     4.8460     4.2950     5.0270    -2.0470 
  111.5000   421.7480    24.5560     2.2860     4.6820     4.0810     3.9080     5.8900    -1.8560 
  111.6250   425.5030    24.4000     2.3450     4.7090     4.8350     4.7290     7.1730    -1.5920 
  111.7500   436.9710    24.5660     2.3820     4.7560     5.8470     4.9270     7.2330    -1.1280 
  111.8750   441.0750    25.0360     2.3780     4.6240     6.6130     5.5470     7.8440    -0.6020 
  112.0000   441.5020    25.2970     2.4280     4.5750     5.5070     5.2220     8.5970    -0.1350 
  112.1250   383.8430    25.3740     2.4610     4.5290     5.1150     3.9650     3.8300     0.4950 
  112.2500   329.2830    25.3510     2.4520     4.4830     4.4000     3.1830     3.0060     0.8620 
  112.3750   295.3880    25.3790     2.4270     4.5090     3.6080     3.1540     7.7740     1.3260 
  112.5000   294.1480    25.4110     2.3850     4.3910     4.9390     4.1030    22.5150     1.2310 
  112.6250   312.3070    25.2260     2.3140     4.3070     8.2870     7.4520    30.0890     0.7560 
  112.7500   329.3540    25.1040     2.2490     4.3720    10.9550    10.9290    30.7900    -0.4430 
  112.8750   376.9410    24.8510     2.1870     4.4220    12.6530    13.2720    34.1360    -0.9090 
  113.0000   427.2760    24.6960     2.1620     4.3850    11.4770    13.0940    14.3120    -1.1660 
  113.1250   457.8810    24.5790     2.1590     4.4480    10.4570    12.4640     7.8540    -1.3170 
  113.2500   432.6120    24.4910     2.1670     4.3310     8.1610    11.0740     8.2960    -1.1680 
  113.3750   422.9820    24.4050     2.1700     4.3000     6.7700     8.5890     7.8470    -0.7040 
  113.5000   511.2800    24.3730     2.1630     4.2940     6.4300     6.5190     7.3660    -0.2700 
  113.6250   527.7060    24.3990     2.1650     4.4520     6.8470     6.5760     7.4700     0.1890 
  113.7500   514.3540    24.4060     2.1800     4.5350     6.8860     6.8210     7.9050     0.6220 
  113.8750   514.4600    24.4060     2.2060     4.5900     6.9720     7.2320     8.2330     0.9590 
  114.0000   485.7410    24.4070     2.2230     4.5690     6.8860     7.2330     8.2340     1.2830 
  114.1250   467.6180    24.4980     2.2490     4.5600     6.7260     7.1740     7.9820     1.4930 
  114.2500   502.0000    24.5380     2.2610     4.4610     6.3760     6.6350     7.7540     1.4060 
  114.3750   455.4810    24.6840     2.2700     4.3860     6.2240     6.3210     7.5800     1.2340 
  114.5000   431.8100    24.7880     2.2420     4.6310     5.8560     6.0060     7.3720     0.7000 
  114.6250   425.7530    24.9140     2.1990     4.8100     5.6110     5.7140     7.3520     0.2100 
  114.7500   422.4400    24.8580     2.1830     4.7110     5.0900     5.4610     6.1510    -0.0530 
  114.8750   418.8470    24.8010     2.1630     4.7120     4.5910     4.6630     5.0530    -0.2390 
  115.0000   414.2680    24.7260     2.1560     4.7880     4.0810     4.2400     4.8190    -0.2380 
  115.1250   414.4860    24.6920     2.1620     4.5360     4.2710     3.9400     9.4890    -0.2430 
  115.2500   420.0120    24.6630     2.1860     4.5300     4.5840     4.3500    11.5410    -0.3000 
  115.3750   426.9670    24.7360     2.2090     4.4270     5.3360     5.2390     7.9880    -0.2990 
  115.5000   431.5680    24.7910     2.2240     4.5800     5.8660     6.1290     7.6960    -0.3040 
  115.6250   435.2400    24.8830     2.2330     4.7800     6.1210     6.4850     7.6150    -0.4110 
  115.7500   436.3990    25.0820     2.2310     4.8760     5.8880     6.4870     7.4890    -0.5190 
  115.8750   436.9760    25.2140     2.2410     4.9360     5.5600     6.2170     6.1130    -0.7400 
  116.0000   438.4460    25.4240     2.2470     5.1270     5.2440     5.5870     6.1980    -0.7390 
  116.1250   445.0080    25.4880     2.2420     5.1760     4.7540     5.2110     6.7310    -0.7390 
  116.2500   449.8330    25.4880     2.2250     5.2070     4.3760     4.7120     5.7900    -0.7030 
  116.3750   450.9510    25.4440     2.2280     5.0540     3.9120     4.7120     4.3730    -0.6100 
  116.5000   448.4490    25.2360     2.2370     5.0740     3.5700     4.0820     3.9780    -0.5460 
  116.6250   446.2600    25.1120     2.2440     5.1340     3.3150     3.9540     3.8190    -0.7610 
  116.7500   443.4460    24.9200     2.2540     4.9940     3.3150     3.3290     3.8200    -1.1050 
  116.8750   434.7840    24.9730     2.2610     4.8880     4.0800     3.3140     3.9970    -1.4020 
  117.0000   431.3450    25.1040     2.2630     5.0930     4.2700     3.5600     4.4980    -1.6210 
  117.1250   433.2510    25.2890     2.2580     5.0090     4.5900     3.9400     5.2090    -1.8790 
  117.2500   435.6110    25.3010     2.2550     5.0400     4.5900     4.1390     5.4730    -2.3150 
  117.3750   436.4300    25.2260     2.2580     4.9420     4.5900     4.4570     5.4740    -2.6490 
  117.5000   436.0910    25.1760     2.2470     4.8510     4.1220     4.6470     5.2780    -2.9490 
  117.6250   435.5230    25.2620     2.2390     5.0220     3.5700     3.9920     5.2220    -3.0060 
  117.7500   440.5250    25.3150     2.2440     4.9530     3.8250     3.9630     5.2240    -3.3550 
  117.8750   443.1500    25.4820     2.2530     4.9190     4.0800     4.1830     5.3790    -3.3280 
  118.0000   441.5210    25.2400     2.2600     5.0140     3.8250     4.4740     4.4280    -3.2000 
  118.1250   434.9450    25.1080     2.2720     5.2020     3.8020     3.9670     4.4660    -3.1360 
  118.2500   433.0540    24.9960     2.2650     5.0240     3.5700     3.4600     5.8770    -3.0780 
  118.3750   434.8800    25.2460     2.2500     4.7270     3.5700     3.6910     9.0990    -3.5290 
  118.5000   433.7790    25.4310     2.2180     4.8280     3.8250     3.7920     8.5560    -3.9820 
  118.6250   430.0100    25.2330     2.1970     4.9000     4.3350     4.3740     5.7380    -4.4360 
  118.7500   426.9050    25.0520     2.2150     4.7750     3.9500     4.8980     7.4780    -4.7750 
  118.8750   429.5190    25.0860     2.2320     4.8300     3.6990     4.2860     6.3740    -5.3420 
  119.0000   432.0440    25.1750     2.2520     4.9300     3.4360     3.7200     5.3610    -5.7950 
  119.1250   442.7840    25.2090     2.2580     4.9690     3.8250     3.9100     5.7910    -5.8630 
  119.2500   444.7200    25.3070     2.2580     4.6880     4.3350     4.4850     5.4990    -5.7090 
  119.3750   414.8870    25.2350     2.2570     4.6060     4.3350     4.4860     5.2380    -5.4720 
  119.5000   393.6720    25.1330     2.2600     4.5730     4.0800     4.2330     5.1120    -5.4080 
  119.6250   380.6850    25.0550     2.2450     4.5620     4.0800     4.2340     5.2400    -5.3460 
  119.7500   375.0660    24.9920     2.1670     4.7350     4.3140     4.0280     5.9840    -5.5580 
  119.8750   395.0260    24.9160     2.1440     4.6420     4.8100     4.4080    15.6210    -6.0770 
