~V
VERS. 2.00: Ver 2.00
~W
STRT.M 100.0000:
STOP.M 251.0000:
STEP.M 0.1250:
NULL. -999.2500:
UWI. Z007:
~C
DEPT.M :
AC.US/MT :
CALI.CM :
DEN.GM/CC :
GR.API :
RI. :
RML.OHMM :
RXO.OHMM :
SP.MV :
~A
# ...
  130.0000   427.6410    24.9840     2.1940     5.3520     3.3150     3.9160     4.6670    -1.4120 
  130.1250   423.4570    24.8310     2.1900     5.4200     3.0600     3.5640     4.3940    -1.3030 
  130.2500   416.3930    24.8950     2.1930     5.3000     3.0600     3.3110     4.7810    -1.0940 
  130.3750   411.9390    25.0630     2.1990     5.3840     3.3740     3.3930     4.7560    -0.8190 
  130.5000   410.4360    24.7770     2.2120     5.2970     3.6900     3.8210     5.6940    -0.5050 
  130.6250   409.8310    24.5160     2.2260     5.3530     4.0070     4.0340     4.9340    -0.2020 
  130.7500   409.4940    24.5410     2.2440     5.4220     4.3340     4.2940     5.0960     0.0700 
  130.8750   414.8430    24.7520     2.2720     5.3880     4.4370     4.0790     5.5950     0.4360 
  131.0000   420.7610    25.1830     2.2910     5.4060     4.5890     4.1120     6.1000     0.8020 
  131.1250   428.6550    25.5060     2.3070     5.6230     4.5890     4.3360     6.4790     1.2150 
  131.2500   439.1700    25.8840     2.3120     5.8750     4.5890     4.6180     6.3620     1.5550 
  131.3750   447.7390    26.1620     2.2950     5.9780     4.8440     4.5920     6.2300     1.8180 
  131.5000   451.9630    26.2250     2.2850     5.8060     4.5890     4.3180     5.5850     2.1620 
  131.6250   448.7420    26.2260     2.2880     5.7160     4.0030     3.6160     4.6200     2.4440 
  131.7500   441.8100    26.1830     2.2970     5.7140     3.5690     3.0570     3.7410     2.2500 
  131.8750   431.0040    26.0810     2.3090     5.4200     3.2470     2.3070     3.3160     1.7030 
  132.0000   392.5470    25.7840     2.2950     5.3550     3.0600     2.3080     3.3390     1.1350 
  132.1250   380.9850    25.4600     2.2680     5.3930     3.0600     2.3740     3.9450     0.9480 
  132.2500   383.1710    25.2130     2.2460     5.1770     3.2410     2.8190     5.2040     0.4790 
  132.3750   395.8020    24.9010     2.2170     4.9610     3.5690     3.2000     6.4630     0.0810 
  132.5000   408.2640    24.7780     2.2050     5.0850     3.9990     4.3370     8.1030    -0.1770 
  132.6250   415.3540    24.7750     2.2000     5.1790     4.6110     4.7360     8.7940    -0.3410 
  132.7500   418.0140    24.7750     2.1890     5.2090     4.9280     4.6040     6.3190    -0.2810 
  132.8750   420.4300    24.8690     2.2000     5.0610     4.9540     4.6050     6.4900     0.0100 
  133.0000   422.4050    24.9020     2.2110     5.0910     4.8440     4.8460     6.2310     0.2820 
  133.1250   424.6840    25.1390     2.2110     5.0900     4.8710     5.1710     8.5530     0.5770 
  133.2500   425.8020    25.3350     2.2120     4.9130     5.6560     5.3720     9.6430     0.7020 
  133.3750   423.8850    25.5350     2.2070     4.8300     5.8640     4.9400     6.1390     0.7660 
  133.5000   420.7540    25.2560     2.2050     5.0030     4.9580     4.6110     5.5210     0.8320 
  133.6250   418.2540    24.9560     2.2050     5.0610     4.5800     4.1030     4.5240     0.8940 
  133.7500   413.1680    24.8010     2.1980     4.8320     4.5890     4.3250    11.6350     0.9610 
  133.8750   408.1910    24.6900     2.2060     4.7750     5.1010     5.3810    14.8260     1.0190 
  134.0000   406.9180    24.7510     2.2210     4.8630     6.1160     6.4580    16.4340     0.2980 
  134.1250   409.4310    24.7810     2.2360     4.9020     7.1300     7.3560     7.7000    -0.3500 
  134.2500   411.3840    24.8410     2.2520     4.9860     6.2560     7.9250     6.6760    -0.4380 
  134.3750   412.1970    24.7600     2.2580     4.7000     5.3690     5.9350     4.9280     0.0550 
  134.5000   413.2930    24.6800     2.2610     4.6350     4.9910     5.0400     5.2340     0.4740 
  134.6250   412.8280    24.5950     2.2750     4.5600     4.6140     4.8960     5.6460     0.7240 
  134.7500   412.1680    24.6540     2.3100     4.5710     4.5890     4.8970     6.3370     0.7280 
  134.8750   405.9310    24.7460     2.3330     4.7570     4.8440     5.0260     7.3080    -0.3250 
  135.0000   392.0680    24.8420     2.3380     4.9490     5.0990     5.3660     6.1620    -0.8730 
  135.1250   376.5110    24.9280     2.3260     4.8410     5.0990     5.6170     6.0090    -1.4520 
  135.2500   373.2950    25.0040     2.3030     4.7710     4.5890     5.0280     4.9780    -2.0080 
  135.3750   382.2530    25.1040     2.2910     4.6500     4.3340     4.7530     7.3000    -2.5770 
  135.5000   392.7870    25.1750     2.2910     4.7110     4.9920     5.6960     9.8190    -3.2180 
  135.6250   399.5490    25.3310     2.3110     4.8360     6.2610     6.6230     8.4330    -3.2270 
  135.7500   375.5480    25.4010     2.3280     4.7810     6.8840     7.0950     9.0440    -3.1250 
  135.8750   344.7400    25.4790     2.3430     4.7520     6.4060     6.1650     8.4730    -3.0090 
  136.0000   324.9910    25.4900     2.3500     4.4310     5.7070     5.4020     6.7160    -2.9030 
  136.1250   326.1180    25.4570     2.3420     4.3340     5.1730     4.6340     7.5050    -2.9930 
  136.2500   353.6130    25.3950     2.3220     4.3580     5.8070     5.1220    28.2130    -3.0860 
  136.3750   396.8080    25.2910     2.3170     4.4800     8.1670     6.5190    17.2920    -3.5430 
  136.5000   400.9260    25.2280     2.3650     4.4950     9.7340    10.2150     6.4520    -3.7200 
  136.6250   378.9410    25.2280     2.4120     4.4770     8.3330     6.6460     4.9500    -3.8310 
  136.7500   352.9680    25.2290     2.4910     4.3920     5.8310     4.7440     4.7540    -3.9080 
  136.8750   327.2660    25.2830     2.5180     4.3330     5.1990     4.4060    10.9380    -3.9070 
  137.0000   301.5640    25.3560     2.5290     4.1370     5.8880     5.2950    12.8020    -3.9820 
  137.1250   275.1110    25.3560     2.5330     4.0190     7.0320     6.7110    11.9900    -4.1710 
  137.2500   259.8900    25.3560     2.5350     3.9010     7.9220     8.4610    16.0490    -4.3230 
  137.3750   256.4000    25.3570     2.5380     3.8570     9.0660     8.9970    26.5350    -4.4540 
  137.5000   259.7670    25.4080     2.5340     4.0170    12.2530    11.7980    23.9670    -4.5810 
  137.6250   255.9830    25.4210     2.5210     3.9590    13.7930    14.5850    24.2700    -4.6910 
  137.7500   255.4240    25.4210     2.5150     3.9330    14.5410    15.8700    26.1010    -4.7670 
  137.8750   258.9010    25.4210     2.5190     4.0890    15.1750    16.6090    24.6500    -5.2430 
  138.0000   262.3610    25.3600     2.5270     4.1130    15.8090    16.8650    21.4050    -5.4980 
  138.1250   263.0380    25.3990     2.5350     4.1420    16.0610    16.9910    21.3470    -5.8890 
  138.2500   262.6530    25.4440     2.5400     4.1890    15.8110    16.2940    19.4370    -6.0370 
  138.3750   263.0450    25.4860     2.5210     4.2150    14.8550    15.8510    20.6390    -6.2510 
  138.5000   263.0480    25.4860     2.5080     4.0150    15.5370    16.2290    24.9870    -6.4540 
  138.6250   263.1610    25.4870     2.4960     3.9580    16.0610    16.8640    26.4710    -6.5670 
  138.7500   264.3140    25.4870     2.5030     4.0630    16.0610    16.8720    21.7390    -6.7210 
  138.8750   266.2030    25.4870     2.5160     4.1550    15.5510    16.3790    22.9940    -6.8880 
  139.0000   268.4870    25.4880     2.5270     4.1710    15.2960    16.0020    25.9560    -6.9870 
  139.1250   269.5150    25.4880     2.5370     4.1390    14.9490    15.6040    66.0980    -7.0260 
  139.2500   269.4110    25.4880     2.5410     4.1200    14.7860    15.2480    98.8930    -7.1280 
  139.3750   266.7510    25.4890     2.5400     4.0940    14.6140    15.0970    21.6790    -7.4100 
  139.5000   266.0390    25.4890     2.5400     4.1800    14.7860    15.0980    23.6050    -7.6910 
  139.6250   267.6450    25.4890     2.5410     4.1770    14.8960    15.3200    19.8370    -8.0770 
  139.7500   270.7750    25.4900     2.5450     4.3920    15.0410    15.3550    17.8320    -8.1400 
  139.8750   271.8310    25.5440     2.5510     4.4200    14.6250    14.3990    16.0760    -8.2910 
