~V
VERS. 2.00: Ver 2.00
~W
STRT.M 100.0000:
STOP.M 251.0000:
STEP.M 0.1250:
NULL. -999.2500:
UWI. Z007:
~C
DEPT.M :
AC.US/MT :
CALI.CM :
DEN.GM/CC :
GR.API :
RI. :
RML.OHMM :
RXO.OHMM :
SP.MV :
~A
# ...
  220.0000   400.5480    24.8190     2.2500     4.6110    21.6220    22.9440    26.5310   -15.5160 
  220.1250   399.2730    24.8920     2.2640     4.6470    19.2540    22.9600    22.6440   -15.1350 
  220.2500   396.5580    24.9690     2.2690     4.6410    17.8210    21.0050    24.4620   -14.8540 
  220.3750   348.1890    25.0180     2.2750     4.5300    18.0090    19.1610    27.7950   -14.6060 
  220.5000   310.8370    25.0820     2.3090     4.3170    21.2700    20.1900    34.2220   -14.4220 
  220.6250   304.1420    25.1450     2.3410     4.2520    22.5450    22.7170    36.0260   -14.2750 
  220.7500   333.5380    24.9740     2.3650     4.1650    22.3370    25.3430    32.0800   -14.1550 
  220.8750   354.4400    24.8590     2.3810     4.2340    20.9070    26.6110    25.6580   -14.0030 
  221.0000   391.3840    24.7040     2.2920     4.2760    18.5840    25.4400    21.4840   -13.9340 
  221.1250   401.4450    24.5600     2.2560     4.3990    16.4890    22.7630    19.0340   -13.5640 
  221.2500   406.2640    24.5620     2.2550     4.5510    14.2410    19.4030    19.7180   -13.1070 
  221.3750   405.5320    24.6750     2.2500     4.3940    13.6110    15.3320    16.9580   -12.7540 
  221.5000   402.9470    24.8420     2.2380     4.5100    12.4740    14.3130    16.0970   -12.4690 
  221.6250   396.6740    25.0090     2.2300     4.3350    11.8440    13.5650    14.7690   -12.3180 
  221.7500   394.3240    25.0850     2.2230     4.2810    11.4560    12.7870    12.1880   -12.2130 
  221.8750   390.5510    25.0860     2.2280     4.1810    11.0920    11.5230    12.4410   -12.1250 
  222.0000   387.8200    25.0860     2.2340     4.1010    10.4620    10.7680    12.8720   -12.0210 
  222.1250   384.6690    24.9980     2.2280     3.9850    10.1830    11.0250    12.9710   -12.4500 
  222.2500   382.1580    24.9610     2.2340     4.0840    10.1480    11.2820    14.2600   -12.8480 
  222.3750   379.0080    24.9610     2.2420     4.1340    10.7010    11.5390    17.9950   -12.9720 
  222.5000   377.0320    24.9610     2.2440     4.0520    12.1150    12.2990    22.0480   -12.8470 
  222.6250   381.8130    25.0100     2.2380     4.1260    13.2500    13.8350    21.2460   -12.3350 
  222.7500   388.4800    24.8970     2.2240     4.2180    14.1250    15.4940    21.9880   -11.5400 
  222.8750   393.1160    24.8460     2.2120     4.0820    15.1120    16.4070    20.5170   -11.1930 
  223.0000   394.7520    24.8210     2.2060     4.0800    15.7830    17.2790    24.6420   -10.7300 
  223.1250   395.3810    24.7820     2.2110     4.1360    15.1060    17.9160    26.4300   -10.4890 
  223.2500   396.0110    24.7750     2.2150     4.2170    13.6000    18.4580    21.0670   -10.0940 
  223.3750   396.0070    24.7590     2.2180     4.5200    13.2380    17.2810    17.9270    -9.7880 
  223.5000   396.0030    24.7150     2.2180     4.5870    13.4290    15.9700    17.2130   -10.2940 
  223.6250   395.3780    24.7300     2.2150     4.6720    14.0960    14.9500    22.8050   -11.1660 
  223.7500   394.8060    24.7760     2.2120     4.5290    14.9550    15.1450    25.7590   -11.5640 
  223.8750   391.0190    24.9020     2.2110     4.4500    14.3980    16.8830    22.3720   -12.2940 
  224.0000   387.4950    25.0740     2.2160     4.3490    13.3180    15.3210    20.2770   -12.6640 
  224.1250   387.8450    25.2620     2.2330     4.3060    12.4740    13.6960    14.8710   -12.9630 
  224.2500   388.7990    25.2120     2.2470     4.4340    12.8930    13.4670    15.1160   -13.1770 
  224.3750   387.8090    25.1430     2.2580     4.5750    13.5270    14.5220    17.1130   -13.3800 
  224.5000   384.2990    25.0930     2.2620     4.6500    13.7460    15.1420    19.8330   -13.4040 
  224.6250   390.1730    25.0930     2.2560     4.5480    12.1980    13.9220    20.0320   -13.5310 
  224.7500   396.8830    25.0940     2.2420     4.5710    11.4550    12.5160    17.7810   -13.5300 
  224.8750   404.3350    25.0940     2.2670     4.6810    10.9500    12.0300    13.6140   -13.6220 
  225.0000   407.9900    25.0940     2.2870     4.9190    11.3330    11.8190    14.8690   -13.9040 
  225.1250   406.1030    25.0950     2.3000     5.0350    11.7100    12.2640    15.9380   -14.4180 
  225.2500   356.6260    25.0950     2.3090     5.1290    11.7100    12.5900    17.1510   -15.1710 
  225.3750   384.2140    25.0990     2.3060     4.9570    11.4590    12.6660    14.4440   -15.6240 
  225.5000   412.1360    25.1220     2.2620     5.0270    11.1430    12.7980    15.4550   -15.5280 
  225.6250   424.6530    25.1440     2.2500     4.8800    10.7100    12.5930    13.6440   -15.4400 
  225.7500   421.7160    25.1590     2.2250     4.7410    10.2320    12.0370    12.2320   -15.2690 
  225.8750   409.2550    25.1600     2.2150     4.5830     9.4510    10.3750    11.3860   -15.0010 
  226.0000   409.1090    25.1600     2.2070     4.5820     8.6550     9.4810    11.8890   -14.6090 
  226.1250   420.5190    25.1450     2.2030     4.7160     8.6550     9.0140    12.3930   -14.3460 
  226.2500   404.3520    25.0980     2.2010     4.4530     8.4000     8.7590    11.7790   -14.0160 
  226.3750   395.6960    25.0980     2.1980     4.4470     8.6020     8.7600    10.2140   -13.7280 
  226.5000   394.7330    25.1070     2.1950     4.4900     8.9820     8.5050    15.7190   -13.4890 
  226.6250   397.2860    25.2010     2.1890     4.3600     9.6730     8.6640    15.9030   -13.6860 
  226.7500   399.3160    25.2620     2.1810     4.2980    10.6910    10.5790    15.6570   -13.9010 
  226.8750   399.6990    25.3780     2.1760     4.4240    11.2990    11.4720    16.6570   -14.1890 
  227.0000   397.8260    25.4770     2.1730     4.4520    11.3890    11.5820    14.3170   -14.4700 
  227.1250   394.0440    25.4710     2.1740     4.5050    11.6450    11.5830    20.9740   -14.4870 
  227.2500   392.5160    25.4410     2.1970     4.5950    14.2800    14.1490    23.5250   -14.3420 
  227.3750   389.3910    25.4160     2.2140     4.4640    15.7270    16.7010    23.8670   -13.8900 
  227.5000   385.7210    25.4160     2.2110     4.3660    16.0370    17.4680    23.9240   -13.3820 
  227.6250   382.1070    25.4160     2.2090     4.4270    16.0370    17.4760    23.9960   -13.0330 
  227.7500   380.4840    25.4170     2.2080     4.4720    16.0370    17.4770    24.7620   -12.6550 
  227.8750   384.5710    25.4170     2.2090     4.5250    15.8540    17.3050    24.5510   -12.3790 
  228.0000   390.1720    25.4270     2.2050     4.6260    15.2000    16.5620    21.0770   -12.2030 
  228.1250   395.8660    25.4590     2.1950     4.7220    14.1750    15.8360    19.8540   -12.0960 
  228.2500   402.3620    25.5270     2.1950     4.6930    13.2050    14.7270    14.0730   -11.9890 
  228.3750   402.4480    25.4810     2.2100     4.5600    12.7270    13.5790    17.3580   -11.8710 
  228.5000   393.2390    25.4820     2.2150     4.4650    11.9460    12.1520    16.5270   -11.4060 
  228.6250   392.0490    25.4820     2.2160     4.5350    11.5700    11.5970    14.6300   -11.0770 
  228.7500   392.6780    25.4150     2.2300     4.6130    11.4550    11.5980    16.5470   -10.5790 
  228.8750   399.0710    25.2680     2.2430     4.5720    11.7090    11.3430    15.1080   -10.1450 
  229.0000   408.3020    25.2940     2.2490     4.6250    10.7000    11.3440    13.5310    -9.6270 
  229.1250   414.1910    25.2150     2.2590     4.2250     9.8120    10.1950    10.8800    -9.3570 
  229.2500   411.6550    25.1870     2.2680     3.9740     9.4180     9.3450    13.7460    -9.0730 
  229.3750   438.1070    25.1000     2.2880     4.0270    10.1030     9.4040    17.4600    -8.9760 
  229.5000   458.6380    25.0610     2.3070     4.0860    14.4760    11.4700    22.4940    -8.8470 
  229.6250   471.9420    25.0630     2.3410     3.9430    15.9060    16.6130    20.7050    -9.0450 
  229.7500   450.0000    25.1650     2.3740     3.9900    16.5410    17.2410    27.7560    -9.2620 
  229.8750   458.0000    25.1710     2.4150     3.9120    15.4130    17.3090    22.0590    -9.3200 
