~V
VERS. 2.00: Ver 2.00
~W
STRT.M 100.0000:
STOP.M 251.0000:
STEP.M 0.1250:
NULL. -999.2500:
UWI. Z007:
~C
DEPT.M :
AC.US/MT :
CALI.CM :
DEN.GM/CC :
GR.API :
RI. :
RML.OHMM :
RXO.OHMM :
SP.MV :
~A
# ...
  200.0000   396.9350    25.1280     2.1670     4.2450    63.1660    87.6940    97.0300   -24.5570 
  200.1250   397.9840    24.9180     2.1630     4.1390    59.6620    92.4700    53.6520   -24.6260 
  200.2500   398.7180    24.7860     2.1500     4.1890    48.7520   100.8130    39.1960   -24.4760 
  200.3750   399.6250    24.7050     2.1340     4.0520    46.7360    85.6770    44.9210   -24.3230 
  200.5000   400.0420    24.6480     2.1330     4.2640    45.9850    70.5420    37.0980   -24.1580 
  200.6250   400.5060    24.6490     2.1370     4.3350    45.9410    63.0930    37.4860   -24.1330 
  200.7500   400.5020    24.5860     2.1410     4.1750    47.7810    59.8940    43.8080   -24.1340 
  200.8750   400.1520    24.5730     2.1400     4.2470    48.8210    61.1390    52.7770   -24.2830 
  201.0000   399.4940    24.5240     2.1290     4.1830    49.9140    67.5640    61.3940   -24.7100 
  201.1250   399.2220    24.4950     2.1200     4.1190    50.2570    67.8220    65.7770   -25.5170 
  201.2500   399.8340    24.4610     2.1260     4.3700    49.8700    66.2290    46.4290   -26.3430 
  201.3750   402.3860    24.3990     2.1310     4.2460    47.4630    62.3480    44.7420   -27.0080 
  201.5000   405.6730    24.3990     2.1330     4.1440    47.1130    57.5230    45.3090   -27.4700 
  201.6250   410.5030    24.4160     2.1330     4.2050    47.2630    57.7590    44.9290   -27.6470 
  201.7500   416.8070    24.5180     2.1380     4.1920    47.1120    59.1750    50.4510   -27.7720 
  201.8750   423.8580    24.5750     2.1470     4.1860    46.5120    60.8110    53.3530   -27.8620 
  202.0000   429.7640    24.6520     2.1530     4.2180    48.1580    63.1020    58.9120   -28.0360 
  202.1250   434.4210    24.8040     2.1610     4.3520    48.6400    63.5590    56.8510   -28.0880 
  202.2500   434.6350    25.0130     2.1740     4.3840    48.6400    63.3360    57.2660   -28.2140 
  202.3750   433.6200    25.2220     2.1920     4.4310    48.6400    62.8920    58.4070   -28.5310 
  202.5000   396.2020    25.3740     2.2170     4.2590    48.8940    62.7280    72.4520   -28.9880 
  202.6250   395.7140    25.4630     2.2260     4.2240    49.1430    62.7290    76.0010   -29.5870 
  202.7500   406.2440    25.5660     2.1800     4.2350    50.1680    63.0300    73.3190   -30.5410 
  202.8750   427.1790    25.6630     2.1460     4.3710    49.9890    63.9220    70.6620   -30.4980 
  203.0000   436.5840    25.7520     2.1640     4.2960    49.1640    66.3790    70.8310   -30.2960 
  203.1250   447.1820    25.8090     2.1470     4.2010    48.0840    65.4860    73.3630   -29.6290 
  203.2500   467.0230    25.8900     2.1330     4.1970    49.1480    63.7890    71.9130   -29.0330 
  203.3750   428.3410    25.7980     2.1220     4.0820    49.4030    65.8060    66.6090   -28.1850 
  203.5000   415.8930    25.7280     2.1050     3.9900    50.0830    66.3190    70.2040   -26.9390 
  203.6250   413.3560    25.6980     2.1040     3.9810    57.3930    70.8480    72.9450   -25.5430 
  203.7500   411.0850    25.5930     2.1050     4.1020    62.6860    91.1830   132.4620   -25.0310 
  203.8750   407.9090    25.5420     2.1160     4.1420    68.9630    92.1410   119.7380   -24.5880 
  204.0000   400.0480    25.5760     2.1260     4.2600    68.7910   104.5750   125.0010   -24.3040 
  204.1250   394.2660    25.6250     2.1350     4.3840    63.7880   114.0390   116.2450   -24.1000 
  204.2500   392.9720    25.6870     2.1410     4.3430    56.4850   110.4260    83.0650   -23.9120 
  204.3750   396.6730    25.8530     2.1450     4.2870    50.6480    94.2780    49.8860   -23.7240 
  204.5000   401.0000    25.8800     2.1460     4.2450    43.6340    67.6030    69.3260   -23.4830 
  204.6250   404.1320    25.8420     2.1320     4.1720    45.7730    55.4340   100.1020   -22.7710 
  204.7500   405.7260    25.7940     2.1210     3.9840    52.2890    60.4740   130.8770   -21.4550 
  204.8750   407.2270    25.8580     2.1220     4.0700    64.9350    78.2620   124.1270   -20.1900 
  205.0000   408.1460    25.7380     2.1240     4.1950    65.4440    95.6870   116.0880   -19.3460 
  205.1250   408.9760    25.7280     2.1260     4.1090    65.9060    96.9420   105.9380   -18.3800 
  205.2500   408.6080    25.6650     2.1250     4.1150    67.6930    96.4500    92.0150   -17.2890 
  205.3750   407.5730    25.6200     2.1220     4.1220    67.7360    99.9600   108.7240   -16.4940 
  205.5000   403.9570    25.6700     2.1530     4.1160    66.4960   101.1620   121.4500   -15.2720 
  205.6250   400.7840    25.6710     2.1690     4.1380    64.4330   102.9570    92.3730   -14.7880 
  205.7500   398.8970    25.7530     2.1810     4.2180    61.2360    95.4870    92.0310   -14.5450 
  205.8750   398.4420    25.8570     2.1800     4.1700    62.4010    86.8140    95.8550   -14.4150 
  206.0000   399.0730    25.9190     2.1690     3.9900    64.6790    82.7750    90.0610   -13.9470 
  206.1250   399.7360    26.0090     2.1510     4.0290    63.1510    88.1700    86.0940   -13.0550 
  206.2500   400.3330    26.0500     2.1290     4.0410    69.8910    86.3320    87.8620   -12.0470 
  206.3750   400.3980    26.0510     2.1250     4.3090    79.2750    85.9930   107.5600   -11.3350 
  206.5000   397.2620    26.0650     2.1370     4.1830    82.2240    92.0910   137.5810   -10.7440 
  206.6250   392.1250    26.0160     2.1520     4.2790    84.7950    99.9350   144.6730   -10.3000 
  206.7500   376.0960    25.9530     2.1990     4.3750    83.5450   127.2020   146.9220    -9.7770 
  206.8750   380.2050    25.8630     2.2240     4.2440    81.6340   130.2680   141.9590    -9.3800 
  207.0000   431.6620    25.7290     2.2350     4.2690    78.3650   132.0700   131.0170    -9.6210 
  207.1250   486.9670    25.5870     2.2220     4.3630    57.7930   126.2550   104.3850    -9.7520 
  207.2500   503.8840    25.4690     2.2160     4.2230    55.7660    98.6870    84.3280   -10.0020 
  207.3750   511.8250    25.3600     2.2190     4.2300    55.2560    80.3170    88.3780   -10.2790 
  207.5000   486.4990    25.2510     2.2050     4.2550    53.8720    64.4080    80.4760   -10.4570 
  207.6250   522.6210    25.1960     2.1990     4.1680    48.5000    64.0720    88.7240   -10.4580 
  207.7500   532.8510    25.0600     2.2050     4.2320    50.5480    54.7460    63.6400   -10.3940 
  207.8750   544.8290    24.8770     2.2150     4.3330    57.0330    50.5240    63.4650   -10.1370 
  208.0000   489.8560    24.5170     2.2190     4.4330    71.1020    67.8440   125.6170    -9.9880 
  208.1250   440.8420    24.6690     2.2170     4.1240    69.0200    85.8240   280.0000    -9.7840 
  208.2500   394.7670    24.8270     2.2700     4.2320    57.4530    97.0000   192.3510    -9.7070 
  208.3750   349.4610    24.9220     2.3890     3.8390    54.2790    66.6180    75.6160    -9.6910 
  208.5000   288.7280    25.0080     2.5440     3.7250    74.8930    64.5550    86.7750    -9.7680 
  208.6250   227.9950    25.1330     2.6330     3.9060    86.6570    74.9370   137.8000    -9.7520 
  208.7500   262.6750    25.1750     2.6760     4.0720    92.1380   100.2660   155.7050   -10.5300 
  208.8750   311.0320    25.1900     2.6900     4.1420    80.9950   126.4430   260.6140   -10.8450 
  209.0000   359.3890    25.3380     2.6300     4.1870    50.1480   151.8260   250.5510   -10.5620 
  209.1250   387.0160    25.2990     2.4400     4.2520    29.0370    97.1390   290.1700   -10.2800 
  209.2500   393.2990    25.1740     2.3600     4.1330    14.3040    64.2210   207.7670    -9.9970 
  209.3750   392.4540    24.9940     2.3580     4.3630     6.1110    22.1800    15.6140    -9.5560 
  209.5000   384.2540    24.8860     2.3680     4.4990     5.4800     7.3950     3.8350    -9.2410 
  209.6250   374.8710    25.0410     2.3800     4.5280     5.3470     5.2230     4.0460    -8.9110 
  209.7500   377.4570    25.2740     2.3610     4.7080     5.0930     4.7740     6.3930    -8.6370 
  209.8750   384.0890    25.1960     2.3500     4.8410     5.0930     5.0310     8.9510    -8.4940 
