~V
VERS. 2.00: Ver 2.00
~W
STRT.M 100.0000:
STOP.M 251.0000:
STEP.M 0.1250:
NULL. -999.2500:
UWI. Z007:
~C
DEPT.M :
AC.US/MT :
CALI.CM :
DEN.GM/CC :
GR.API :
RI. :
RML.OHMM :
RXO.OHMM :
SP.MV :
~A
# ...
  240.0000   274.4570    25.2360     2.4900     4.0670     9.2880     9.2870    19.7820    -6.9830 
  240.1250   278.3020    25.1850     2.4910     4.2820     8.1610     8.9690    12.8000    -6.7130 
  240.2500   279.1020    25.1330     2.4840     4.3140     7.1260     8.6510    10.3900    -6.4440 
  240.3750   278.1070    25.0820     2.4700     4.2030     7.1260     8.2050    11.8150    -6.1740 
  240.5000   274.1940    25.0740     2.4570     4.0870     7.1260     7.6540    14.7390    -5.9190 
  240.6250   270.5980    25.0750     2.4440     4.0630     7.1260     7.6080    14.9220    -5.4890 
  240.7500   269.6030    25.1050     2.4330     4.1020     7.0950     7.6090    12.3560    -5.1880 
  240.8750   271.5820    25.1420     2.4250     4.4120     6.8850     7.6100     9.6230    -4.7540 
  241.0000   273.0090    25.1790     2.4190     4.4720     6.8710     7.5720    10.3760    -3.5570 
  241.1250   274.6550    25.2420     2.4190     4.4480     6.8710     7.4460    10.3450    -2.8880 
  241.2500   275.2930    25.2650     2.4280     4.4130     6.8710     7.3580    13.1070    -2.0170 
  241.3750   277.9100    25.2650     2.4610     4.4460     6.8710     7.5170    14.5800    -1.2270 
  241.5000   284.8460    25.2730     2.4770     4.3220     6.9050     7.6160    14.5740    -0.3230 
  241.6250   313.0190    25.3250     2.4700     4.2700     7.1260     7.6170    10.5860    -0.2470 
  241.7500   322.2590    25.3780     2.4580     4.3660     7.3800     7.8360     8.3060    -0.3290 
  241.8750   339.0330    25.3930     2.4470     4.3260     7.3800     8.2830     7.8270    -0.4040 
  242.0000   347.9840    25.4590     2.4360     4.4510     7.3800     8.5600     8.3920    -0.4420 
  242.1250   345.9240    25.4870     2.4480     4.3270     6.9530     8.8640     8.7210    -0.4540 
  242.2500   339.3540    25.5160     2.4600     4.2500     6.9130     8.3090     8.2640    -0.4530 
  242.3750   340.6750    25.5200     2.4690     4.3090     7.2920     7.9910     7.6360    -0.4520 
  242.5000   350.7770    25.4800     2.4730     4.2100     7.1260     7.4640     7.1960    -0.3880 
  242.6250   363.9800    25.3950     2.4760     4.0990     6.6170     6.8260     7.2500    -0.2850 
  242.7500   350.8630    25.3950     2.4820     4.1460     6.3400     6.3460     7.1980    -0.1810 
  242.8750   345.8210    25.3950     2.4840     4.2900     5.9650     5.8340     7.1990    -0.0270 
  243.0000   341.5540    25.3330     2.4790     4.3610     5.6080     5.9880     7.2000    -0.0030 
  243.1250   331.0880    25.3600     2.4580     4.4910     6.1080     6.8810     7.2010    -0.2560 
  243.2500   313.8600    25.3950     2.4470     4.5760     6.3600     7.2320     7.1480    -0.3380 
  243.3750   304.3650    25.3700     2.4470     4.4900     6.1080     6.5800     7.1640    -0.4460 
  243.5000   327.1020    25.3360     2.4520     4.4760     6.1080     6.3520     7.4590    -0.5090 
  243.6250   382.7710    25.3760     2.4720     4.5530     6.1080     6.3540     7.4600    -0.5080 
  243.7500   395.8110    25.3350     2.4960     4.5190     6.5240     6.3550     7.5890    -0.2010 
  243.8750   378.3610    25.3850     2.5250     4.5860     6.9850     6.6140     7.5900     0.2550 
  244.0000   358.1850    25.3410     2.5280     4.5150     7.6200     7.2510     7.5140     0.7030 
  244.1250   323.5070    25.4280     2.5240     4.5460     8.4400     8.1450    40.1640     0.9190 
  244.2500   290.0000    25.5250     2.5110     4.6090     8.8900     8.5960    98.9130     1.1470 
  244.3750   303.4650    25.6340     2.4850     4.5040     9.3190     9.1640   119.0000     1.3410 
  244.5000   324.5440    25.6310     2.4590     4.5420     9.4160     9.4370    64.1210     1.0310 
  244.6250   366.7200    25.5190     2.4410     4.4300     9.6700    10.1830    19.9390     0.7130 
  244.7500   379.5260    25.3140     2.4260     4.4840     9.6700    10.7210    20.8400     0.4980 
  244.8750   384.4690    25.1090     2.4380     4.5310     9.6700    10.7220    25.5440     0.3130 
  245.0000   369.2270    25.0240     2.4660     4.5390     9.9250    10.7230    15.0550     0.1760 
  245.1250   304.0230    25.1590     2.4880     4.6160    10.1790    10.9810    10.3960    -0.1470 
  245.2500   270.1400    25.3020     2.4750     4.5760    10.1790    10.6380    14.4670    -0.4830 
  245.3750   270.1370    25.3390     2.4600     4.3760     9.5930     9.5690    15.4680    -0.5070 
  245.5000   270.9330    25.4380     2.4500     4.4150     8.9070     8.9340    15.8200    -0.5360 
  245.6250   273.4070    25.5810     2.4270     4.5320     9.1610     8.6780    16.9230    -0.5650 
  245.7500   275.8610    25.6400     2.4210     4.4380     9.3510     8.6800    17.2860    -0.5940 
  245.8750   278.3560    25.7450     2.4230     4.4550     9.3960     8.9370    15.2470    -0.6240 
  246.0000   278.3440    25.8370     2.4310     4.3160     9.1860     9.1940    16.1300    -0.6720 
  246.1250   276.9850    25.9080     2.4400     4.2580     8.9750     9.2540    18.6560     0.0000 
  246.2500   282.4580    25.6140     2.4390     4.4980     8.9060     9.0350    15.6900     0.0000 
  246.3750   291.0330    25.2650     2.4180     4.5970     8.9060     8.6850    15.4330     0.0000 
  246.5000   298.7100    24.9930     2.3940     4.5330     8.9060     9.1990    17.7820     0.0000 
  246.6250   306.1490    25.0280     2.3730     4.6980     8.9690    10.0800    20.5660     0.0000 
  246.7500   309.1900    25.0290     2.3660     4.7540    10.0840    11.0460    12.8630     0.0000 
  246.8750   305.3580    25.0290     2.3610     4.8020     9.8960    13.6420    13.2210     0.0000 
  247.0000   311.4850    25.0810     2.3430     4.8920     8.8700     9.9260    10.1740     0.0000 
  247.1250   313.2450    25.1190     2.3140     4.8000     8.1320     8.3480     9.2240     0.0000 
  247.2500   332.3520    25.1540     2.2760     4.7980     7.8880     8.2860     9.7450     0.0000 
  247.3750   304.6700    25.1140     2.2340     4.8860     7.8880     7.9680     8.0610     0.0000 
  247.5000   296.9810    25.0940     2.2250     4.7690     7.8880     7.9260     8.8950     0.0000 
  247.6250   295.3780    25.0990     2.1980     4.8520     7.6340     7.7620     7.8380     0.0000 
  247.7500   296.0070    25.1440     2.1690     4.7400     7.2670     7.6720     8.0060     0.0000 
  247.8750   296.2490    25.0990     2.1610     4.5460     6.8710     7.6730     7.6140     0.0000 
  248.0000   296.9370    25.1440     2.1530     4.7370     6.6660     7.6460     7.4980     0.0000 
  248.1250   297.7290     0.0000     2.1480     4.7620     6.8700     7.4190     7.7090     0.0000 
  248.2500   298.5560     0.0000     2.1450     4.6960     6.8700     7.5600     7.7550     0.0000 
  248.3750   298.8640     0.0000     2.1460     4.7400     7.3440     7.8250     7.8380     0.0000 
  248.5000   299.1500     0.0000     2.1510     4.6740     7.5510     8.1920     7.8850     0.0000 
  248.6250   299.1470     0.0000     2.1600     4.7400     7.6340     8.5880     7.9450     0.0000 
  248.7500   299.6060     0.0000     2.1540     4.7110     7.6340     8.8800     8.0150     0.0000 
  248.8750   299.7740     0.0000     2.1480     4.6580     7.8380     9.2210     8.0160     0.0000 
  249.0000   299.7710     0.0000     2.1460     4.7320     7.6340     9.2220     8.0170     0.0000 
  249.1250   298.9120     0.0000     2.1450     4.6270     7.6340     9.2230     8.0650     0.0000 
  249.2500   298.3440     0.0000     2.1450     4.7590     7.6340     9.2240     8.1190     0.0000 
  249.3750   297.8200     0.0000     2.1460     4.6690     7.6340     9.2250     8.1730     0.0000 
  249.5000   297.5350     0.0000     2.1470     4.5010     7.6340     9.2260     8.2260     0.0000 
  249.6250   297.2490     0.0000     2.1480     4.5860     7.6340     9.2270     8.2790     0.0000 
  249.7500   296.5860     0.0000     2.1490     4.3800     7.6340     9.2290     8.3250     0.0000 
  249.8750   295.8590     0.0000     2.1500     4.5860     7.6340     9.1080     8.3710     0.0000 
