~V
VERS. 2.00: Ver 2.00
~W
STRT.M 20.0000:
STOP.M 315.0000:
STEP.M 0.1250:
NULL. -999.2500:
UWI. Z112:
~C
DEPT.M :
AC.US/MT :
CALI.CM :
GR.API :
RI. :
RML.OHMM :
RXO.OHMM :
SP.MV :
~A
# ...
  278.7500   355.7620    21.6770     8.2310     8.0220     8.5840     7.5700   -16.7460 
  278.8750   360.6900    21.9990     8.3090     7.6530     7.8070     6.3100   -17.1900 
  279.0000   365.5390    21.9400     8.2460     6.9630     7.4530     6.1920   -17.5410 
  279.1250   356.8730    21.7230     8.4080     7.8040     7.8530     8.0380   -17.6000 
  279.2500   346.9170    21.6060     8.2260     9.3870     8.7080    10.4820   -17.1730 
  279.3750   346.1810    21.6900     8.2780    10.8410     9.6430    12.2260   -16.7300 
  279.5000   335.6390    22.0190     8.1910    10.1300    10.7220    11.1120   -16.2990 
  279.6250   332.5050    22.3710     8.0120     9.5190    11.9080    11.9300   -16.3110 
  279.7500   332.9330    22.1890     8.2930    10.2930    11.7580    12.9390   -16.5700 
  279.8750   334.8870    21.9970     8.1550    11.1310    11.3770    12.9570   -16.8300 
  280.0000   338.0590    21.8050     8.0700    10.2480    11.2030    10.1680   -16.9500 
  280.1250   342.9880    21.6820     8.0930     8.7400    10.4800    11.1810   -16.8840 
  280.2500   347.4540    21.5830     8.3770    10.2480     9.7050     8.3940   -16.6080 
  280.3750   351.3060    21.6100     8.3530     8.7400     8.7920     7.9740   -16.1530 
  280.5000   354.5950    21.7300     8.2250     7.8640     9.2590     9.0150   -16.0200 
  280.6250   356.5840    22.0160     8.3190     7.9260     9.9940    10.7180   -16.0390 
  280.7500   355.0430    22.3410     8.1650     8.1390    10.9190    11.6320   -16.0940 
  280.8750   345.2520    22.2530     8.1500     9.1420    10.3370     7.7710   -16.1730 
  281.0000   334.8380    22.0570     7.9400     9.4840     9.2390     6.3340   -16.2550 
  281.1250   326.2100    21.9320     8.0220     8.5930     8.5180    11.0410   -16.3400 
  281.2500   322.1460    21.8710     8.1840     8.8220     9.1970    16.1180   -16.4400 
  281.3750   321.1880    22.0710     8.2950    10.0680    10.5010    14.3840   -16.5360 
  281.5000   321.0570    22.4570     8.2520    12.4110    11.7110    14.3540   -16.6170 
  281.6250   320.7000    22.8600     8.4970    13.8490    12.8840    14.8510   -16.7950 
  281.7500   322.5100    22.9000     8.2640    13.4900    13.7860    14.5510   -16.8480 
  281.8750   325.1410    22.6650     8.2870    12.9180    13.6990    15.8330   -16.8640 
  282.0000   328.4810    22.4260     8.1050    12.4470    13.4780    13.6990   -16.8630 
  282.1250   331.4290    22.1750     8.2330    12.6590    13.1580    11.2750   -16.5870 
  282.2500   324.4380    21.9200     8.2720    12.7860    12.1190    13.0860   -16.3570 
  282.3750   320.5600    21.8240     8.1670    11.6800    10.7480    11.2480   -16.1910 
  282.5000   318.5920    22.0390     8.3280    10.7800    10.9600    12.8730   -16.1080 
  282.6250   317.5890    22.3840     8.2300    10.4030    11.6380    13.2020   -16.0560 
  282.7500   318.1990    22.7280     8.2890    10.6530    12.3690    12.6590   -16.0420 
  282.8750   320.1060    23.0510     8.1880    11.2130    13.0160    14.4840   -16.1670 
  283.0000   323.8040    23.0060     8.2220    11.8060    13.0540    14.2300   -16.2340 
  283.1250   327.7680    22.7640     8.2320    12.4280    12.3460    12.7850   -16.2630 
  283.2500   331.7980    22.5090     7.9920    12.8000    12.0020    12.0270   -16.2680 
  283.3750   338.2520    22.2560     7.9290    12.5750    11.8350    14.3110   -16.1590 
  283.5000   345.1140    22.3700     7.9580    12.0800    12.0790    16.7820   -15.9270 
  283.6250   349.9000    22.7420     8.0550    12.2120    13.0580    14.1340   -15.7120 
  283.7500   353.9670    22.8180     8.0170    12.9340    14.7190    12.4170   -15.6810 
  283.8750   351.5610    22.4980     7.9650    13.8740    13.6770    11.8870   -15.7600 
  284.0000   344.6390    22.2580     7.9960    13.7690    12.7720    13.9820   -15.8670 
  284.1250   337.2890    22.4840     7.9990    12.3000    12.7380    13.9890   -15.9790 
  284.2500   332.9190    22.7340     8.0480    11.4630    13.2480    13.2470   -16.0730 
  284.3750   333.4380    22.9660     8.1510    12.3870    13.7580    12.4880   -16.1560 
  284.5000   334.9780    22.9950     7.9110    13.3630    13.3630    11.6690   -16.2220 
  284.6250   336.6230    22.8100     7.8830    13.3190    12.9230    14.7530   -16.2230 
  284.7500   339.3970    22.5690     7.9660    12.5810    12.6810    14.9680   -16.2230 
  284.8750   341.4460    22.3870     7.8820    12.0250    13.2590    14.1810   -16.2040 
  285.0000   333.0270    22.2390     7.6600    12.6420    14.0150    16.0750   -16.1830 
  285.1250   324.3370    22.2380     7.6700    13.6760    14.8740    15.5790   -16.0890 
  285.2500   317.9020    22.2370     7.6390    14.6920    15.6840    18.1130   -15.9340 
  285.3750   317.2730    22.2990     7.5950    14.8600    15.6900    17.0010   -15.7030 
  285.5000   317.9180    22.5090     7.6510    14.4700    15.5900    13.8280   -15.4240 
  285.6250   320.4870    22.6630     7.7860    14.3050    15.4430    10.6830   -15.2380 
  285.7500   323.1100    22.7330     7.8740    13.5890    15.2160    11.8780   -15.0520 
  285.8750   326.1920    22.6350     7.7880    12.7470    14.5990    12.2700   -14.8840 
  286.0000   328.8570    22.4870     7.9060    12.0810    13.3210    13.7450   -14.7290 
  286.1250   321.0570    22.3310     8.0010    13.1820    12.8060    12.7340   -14.5770 
  286.2500   308.9940    22.2980     7.9660    13.2840    13.5610     7.8000   -14.4320 
  286.3750   296.8960    22.2640     8.1780    12.2930    13.7510    11.4940   -14.2870 
  286.5000   293.2070    22.2290     8.1160    11.5910    13.1150    17.4430   -14.2540 
  286.6250   299.4260    22.2570     8.1180    12.8020    12.7210    18.3310   -14.2310 
  286.7500   307.0970    22.4020     7.7770    14.3070    13.1800    14.7160   -14.2270 
  286.8750   320.7570    22.6590     7.7010    16.4110    15.2730    15.3940   -14.2270 
  287.0000   335.1840    22.8520     7.8070    16.7530    17.8140    12.9330   -14.2000 
  287.1250   346.2230    22.8330     7.7990    15.3210    17.1780    16.3120   -14.1600 
  287.2500   355.7260    22.6770     7.7790    13.8180    15.5360    21.5590   -14.0530 
  287.3750   360.8350    22.4910     7.9670    12.8310    13.6270     8.7590   -13.8820 
  287.5000   358.9410    22.3670     7.7690    12.4650    11.8100    12.7120   -13.8010 
  287.6250   354.4520    22.3660     7.7390    11.5180    10.7280    17.3090   -13.6850 
  287.7500   352.0090    22.5030     7.6600    10.4610    12.1350    16.5660   -13.4370 
  287.8750   352.5250    22.7160     7.5690    10.0310    14.0610    13.5220   -13.1270 
  288.0000   358.1360    22.9690     7.6060    11.7640    12.5210     7.5750   -12.8160 
  288.1250   369.1950    23.1510     7.7160    13.2370     9.7570     5.5900   -12.7800 
  288.2500   381.1320    23.3170     7.6510     8.2640     7.8800     7.2240   -13.0020 
  288.3750   390.6690    23.4970     7.6620     6.7190     6.8990     6.5790   -13.2370 
  288.5000   396.9270    23.3880     7.7340     6.7150     6.9870     5.4340   -13.4640 
  288.6250   403.4590    23.1140     7.8210     6.6800     6.9190     4.6140   -13.7510 
  288.7500   382.7780    22.8200     7.7800     6.5230     6.2030     5.1620   -14.1240 
  288.8750   386.2430    22.5460     8.1100     6.2130     5.8400     6.3570   -14.5380 
  289.0000   382.6900    22.4540     8.0130     5.5860     5.9300     6.7940   -14.9350 
  289.1250   374.8960    22.4370     8.1790     5.4480     6.2400     6.1320   -15.3220 
  289.2500   374.7200    22.4070     8.0530     5.7280     6.7720     7.1520   -15.6910 
  289.3750   374.5820    22.4010     7.9670     6.6110     7.5830     7.0510   -15.9330 
  289.5000   366.0850    22.4280     8.0090     6.8110     7.2310     6.7360   -16.0890 
  289.6250   351.3020    22.5050     7.8500     6.4040     6.9600     7.7400   -16.1790 
  289.7500   337.3530    22.6070     7.9130     6.4620     6.8030     8.2100   -16.1910 
  289.8750   321.0460    22.7440     8.1070     6.7520     7.4310    12.2450   -16.1910 
