~V
VERS. 2.00: Ver 2.00
~W
STRT.M 20.0000:
STOP.M 315.0000:
STEP.M 0.1250:
NULL. -999.2500:
UWI. Z112:
~C
DEPT.M :
AC.US/MT :
CALI.CM :
GR.API :
RI. :
RML.OHMM :
RXO.OHMM :
SP.MV :
~A
# ...
  188.7500   308.5390    21.3800     5.9420    10.4450    11.3940     9.5850    -8.4320 
  188.8750   305.4010    21.6120     5.9000     9.6520    10.4000     8.9450    -8.2300 
  189.0000   304.0890    21.9430     5.9660     8.9900    10.1700     8.3280    -8.0280 
  189.1250   304.3110    22.2280     5.8530     8.9740    10.3600     8.8630    -7.8210 
  189.2500   305.3370    21.8320     5.9910     9.4260    10.8670     9.4780    -7.6000 
  189.3750   306.0130    21.6390     5.7940    10.1400    11.5770     9.9490    -7.3780 
  189.5000   305.8520    21.7180     5.8550     9.7850    11.8200     9.1210    -7.3480 
  189.6250   304.4550    22.1420     5.9810     9.0770    11.0830     8.3020    -7.3280 
  189.7500   301.2930    22.6940     5.8970     8.5080    10.1280     7.8080    -7.4710 
  189.8750   297.8910    22.5950     6.0720     8.4830    10.0470     7.8060    -7.7520 
  190.0000   296.0010    22.1230     5.9530     9.1200    10.3620     8.6370    -7.9320 
  190.1250   294.1640    22.4520     5.9290     9.8130    11.0230     9.8850    -8.0430 
  190.2500   292.2030    22.3740     6.0280    10.0410    11.6490     8.8160    -8.0480 
  190.3750   291.7190    22.1320     6.1530     9.3830    11.7920     8.8190    -7.9820 
  190.5000   292.0300    21.9670     6.0010     9.2000    11.2250     9.7120    -7.9020 
  190.6250   290.5210    22.0100     6.0610     9.2790    10.5190     9.7100    -7.7110 
  190.7500   284.9570    22.2950     5.6920     9.8880    10.6080     9.5220    -7.5200 
  190.8750   282.1020    22.5560     5.7800    10.6770    11.2270     9.5290    -7.3130 
  191.0000   281.4670    22.7890     5.8850    10.3290    11.9110    10.0900    -7.1080 
  191.1250   281.7390    23.0390     5.8380     9.4780    11.8030     9.2230    -6.9270 
  191.2500   282.9080    23.1110     5.9130     9.4870    11.0690    10.3110    -6.7570 
  191.3750   282.0710    22.6780     6.0760    10.3800    10.9530     8.7450    -6.6490 
  191.5000   278.3020    22.7250     6.1020    11.6380    11.4240    10.5500    -6.5400 
  191.6250   277.6010    23.1200     5.8920    12.3890    12.2220    10.9850    -6.4320 
  191.7500   278.6620    23.2820     6.0380    11.0310    11.9720     8.7250    -6.4620 
  191.8750   280.8230    23.0740     6.2500     9.9620    11.1790    10.2500    -6.5040 
  192.0000   282.7910    22.6330     6.4530    10.6230    10.9970     9.2350    -6.5450 
  192.1250   281.9590    22.0750     6.3860    12.0830    12.1890     9.7760    -6.6120 
  192.2500   279.7090    22.0000     6.5550    14.6220    14.2590    13.1250    -6.7690 
  192.3750   278.0810    22.1080     6.5970    16.0370    17.6780    17.9740    -6.9250 
  192.5000   278.8470    22.4180     6.7100    14.8080    17.2330    17.4720    -7.0830 
  192.6250   282.6110    22.7680     6.8230    13.2020    15.7980    10.9330    -7.3730 
  192.7500   286.9830    23.2340     6.7640    12.8220    14.3400    12.2970    -7.6630 
  192.8750   291.1050    23.5460     6.8290    13.3930    13.6270    12.8820    -7.8780 
  193.0000   295.4300    22.5300     6.7470    15.0450    14.5110    13.4630    -8.0710 
  193.1250   294.1900    22.1140     6.8150    16.6630    16.3360    17.6620    -8.1780 
  193.2500   292.3050    22.0120     6.8880    18.9100    19.7450    20.5100    -8.2450 
  193.3750   292.9530    22.2320     6.6400    19.2710    20.6250    18.9250    -8.2840 
  193.5000   296.7260    22.5010     6.6310    17.7090    19.1450    17.9240    -8.2840 
  193.6250   303.3160    22.3000     6.7420    16.4800    17.8870    21.1980    -8.2840 
  193.7500   310.3400    22.1820     6.8770    16.6650    17.3770    13.6260    -8.1450 
  193.8750   321.8440    22.4650     7.0360    17.2520    18.3780    15.7260    -7.9450 
  194.0000   331.8150    22.3710     7.1780    18.2970    20.3390    18.6930    -7.7440 
  194.1250   335.3350    22.0580     6.9190    20.5850    21.4990    19.7070    -7.6300 
  194.2500   338.4190    21.8720     6.9390    22.0220    21.2450    19.4560    -7.5210 
  194.3750   340.0860    21.8400     6.7520    21.7100    20.9790    18.1960    -7.4630 
  194.5000   339.3820    21.8550     6.7840    20.8780    21.0920    18.4610    -7.5880 
  194.6250   336.0920    21.9870     6.9440    21.6870    22.3780    19.6240    -7.7130 
  194.7500   329.0300    22.2270     6.8130    26.1210    24.9450    19.4720    -7.8950 
  194.8750   322.1340    22.1510     6.9950    26.4840    27.7090    23.9690    -8.0900 
  195.0000   318.1650    21.9580     7.2310    25.0310    27.5890    25.8360    -8.2510 
  195.1250   315.9830    21.7640     7.2600    24.5850    25.7670    24.5760    -8.3000 
  195.2500   315.3480    21.7290     7.0960    24.5030    23.6710    38.0000    -8.3500 
  195.3750   314.9160    21.8180     6.8060    20.2200    21.4030    25.2340    -8.3790 
  195.5000   315.4540    22.1270     6.9340    21.1760    20.6230    17.9900    -8.3150 
  195.6250   313.8020    22.3990     6.6460    22.4220    21.6200    18.6210    -8.2500 
  195.7500   300.6520    22.4570     6.6740    23.2020    22.9570    20.1910    -8.1860 
  195.8750   273.5460    22.2340     6.7000    21.8190    24.7000    21.9840    -8.0900 
  196.0000   256.6190    21.9850     6.5960    20.6950    22.5950    21.9420    -7.9270 
  196.1250   251.7450    21.8870     6.3920    21.3370    21.6500    17.6280    -7.7640 
  196.2500   249.3450    21.9480     6.1310    22.6610    23.8270    18.1510    -7.5750 
  196.3750   249.4550    22.1440     6.1430    23.9850    26.0050    21.3520    -7.3120 
  196.5000   252.1390    22.3540     6.1600    25.7070    28.8800    20.1240    -7.0420 
  196.6250   257.7850    22.2640     5.9100    24.1400    28.7780    27.8130    -6.7400 
  196.7500   271.5700    21.9950     5.9250    17.6040    25.7760    33.0000    -6.6740 
  196.8750   316.1780    21.7670     5.7720    14.3960    20.8930    26.3830    -6.6080 
  197.0000   391.4060    21.7080     5.7560    11.0680    11.5890    27.4640    -6.5770 
  197.1250   410.9180    21.9020     5.5400     8.0050     6.7990    15.8350    -6.5570 
  197.2500   419.7170    22.1390     5.1670     6.0660     5.4890     9.9910    -6.5830 
  197.3750   420.1610    22.2020     5.0500     5.5430     4.9530     3.9770    -6.6870 
  197.5000   418.6010    21.8910     5.0700     5.3790     5.0290     2.2130    -6.7910 
  197.6250   412.0350    21.6620     4.8600     5.2150     5.1050     2.5010    -6.8740 
  197.7500   405.0340    21.4910     4.8180     5.0750     5.2840     2.7890    -6.9340 
  197.8750   400.9330    21.4510     4.5530     5.3230     5.5090     3.3060    -6.9940 
  198.0000   397.5320    21.6760     4.4580     5.7800     5.8770     3.8360    -7.0480 
  198.1250   394.5640    21.9610     4.3480     6.4630     6.2580     2.9780    -7.0480 
  198.2500   392.4330    22.2180     4.2200     6.3820     6.4130     2.4940    -7.0490 
  198.3750   391.5920    22.3410     4.0160     5.0690     5.7160     2.7720    -7.0490 
  198.5000   391.8390    22.3160     3.9230     5.1100     5.6240     3.4390    -7.0250 
  198.6250   393.2800    22.2360     3.9500     5.4270     5.5320     4.1910    -6.9970 
  198.7500   395.7490    21.8870     4.0140     5.4370     5.9520     4.4460    -6.9690 
  198.8750   399.1910    21.6690     3.9200     4.8710     6.3490     3.7360    -6.9170 
  199.0000   399.4430    21.4850     3.9910     4.5580     6.4430     3.7820    -6.8190 
  199.1250   397.7010    21.4270     4.0080     4.6610     6.3730     4.1960    -6.7200 
  199.2500   397.9860    21.3980     3.9320     4.8040     5.7860     3.8010    -6.6220 
  199.3750   400.7140    21.4280     3.9830     5.1490     5.2620     3.3200    -6.4470 
  199.5000   404.2380    21.5830     4.0390     5.5020     5.0490     3.3970    -6.2530 
  199.6250   404.9530    21.7650     3.9990     5.3960     4.9840     3.4430    -6.0520 
  199.7500   405.3420    22.0270     3.9650     4.9790     5.3780     3.4130    -5.8240 
  199.8750   404.1100    22.2340     3.9560     4.9900     5.8350     3.2540    -5.5960 
