~V
VERS. 2.00: Ver 2.00
~W
STRT.M 20.0000:
STOP.M 315.0000:
STEP.M 0.1250:
NULL. -999.2500:
UWI. Z112:
~C
DEPT.M :
AC.US/MT :
CALI.CM :
GR.API :
RI. :
RML.OHMM :
RXO.OHMM :
SP.MV :
~A
# ...
  132.5000     0.0000     0.0000     0.0000     0.0000     0.0000     0.0000     0.0000 
  132.6250     0.0000     0.0000     0.0000     0.0000     0.0000     0.0000     0.0000 
  132.7500     0.0000     0.0000     0.0000     0.0000     0.0000     0.0000     0.0000 
  132.8750     0.0000     0.0000     0.0000     0.0000     0.0000     0.0000     0.0000 
  133.0000     0.0000     0.0000     0.0000     0.0000     0.0000     0.0000     0.0000 
  133.1250     0.0000     0.0000     0.0000     0.0000     0.0000     0.0000     0.0000 
  133.2500     0.0000     0.0000     0.0000     0.0000     0.0000     0.0000     0.0000 
  133.3750     0.0000     0.0000     0.0000     0.0000     0.0000     0.0000     0.0000 
  133.5000     0.0000     0.0000     0.0000     0.0000     0.0000     0.0000     0.0000 
  133.6250     0.0000     0.0000     0.0000     0.0000     0.0000     0.0000     0.0000 
  133.7500     0.0000     0.0000     0.0000     0.0000     0.0000     0.0000     0.0000 
  133.8750     0.0000     0.0000     0.0000     0.0000     0.0000     0.0000     0.0000 
  134.0000     0.0000     0.0000     0.0000     0.0000     0.0000     0.0000     0.0000 
  134.1250     0.0000     0.0000     0.0000     0.0000     0.0000     0.0000     0.0000 
  134.2500     0.0000     0.0000     0.0000     0.0000     0.0000     0.0000     0.0000 
  134.3750     0.0000     0.0000     0.0000     0.0000     0.0000     0.0000     0.0000 
  134.5000     0.0000     0.0000     0.0000     0.0000     0.0000     0.0000     0.0000 
  134.6250     0.0000     0.0000     0.0000     0.0000     0.0000     0.0000     0.0000 
  134.7500     0.0000     0.0000     0.0000     0.0000     0.0000     0.0000     0.0000 
  134.8750     0.0000     0.0000     0.0000     0.0000     0.0000     0.0000     0.0000 
  135.0000     0.0000     0.0000     0.0000     0.0000     0.0000     0.0000     0.0000 
  135.1250     0.0000     0.0000     0.0000     0.0000     0.0000     0.0000     0.0000 
  135.2500     0.0000     0.0000     0.0000     0.0000     0.0000     0.0000     0.0000 
  135.3750     0.0000     0.0000     0.0000     0.0000     0.0000     0.0000     0.0000 
  135.5000     0.0000     0.0000     0.0000     0.0000     0.0000     0.0000     0.0000 
  135.6250     0.0000     0.0000     0.0000     0.0000     0.0000     0.0000     0.0000 
  135.7500     0.0000     0.0000     0.0000     0.0000     0.0000     0.0000     0.0000 
  135.8750     0.0000     0.0000     0.0000     0.0000     0.0000     0.0000     0.0000 
  136.0000     0.0000     0.0000     0.0000     0.0000     0.0000     0.0000     0.0000 
  136.1250     0.0000     0.0000     0.0000     0.0000     0.0000     0.0000     0.0000 
  136.2500     0.0000     0.0000     0.0000     0.0000     0.0000     0.0000     0.0000 
  136.3750     0.0000     0.0000     0.0000     0.0000     0.0000     0.0000     0.0000 
  136.5000     0.0000     0.0000     0.0000     0.0000     0.0000     0.0000     0.0000 
  136.6250     0.0000     0.0000     0.0000     0.0000     0.0000     0.0000     0.0000 
  136.7500     0.0000     0.0000     0.0000     0.0000     0.0000     0.0000     0.0000 
  136.8750     0.0000     0.0000     0.0000     0.0000     0.0000     0.0000     0.0000 
  137.0000     0.0000     0.0000     0.0000     0.0000     0.0000     0.0000     0.0000 
  137.1250     0.0000     0.0000     0.0000     0.0000     0.0000     0.0000     0.0000 
  137.2500     0.0000     0.0000     0.0000     0.0000     0.0000     0.0000     0.0000 
  137.3750     0.0000     0.0000     0.0000     0.0000     0.0000     0.0000     0.0000 
  137.5000     0.0000     0.0000     0.0000     0.0000     0.0000     0.0000     0.0000 
  137.6250     0.0000     0.0000     0.0000     0.0000     0.0000     0.0000     0.0000 
  137.7500     0.0000     0.0000     0.0000     0.0000     0.0000     0.0000     0.0000 
  137.8750     0.0000     0.0000     0.0000     0.0000     0.0000     0.0000     0.0000 
  138.0000     0.0000     0.0000     0.0000     0.0000     0.0000     0.0000     0.0000 
  138.1250     0.0000     0.0000     0.0000     0.0000     0.0000     0.0000     0.0000 
  138.2500     0.0000     0.0000     0.0000     0.0000     0.0000     0.0000     0.0000 
  138.3750     0.0000     0.0000     0.0000     0.0000     0.0000     0.0000     0.0000 
  138.5000     0.0000     0.0000     0.0000     0.0000     0.0000     0.0000     0.0000 
  138.6250     0.0000     0.0000     0.0000     0.0000     0.0000     0.0000     0.0000 
  138.7500     0.0000     0.0000     0.0000     0.0000     0.0000     0.0000     0.0000 
  138.8750     0.0000     0.0000     0.0000     0.0000     0.0000     0.0000     0.0000 
  139.0000     0.0000     0.0000     0.0000     0.0000     0.0000     0.0000     0.0000 
  139.1250     0.0000     0.0000     0.0000     0.0000     0.0000     0.0000     0.0000 
  139.2500     0.0000     0.0000     0.0000     0.0000     0.0000     0.0000     0.0000 
  139.3750     0.0000     0.0000     0.0000     0.0000     0.0000     0.0000     0.0000 
  139.5000     0.0000     0.0000     0.0000     0.0000     0.0000     0.0000     0.0000 
  139.6250     0.0000     0.0000     0.0000     0.0000     0.0000     0.0000     0.0000 
  139.7500     0.0000     0.0000     0.0000     0.0000     0.0000     0.0000     0.0000 
  139.8750     0.0000     0.0000     0.0000     0.0000     0.0000     0.0000     0.0000 
  140.0000     0.0000     0.0000     0.0000     0.0000     0.0000     0.0000     0.0000 
  140.1250     0.0000     0.0000     0.0000     0.0000     0.0000     0.0000     0.0000 
  140.2500     0.0000     0.0000     0.0000     0.0000     0.0000     0.0000     0.0000 
  140.3750     0.0000     0.0000     0.0000     0.0000     0.0000     0.0000     0.0000 
  140.5000     0.0000     0.0000     0.0000     0.0000     0.0000     0.0000     0.0000 
  140.6250     0.0000     0.0000     0.0000     0.0000     0.0000     0.0000     0.0000 
  140.7500     0.0000     0.0000     0.0000     0.0000     0.0000     0.0000     0.0000 
  140.8750     0.0000     0.0000     0.0000     0.0000     0.0000     0.0000     0.0000 
  141.0000     0.0000     0.0000     0.0000     0.0000     0.0000     0.0000     0.0000 
  141.1250     0.0000     0.0000     0.0000     0.0000     0.0000     0.0000     0.0000 
  141.2500     0.0000     0.0000     0.0000     0.0000     0.0000     0.0000     0.0000 
  141.3750     0.0000     0.0000     0.0000     0.0000     0.0000     0.0000     0.0000 
  141.5000     0.0000     0.0000     0.0000     0.0000     0.0000     0.0000     0.0000 
  141.6250     0.0000     0.0000     0.0000     0.0000     0.0000     0.0000     0.0000 
  141.7500     0.0000     0.0000     0.0000     0.0000     0.0000     0.0000     0.0000 
  141.8750     0.0000     0.0000     0.0000     0.0000     0.0000     0.0000     0.0000 
  142.0000     0.0000     0.0000     0.0000     0.0000     0.0000     0.0000     0.0000 
  142.1250     0.0000     0.0000     0.0000     0.0000     0.0000     0.0000     0.0000 
  142.2500     0.0000     0.0000     0.0000     0.0000     0.0000     0.0000     0.0000 
  142.3750     0.0000     0.0000     0.0000     0.0000     0.0000     0.0000     0.0000 
  142.5000     0.0000     0.0000     0.0000     0.0000     0.0000     0.0000     0.0000 
  142.6250     0.0000     0.0000     0.0000     0.0000     0.0000     0.0000     0.0000 
  142.7500     0.0000     0.0000     0.0000     0.0000     0.0000     0.0000     0.0000 
  142.8750     0.0000     0.0000     0.0000     0.0000     0.0000     0.0000     0.0000 
  143.0000     0.0000     0.0000     0.0000     0.0000     0.0000     0.0000     0.0000 
  143.1250     0.0000     0.0000     0.0000     0.0000     0.0000     0.0000     0.0000 
  143.2500     0.0000     0.0000     0.0000     0.0000     0.0000     0.0000     0.0000 
  143.3750     0.0000     0.0000     0.0000     0.0000     0.0000     0.0000     0.0000 
  143.5000     0.0000     0.0000     0.0000     0.0000     0.0000     0.0000     0.0000 
  143.6250     0.0000     0.0000     0.0000     0.0000     0.0000     0.0000     0.0000 
