~V
VERS. 2.00: Ver 2.00
~W
STRT.M 20.0000:
STOP.M 315.0000:
STEP.M 0.1250:
NULL. -999.2500:
UWI. Z112:
~C
DEPT.M :
AC.US/MT :
CALI.CM :
GR.API :
RI. :
RML.OHMM :
RXO.OHMM :
SP.MV :
~A
# ...
  245.0000   379.1160    22.6530     6.2120    24.5190    28.2430    20.1900   -12.6570 
  245.1250   383.2830    23.0320     6.2240    23.1570    28.2410    24.2210   -12.5970 
  245.2500   385.9610    22.9000     5.9700    24.8300    29.2020    22.5210   -12.6420 
  245.3750   382.0760    22.8190     5.9450    27.6840    30.3090    23.8420   -12.8120 
  245.5000   379.5100    22.9830     6.0740    29.7970    32.0980    27.5110   -13.0450 
  245.6250   378.5410    23.3330     5.8740    29.4580    34.9520    26.2590   -13.3150 
  245.7500   378.5570    23.8620     5.9130    28.9790    39.1140    27.9390   -13.5950 
  245.8750   380.0980    24.2850     5.7830    30.1290    38.1980    29.5730   -13.9070 
  246.0000   381.6380    23.2550     5.3710    34.5530    39.8450    43.0160   -14.2190 
  246.1250   385.8770    22.5960     5.3620    61.5400    45.2070    58.4680   -14.5320 
  246.2500   390.7780    22.0760     5.4560    68.3320    71.3250    65.8410   -14.8440 
  246.3750   389.3830    22.1770     5.5050    77.0460    80.8500    58.6180   -15.0820 
  246.5000   389.9570    21.8110     5.4880    83.1900    91.5320    54.6100   -15.2900 
  246.6250   396.0620    21.6000     5.5360    90.6630   114.5720    53.7640   -15.4240 
  246.7500   403.5130    21.4080     5.4720    94.5490   119.0860    58.8520   -15.5380 
  246.8750   412.0410    21.3710     5.4350    94.8650   123.6720    66.1190   -15.6210 
  247.0000   412.4120    21.3700     5.4520   107.4470   124.3420    58.9640   -15.7050 
  247.1250   412.7570    21.4260     5.2480   110.5920   126.7160    55.8660   -15.7270 
  247.2500   413.4960    21.5680     5.3200   114.2730   125.3860    60.1780   -15.7090 
  247.3750   415.5020    21.7510     5.2250   117.0960   127.4730    64.3030   -15.6910 
  247.5000   421.9090    22.0330     5.1450   111.8680   133.5040    56.9990   -15.5540 
  247.6250   421.9510    22.3060     5.0120   108.3570   138.6180    52.2540   -15.3990 
  247.7500   417.3770    22.4650     5.0240   108.6100   152.3640    53.2630   -15.2440 
  247.8750   419.6830    21.9090     5.0300   115.8770   149.5680    55.7250   -15.0890 
  248.0000   424.9570    21.6700     5.3050   118.8110   146.1310    59.1730   -15.0020 
  248.1250   407.9870    21.8340     5.2850   118.5600   143.8150    67.8050   -15.0370 
  248.2500   398.3500    22.1430     4.9820   121.9230   148.9060    74.5320   -15.2940 
  248.3750   399.4080    22.4530     5.1800   123.1290   154.6100    76.7660   -15.5390 
  248.5000   416.1500    22.4710     5.1770   115.0240   160.1120    72.2360   -15.7470 
  248.6250   434.1630    22.2470     5.2600   112.1310   165.5050    64.0410   -15.9520 
  248.7500   442.2490    22.0060     5.1670   112.4930   166.6050    55.9300   -16.1090 
  248.8750   441.6600    21.9700     5.2060   111.7940   156.2910    58.8010   -16.2650 
  249.0000   439.3550    22.0820     5.3230   104.7740   151.9520    57.8950   -16.2960 
  249.1250   435.0360    22.4470     5.5000    97.6920   153.1150    62.8820   -16.2960 
  249.2500   430.9160    22.8300     5.6510    90.8120   148.6390    60.4970   -16.2010 
  249.3750   428.1940    23.2000     5.6050    83.2970   140.8200    49.1670   -15.9570 
  249.5000   428.8490    22.9340     5.4090    72.9760   104.5640    47.0360   -15.7040 
  249.6250   429.5030    22.4930     5.3830    85.4890    98.9160    48.7610   -15.3930 
  249.7500   431.9910    22.0870     5.5410    89.4700   101.1410    56.4310   -15.0830 
  249.8750   435.9980    21.8540     5.5680    80.2970   106.3520    55.6130   -14.8130 
  250.0000   442.6440    21.8450     5.5380    55.3080   115.4100    58.3850   -14.6720 
  250.1250   453.6220    21.9570     5.5490    51.9490   118.9930    46.2740   -14.5240 
  250.2500   468.7780    22.2930     5.5970    51.8310    65.6810    44.1540   -14.3690 
  250.3750   486.4700    22.1540     5.5850    49.7210    63.7230    50.6160   -14.2460 
  250.5000   480.7880    21.9670     5.8540    37.9280    61.1270    41.3810   -14.1510 
  250.6250   453.4250    21.8390     5.7580    37.7610    53.3000    32.8620   -14.0680 
  250.7500   443.2560    21.8380     5.1630    48.9240    48.3280    28.9580   -14.0020 
  250.8750   436.8120    21.9740     5.2190    64.5920    54.9460    54.9800   -13.9610 
  251.0000   461.0790    22.2340     5.3210    68.9270    66.8620    61.7760   -14.0280 
  251.1250   483.5670    22.5600     5.2000    71.3590    40.5780    60.7230   -14.0950 
  251.2500   455.4010    22.7850     5.0690    73.1730    90.0570    59.0990   -14.1770 
  251.3750   435.7090    22.4310     5.1420    75.8540    95.4540    60.7010   -14.2590 
  251.5000   412.0670    22.1140     5.1930    80.6850   102.2350    62.4830   -14.3420 
  251.6250   394.1340    21.9850     5.1280    89.8710   109.5910    72.2650   -14.3520 
  251.7500   392.5460    22.2270     5.2810   106.4020   119.7500   127.2010   -14.3520 
  251.8750   395.1100    22.5280     5.4540   104.6730   140.5760    85.3300   -14.3360 
  252.0000   398.4430    22.8740     5.3730   112.9870   156.4690    85.9700   -14.2230 
  252.1250   390.0200    22.6920     5.3940   154.9160   149.7360    89.5380   -14.0790 
  252.2500   393.0480    22.3500     5.4530   164.7030   154.8530    87.1440   -13.8810 
  252.3750   396.9090    22.2290     5.5270   169.6440   182.4650    93.9620   -13.6160 
  252.5000   377.2590    22.1240     5.4350   172.7120   219.6750    98.7010   -13.3140 
  252.6250   350.9890    21.9040     5.7550   169.3530   244.5310    98.0910   -13.0600 
  252.7500   351.9810    21.8130     5.8230   164.3290   250.5930    97.2960   -12.7900 
  252.8750   362.5200    21.7190     5.6850   167.6360   249.9050   139.4910   -12.4940 
  253.0000   353.4670    21.7280     5.7000   161.8470   240.9960   113.9540   -12.1980 
  253.1250   356.1220    21.8120     5.8200   135.5310   238.6960   129.4320   -11.9010 
  253.2500   344.1650    21.9320     5.7630   124.5870   242.3830    96.8030   -11.6490 
  253.3750   353.1250    22.1300     6.1260   102.2100   230.2220    64.1750   -11.4050 
  253.5000   368.2480    22.4080     6.0720    71.8480   169.4610    69.2510   -11.1970 
  253.6250   380.4700    22.6020     6.2000    72.0030    92.6240    73.8150   -11.0150 
  253.7500   387.3550    22.3430     6.2130    74.3210    88.0520    66.0000   -10.8320 
  253.8750   398.5480    22.0360     6.0340    72.3870    89.3330    70.6130   -10.7480 
  254.0000   408.5980    21.8600     5.9510    72.7320    91.0260    70.1110   -10.6810 
  254.1250   411.6850    21.9640     6.1570    74.0170    89.2580    58.5880   -10.6340 
  254.2500   378.4980    22.1840     6.2690    70.6000    92.7440    62.3510   -10.5460 
  254.3750   375.0050    22.4110     6.1650    58.8130    93.1650    57.2860   -10.1320 
  254.5000   374.9900    22.6150     5.9630    30.8600    90.6690    31.4140    -9.7660 
  254.6250   375.8870    22.7870     5.8730    29.4600    83.4460    29.1580    -9.4300 
  254.7500   375.0150    22.8740     6.0320    27.7870    31.8310    25.9870    -9.1190 
  254.8750   369.5740    22.9500     6.1190    27.4510    28.9830    24.2910    -8.8610 
  255.0000   364.1540    22.8540     6.2630    28.7450    28.6530    27.8300    -8.7220 
  255.1250   359.2010    22.6080     6.1970    29.2490    28.9930    25.8590    -8.5820 
  255.2500   356.9270    22.3520     6.2850    30.3590    31.2820    29.9620    -8.4490 
  255.3750   355.4590    22.1040     6.3150    34.7340    35.1760    37.8270    -8.3880 
  255.5000   355.9380    21.9970     6.5560    38.8150    38.9840    42.4330    -8.3260 
  255.6250   361.0180    22.0910     6.5990    39.0350    45.8340    41.9790    -8.2640 
  255.7500   374.9070    22.3480     6.7470    28.2900    43.7920    34.7380    -8.3240 
  255.8750   409.8020    22.5350     6.9470    25.7380    35.6470    17.2210    -8.4020 
  256.0000   394.9570    22.3120     6.8870    28.1340    29.8450    36.9140    -8.5870 
  256.1250   386.8240    22.0400     6.8030    33.7620    32.3020    81.4590    -8.7800 
