~V
VERS. 2.00: Ver 2.00
~W
STRT.M 20.0000:
STOP.M 315.0000:
STEP.M 0.1250:
NULL. -999.2500:
UWI. Z112:
~C
DEPT.M :
AC.US/MT :
CALI.CM :
GR.API :
RI. :
RML.OHMM :
RXO.OHMM :
SP.MV :
~A
# ...
  301.2500   332.8650    23.0980     7.5580     9.1640     9.0350    18.3680    -8.7470 
  301.3750   327.4610    23.0970     7.5300    10.1920    10.7680    14.5840    -8.7650 
  301.5000   362.3140    23.0940     7.6280     9.9190    10.4320     7.3850    -8.7400 
  301.6250   381.2900    23.0040     7.5450    10.1550    12.4890     6.5920    -8.6900 
  301.7500   379.5440    22.7150     7.5180    11.9620    11.5470     6.9620    -8.5740 
  301.8750   367.6330    22.4560     7.7810    10.7790     9.2690     7.8510    -8.3430 
  302.0000   347.1680    22.3090     7.8820     8.9410     7.5520    23.8340    -8.1760 
  302.1250   346.0480    22.5100     7.8370     7.8390     6.9870    20.9230    -8.0610 
  302.2500   359.1160    22.8660     7.9610     8.6890     7.6290    22.2770    -8.0260 
  302.3750   326.6440    23.3000     7.6180    10.3750     9.4290    18.1700    -8.0660 
  302.5000   321.8830    23.3580     7.6340    12.5940    11.9190     6.4600    -8.1430 
  302.6250   324.5820    23.2000     7.6180    11.7620    11.9200    10.3150    -8.2240 
  302.7500   329.9460    22.9270     7.5290    10.5920    10.5570    12.4280    -8.2240 
  302.8750   336.7080    22.6400     7.5820     9.6010    10.3570     7.7090    -8.2250 
  303.0000   344.9670    22.5320     7.5310    10.3070    12.0460     8.6380    -8.1620 
  303.1250   356.0250    22.6810     7.3850    10.5890    11.9570     6.2890    -7.9640 
  303.2500   364.1380    22.7070     7.2870     9.2420    10.1110     5.5240    -7.6200 
  303.3750   363.8750    22.3800     7.6200     8.0300     8.5750     7.9840    -7.3970 
  303.5000   362.8460    22.0770     7.6430     7.2200     7.5960     6.8690    -7.2750 
  303.6250   360.0990    22.1880     7.6830     6.8690     6.8930     7.1030    -7.2760 
  303.7500   357.7450    22.4620     7.5700     6.8320     6.7600     7.7250    -7.2760 
  303.8750   355.3650    22.7330     7.6410     6.9710     7.2640     6.8910    -7.2760 
  304.0000   352.6720    23.0720     7.8170     6.9700     7.7960     7.8360    -7.2770 
  304.1250   351.7100    23.0400     7.7130     7.5130     8.2300     9.7320    -7.2770 
  304.2500   357.8750    22.7210     7.8820     7.7430     9.0170     8.1130    -7.2780 
  304.3750   367.1440    22.4190     7.8750     7.4790     9.5480     5.5570    -7.2640 
  304.5000   377.1100    22.3950     7.6430     6.9910     9.3440     5.1840    -7.2000 
  304.6250   375.4540    22.8260     7.6930     6.2520     8.1540     6.1890     0.0000 
  304.7500   369.4480    22.6680     7.7580     5.5420     6.4980     6.8390     0.0000 
  304.8750   364.7380    22.0180     7.5220     5.3400     6.0700     5.7770     0.0000 
  305.0000   361.2830    21.3980     7.5480     5.4520     6.2640     5.2660     0.0000 
  305.1250   360.4890    21.2470     7.5470     5.9070     6.6910     6.2460     0.0000 
  305.2500   364.3520    21.5120     7.3140     6.2340     7.0050     7.7960     0.0000 
  305.3750   369.1270    21.7070     7.2350     6.2560     7.6040     7.1360     0.0000 
  305.5000   374.8080    21.9390     7.3150     6.1620     7.6640     6.1900     0.0000 
  305.6250   386.3590    22.1570     7.2370     5.6590     7.3180     4.9010     0.0000 
  305.7500   386.8350    22.0830     7.0680     5.2530     6.8590     4.0740     0.0000 
  305.8750   382.0560    21.7540     7.1800     4.7090     6.2250     5.2800     0.0000 
  306.0000   379.3810    21.5360     7.3100     4.8250     5.6880     7.7070     0.0000 
  306.1250   379.3690    21.5640     7.5350     5.3380     5.2690     7.1290     0.0000 
  306.2500   379.3560    21.7430     7.7890     6.1350     5.0940     6.8520     0.0000 
  306.3750   379.8630    22.1420     7.9390     6.1840     5.0290     8.0970     0.0000 
  306.5000   380.3990    22.5060     7.8950     5.8260     5.2220     7.8820     0.0000 
  306.6250   380.8220    22.5350     7.5050     5.4500     5.4390     7.1370     0.0000 
  306.7500   380.8110    22.1310     7.4330     5.1950     5.6860     7.2560     0.0000 
  306.8750   380.6630    21.7660     7.6750     5.1400     5.9290     7.6410     0.0000 
  307.0000   380.1100    21.7740     7.6480     5.9660     5.9830     7.6830     0.0000 
  307.1250   379.5560    21.8350     7.6040     6.7060     6.0160     7.7260     0.0000 
  307.2500   379.0020    21.8760     7.7790     7.1740     5.9820     7.7680     0.0000 
  307.3750   378.6430    21.9410     7.5510     6.7500     5.8050     7.8110     0.0000 
  307.5000   378.4360    22.0790     7.4780     6.1250     5.5890     7.6550     0.0000 
  307.6250   378.2300    22.1910     7.5430     5.5000     5.4870     7.3590     0.0000 
  307.7500   378.0240    22.1900     7.4810     5.2320     5.3850     7.0820     0.0000 
  307.8750   377.8170    22.1770     7.4300     5.2310     5.2940     6.8900     0.0000 
  308.0000   377.6930    22.1540     7.5570     5.2440     5.2920     6.8320     0.0000 
  308.1250   377.6810    22.1300     7.2420     5.2870     5.2900     6.8750     0.0000 
  308.2500   377.6700    22.1010     7.2130     5.3370     5.3640     6.9270     0.0000 
  308.3750   377.6580    22.0730     7.4210     5.4600     5.4510     6.9990     0.0000 
  308.5000   377.6470    22.0450     7.3180     5.5840     5.5380     7.0720     0.0000 
  308.6250   377.5910    22.0320     7.3900     5.6510     5.6420     7.1440     0.0000 
  308.7500   377.5050    22.0310     7.5590     5.6900     5.7640     7.2160     0.0000 
  308.8750   377.4190    22.0300     7.8230     5.7290     5.7800     7.2890     0.0000 
  309.0000   377.3330    22.0290     7.7200     5.7680     5.7770     7.3610     0.0000 
  309.1250   377.2480    22.0280     7.5980     5.8070     5.7820     7.3910     0.0000 
  309.2500   377.1620    22.0270     7.5660     5.8190     5.7900     7.3880     0.0000 
  309.3750   377.0760    22.0250     7.4730     5.8180     5.7990     7.3860     0.0000 
  309.5000   377.3710    22.0240     7.4030     5.8480     5.8070     7.3830     0.0000 
  309.6250   377.7360    22.0230     7.5470     5.8820     5.8160     7.3810     0.0000 
  309.7500   378.1020    22.0220     7.5270     5.9150     5.8240     7.3880     0.0000 
  309.8750   378.4670    22.0390     7.7040     5.9130     5.8330     7.4180     0.0000 
  310.0000   347.1680    22.3090     7.8820     8.9410     7.5520    23.8340    -8.1760 
  310.1250   346.0480    22.5100     7.8370     7.8390     6.9870    20.9230    -8.0610 
  310.2500   359.1160    22.8660     7.9610     8.6890     7.6290    22.2770    -8.0260 
  310.3750   326.6440    23.3000     7.6180    10.3750     9.4290    18.1700    -8.0660 
  310.5000   321.8830    23.3580     7.6340    12.5940    11.9190     6.4600    -8.1430 
  310.6250   324.5820    23.2000     7.6180    11.7620    11.9200    10.3150    -8.2240 
  310.7500   329.9460    22.9270     7.5290    10.5920    10.5570    12.4280    -8.2240 
  310.8750   336.7080    22.6400     7.5820     9.6010    10.3570     7.7090    -8.2250 
  311.0000   344.9670    22.5320     7.5310    10.3070    12.0460     8.6380    -8.1620 
  311.1250   356.0250    22.6810     7.3850    10.5890    11.9570     6.2890    -7.9640 
  311.2500   364.1380    22.7070     7.2870     9.2420    10.1110     5.5240    -7.6200 
  311.3750   363.8750    22.3800     7.6200     8.0300     8.5750     7.9840    -7.3970 
  311.5000   362.8460    22.0770     7.6430     7.2200     7.5960     6.8690    -7.2750 
  311.6250   360.0990    22.1880     7.6830     6.8690     6.8930     7.1030    -7.2760 
  311.7500   357.7450    22.4620     7.5700     6.8320     6.7600     7.7250    -7.2760 
  311.8750   355.3650    22.7330     7.6410     6.9710     7.2640     6.8910    -7.2760 
  312.0000   352.6720    23.0720     7.8170     6.9700     7.7960     7.8360    -7.2770 
  312.1250   351.7100    23.0400     7.7130     7.5130     8.2300     9.7320    -7.2770 
  312.2500   357.8750    22.7210     7.8820     7.7430     9.0170     8.1130    -7.2780 
  312.3750   367.1440    22.4190     7.8750     7.4790     9.5480     5.5570    -7.2640 
