~V
VERS. 2.00: Ver 2.00
~W
STRT.M 20.0000:
STOP.M 315.0000:
STEP.M 0.1250:
NULL. -999.2500:
UWI. Z112:
~C
DEPT.M :
AC.US/MT :
CALI.CM :
GR.API :
RI. :
RML.OHMM :
RXO.OHMM :
SP.MV :
~A
# ...
  166.2500   413.4780    21.4770     6.6400     8.5800    10.1450     6.0330    -8.4270 
  166.3750   407.5590    21.5560     6.5230     7.7560     9.7940     4.7630    -8.3720 
  166.5000   387.8640    21.7350     6.7440     7.6860     9.5770     5.3080    -8.4200 
  166.6250   377.6280    22.0170     7.0300     7.9470     9.7920     6.0740    -8.6490 
  166.7500   373.9460    22.3540     7.3170     8.4510    10.4110     4.8300    -8.8780 
  166.8750   378.4870    22.1230     7.4830     9.0730    10.8820     6.2350    -9.1370 
  167.0000   386.9110    21.8120     7.6920     9.0550     8.8410    10.4480    -9.3910 
  167.1250   398.6530    21.7170     7.8720     6.7050     6.9390     7.4210    -9.3920 
  167.2500   415.1770    21.9480     7.8490     5.0340     5.9990     7.1620    -9.2930 
  167.3750   424.2070    22.3050     7.7940     4.4880     5.3710     3.7710    -9.0540 
  167.5000   416.9100    22.7180     7.7250     4.7290     5.2190     3.7440    -8.8360 
  167.6250   409.7870    23.1370     7.6280     5.2350     5.6010     4.1250    -8.6620 
  167.7500   407.3430    23.7110     7.5300     5.7400     5.9820     4.6140    -8.4870 
  167.8750   406.3310    23.6250     7.5390     5.9670     6.0070     4.0670    -8.3850 
  168.0000   406.3190    23.2190     7.6050     4.9020     5.0190     2.5790    -8.3080 
  168.1250   405.7420    22.8130     7.7150     4.3900     5.1310     2.5300    -8.2610 
  168.2500   400.0280    22.3310     7.3730     4.6230     5.4900     3.0210    -8.3650 
  168.3750   393.9630    22.0350     7.2560     5.1680     6.2500     4.0280    -8.4690 
  168.5000   392.7840    21.9080     7.2500     5.8240     7.0270     5.5970    -8.5730 
  168.6250   391.4810    21.9070     7.3060     6.9130     6.5170     4.4270    -8.8250 
  168.7500   384.2360    21.9980     7.2680     8.0150     7.0960     5.1830    -9.1150 
  168.8750   369.4270    22.2130     7.2520     6.9700     8.2420     5.3670    -9.3690 
  169.0000   366.3990    22.1870     7.3070     5.4340     7.5590     5.7000    -9.5920 
  169.1250   373.4940    21.8380     7.2120     6.2660     7.7670    12.5310    -9.7490 
  169.2500   383.0500    21.6530     7.2460     7.4230     9.0090    17.6710    -9.7500 
  169.3750   395.9460    21.5220     7.3190     6.8500     8.4180     3.1860    -9.7500 
  169.5000   404.6620    21.4810     7.4050     5.6770     7.1360     3.4250    -9.7410 
  169.6250   404.4380    21.4600     7.5310     4.9720     6.4580     3.6710    -9.6170 
  169.7500   402.1540    21.4820     7.6200     5.3540     6.4080     4.0880    -9.4930 
  169.8750   396.6130    21.6170     7.1330     5.9380     6.9580     4.8130    -9.3690 
  170.0000   384.1810    21.8520     7.0130     5.5210     7.0140     4.1160    -9.2450 
  170.1250   369.1250    21.9090     6.6700     4.6220     6.7110     3.5460    -9.1080 
  170.2500   349.3310    21.8340     6.5530     4.9910     7.2420     4.2930    -8.9720 
  170.3750   319.3110    21.6640     6.5760     5.8060     8.1380     7.1710    -8.8350 
  170.5000   312.1430    21.5280     6.6370     6.8030     9.4120     5.3890    -8.6940 
  170.6250   313.6830    21.5010     5.9210     8.5070    11.5310     7.2370    -8.3840 
  170.7500   322.0780    21.5840     5.8470    10.2850    11.4780    14.9780    -8.0740 
  170.8750   338.1900    21.7230     5.5100     7.8460     9.8780     6.1160    -7.7630 
  171.0000   311.2100    21.9550     5.5100     7.3540     9.4680     6.3870    -7.4800 
  171.1250   311.2030    22.1870     5.2640    10.4130    12.4590     7.5180    -7.3360 
  171.2500   314.7820    22.4230     5.2030    14.5190    16.0660    10.3280    -7.2030 
  171.3750   319.8390    22.7010     5.2130    15.5250    18.4920    14.7340    -7.2030 
  171.5000   324.8950    22.9670     5.0450    15.4970    18.1690    15.1580    -7.2040 
  171.6250   330.4260    22.9890     5.0830    16.8030    18.1210    17.4300    -7.3120 
  171.7500   283.6050    22.8110     5.1520    18.8850    19.4350    20.6730    -7.4770 
  171.8750   278.7810    22.6330     5.1370    18.1040    20.6180    17.2120    -7.6430 
  172.0000   278.4410    22.3750     5.2570    17.0340    19.8510    14.8300    -7.8000 
  172.1250   275.5710    22.1150     5.2090    17.8690    19.8670    15.9820    -7.9560 
  172.2500   271.5740    21.8870     5.3440    18.9320    20.5730    17.4230    -8.0810 
  172.3750   258.7470    22.1080     5.2450    19.6730    21.2800    17.4800    -8.1480 
  172.5000   253.2640    22.4460     5.1240    18.8670    21.9860    18.4800    -8.2000 
  172.6250   251.4440    22.8490     5.1980    18.6920    22.6860    17.3800    -8.1040 
  172.7500   252.9270    23.3110     4.9800    19.7030    21.9210    18.1400    -8.0090 
  172.8750   256.4840    23.9750     5.0430    19.6260    20.8970    17.7060    -7.8280 
  173.0000   260.0980    24.1360     5.0650    18.8090    20.3160    19.2610    -7.6470 
  173.1250   263.9510    23.9370     4.8730    19.2620    20.9350    21.6860    -7.4660 
  173.2500   267.8040    23.6990     4.8880    18.2810    20.3220    17.0230    -7.2830 
  173.3750   270.9570    23.7830     4.9590    17.2170    19.5830    17.9210    -7.0920 
  173.5000   268.2880    23.9960     5.1130    17.5930    19.4950    19.1320    -6.9040 
  173.6250   266.4120    23.7390     5.2870    18.8730    20.0520    17.5510    -6.7740 
  173.7500   269.6120    23.2740     5.3790    18.8180    21.2410    19.7390    -6.6430 
  173.8750   274.3510    22.7970     5.3550    16.3590    19.3960    24.6970    -6.5130 
  174.0000   279.0900    22.3240     5.4150    15.0330    17.1590    23.2140    -6.5110 
  174.1250   283.2180    21.9620     5.3880    15.0460    16.3320    14.0210    -6.5120 
  174.2500   280.5670    21.8060     5.4940    15.8600    16.7350    13.6600    -6.5120 
  174.3750   275.9820    21.7560     5.4030    16.6950    17.3540    14.6400    -6.5960 
  174.5000   270.9530    21.7550     5.3320    16.0230    17.7180    15.6200    -6.7320 
  174.6250   265.3520    21.9320     5.3120    14.9960    17.2040    14.2270    -6.8730 
  174.7500   263.2580    21.9290     5.0240    15.6400    17.8990    15.4670    -7.1130 
  174.8750   262.9210    21.5130     5.0360    16.8080    19.1000    19.5950    -7.3530 
  175.0000   264.0150    21.2730     5.0880    17.3830    20.1500    17.5640    -7.4190 
  175.1250   267.1000    21.4300     5.1460    16.6450    19.8580    16.3810    -7.4740 
  175.2500   260.5440    21.6950     5.2130    16.1150    19.2220    14.1820    -7.5230 
  175.3750   239.9080    21.9350     5.1170    17.2860    19.4610    13.8320    -7.5490 
  175.5000   235.1950    22.0770     5.1760    18.7040    20.5360    15.9850    -7.5540 
  175.6250   236.1530    21.8610     5.1040    20.1550    22.0390    19.6640    -7.5020 
  175.7500   239.2350    21.5890     5.2830    20.1920    23.7580    19.2790    -7.3760 
  175.8750   242.5450    21.4950     5.0670    20.1350    24.6880    22.4920    -7.1320 
  176.0000   246.5750    21.5620     5.0750    19.1920    23.9440    23.6480    -6.9650 
  176.1250   251.3670    21.7490     5.1530    17.4930    22.9270    19.7940    -6.8230 
  176.2500   260.9820    22.0290     5.2480    15.9030    21.5620    23.3650    -6.8490 
  176.3750   263.9870    22.2650     5.0580    15.9890    19.2870    16.2400    -6.9390 
  176.5000   262.1930    22.0860     5.1730    16.3940    18.0630    16.2610    -7.2830 
  176.6250   263.6780    21.8100     5.1420    16.3860    18.2820    15.9510    -7.4780 
  176.7500   268.7970    21.6380     5.2380    15.4110    18.3820    14.4270    -7.5720 
  176.8750   277.8170    21.5840     5.3800    14.2800    17.5080    15.0070    -7.5180 
  177.0000   289.7250    21.6460     5.5130    13.6960    16.2240    13.5120    -7.4400 
  177.1250   306.4650    21.8100     5.3510    14.3180    15.6150    13.8960    -7.2850 
  177.2500   322.4110    22.0350     5.3800    15.1320    15.2280    13.8220    -7.1300 
  177.3750   336.4640    22.2320     5.4800    13.2020    15.0490    11.5480    -7.0030 
