~V
VERS. 2.00: Ver 2.00
~W
STRT.M 20.0000:
STOP.M 315.0000:
STEP.M 0.1250:
NULL. -999.2500:
UWI. Z112:
~C
DEPT.M :
AC.US/MT :
CALI.CM :
GR.API :
RI. :
RML.OHMM :
RXO.OHMM :
SP.MV :
~A
# ...
  211.2500   423.2010    22.7680     6.8670     6.4350     7.3780     4.8650    -8.4340 
  211.3750   428.7140    22.7980     6.9220     7.4800     8.3020     5.0760    -8.5160 
  211.5000   414.6650    22.3490     6.9700     8.7380     9.3500     6.1090    -8.5980 
  211.6250   395.0030    21.9550     6.7430     8.0960     9.1590     7.5560    -8.6510 
  211.7500   396.8400    21.9010     6.8060     6.5800     8.5230     9.6970    -8.7030 
  211.8750   398.8030    22.1250     6.8650     6.1710     7.3630     8.6370    -8.7500 
  212.0000   396.2640    22.4340     6.7840     6.6500     6.7910     4.9660    -8.7510 
  212.1250   391.4180    22.4770     6.8730     7.5500     7.3330     5.8530    -8.7510 
  212.2500   389.9670    22.3180     6.6110     8.6870     8.2570     7.1080    -8.7470 
  212.3750   389.9890    22.0380     6.5190     8.2580     9.1820     8.0570    -8.6440 
  212.5000   392.6290    21.8760     6.5680     7.5130     9.0930     8.5100    -8.5410 
  212.6250   390.2050    21.8920     6.6370     7.3730     8.4560     6.0730    -8.4290 
  212.7500   383.2730    22.0080     6.3180     8.0910     7.9740     6.8820    -8.3130 
  212.8750   372.4280    22.2260     6.3510     9.2940     7.8480     7.7720    -8.2070 
  213.0000   353.9930    22.3420     6.3590    10.6450     8.6960     6.4440    -8.2740 
  213.1250   354.1640    22.3410     5.7480    12.7110    10.1210     8.9350    -8.3410 
  213.2500   363.8470    22.2340     5.6340    13.4100    12.2890    14.7000    -8.4380 
  213.3750   374.5370    22.0470     5.6750    13.0650    13.9110    14.2530    -8.5420 
  213.5000   381.7790    21.9640     5.8160    12.8940    13.5690    11.5740    -8.6150 
  213.6250   372.1930    21.9750     5.7830    12.9080    13.3420    12.5710    -8.6400 
  213.7500   363.9400    22.0410     5.7860    13.6080    13.5270    13.4860    -8.6200 
  213.8750   364.7560    22.1420     5.8330    14.4560    14.2690    12.9030    -8.4960 
  214.0000   369.8860    21.8470     5.7710    14.9310    15.3140    12.8480    -8.3720 
  214.1250   385.0040    21.7870     5.8550    14.4130    15.0050    13.4170    -8.2460 
  214.2500   381.4370    21.9900     5.7770    13.6020    14.3580    13.1270    -8.1000 
  214.3750   393.8700    22.2860     5.7410    12.7440    13.5070    12.1340    -7.9540 
  214.5000   407.9600    22.4500     5.7790    12.1610    13.1050    10.9100    -7.8350 
  214.6250   403.7310    22.4100     5.7560    12.3160    13.9610    10.8180    -7.7680 
  214.7500   398.5400    22.0970     5.6440    13.3650    15.5010    12.2960    -7.7010 
  214.8750   391.6420    21.8700     5.6440    16.2000    17.5040    16.9810    -7.6340 
  215.0000   382.8500    21.7270     5.7280    15.8220    17.0390    13.9800    -7.6520 
  215.1250   376.1120    21.7840     5.8420    16.1810    16.2620    12.7330    -7.7180 
  215.2500   374.2750    21.9380     5.7380    18.3410    17.3080    17.0060    -7.7840 
  215.3750   376.5870    22.1860     5.6830    21.1430    20.0690    24.3820    -7.9420 
  215.5000   384.5340    22.4800     5.7190    20.8020    25.2150    22.4930    -8.1650 
  215.6250   394.5850    22.6610     5.7560    19.6370    23.4370    18.8750    -8.3830 
  215.7500   403.9600    22.5610     5.8300    18.6860    21.7550    17.5790    -8.5910 
  215.8750   409.0010    22.3330     5.9220    18.4890    20.6360    17.0020    -8.8040 
  216.0000   408.3130    22.0450     5.9420    19.3610    21.6030    19.1240    -9.0220 
  216.1250   405.9600    21.8750     5.8080    20.3800    23.4280    17.8650    -9.0660 
  216.2500   404.8460    21.9100     5.8480    21.6200    25.1880    18.9730    -9.0630 
  216.3750   404.5780    22.1540     5.9480    21.8140    25.2790    21.0130    -8.9520 
  216.5000   407.1010    22.2620     5.9800    21.8130    24.7270    20.3550    -8.8420 
  216.6250   408.2280    22.2870     5.9460    21.6470    24.1710    20.0660    -8.7620 
  216.7500   404.6160    22.2860     6.0500    22.3100    24.1340    21.8250    -8.6900 
  216.8750   400.6090    22.3400     6.0170    22.4530    24.8210    21.3800    -8.6810 
  217.0000   398.8360    22.4220     6.1020    22.3310    25.8580    20.7860    -8.7010 
  217.1250   399.2230    22.4350     6.2710    23.5090    26.3640    20.8630    -8.7410 
  217.2500   400.1410    22.2220     6.4250    23.3060    26.0910    23.1680    -8.9360 
  217.3750   401.9820    22.0810     6.6400    22.4000    24.9800    23.4470    -9.1310 
  217.5000   402.6780    22.0800     6.6130    19.1320    23.1330    20.8670    -9.3300 
  217.6250   400.0100    22.1280     6.8610    17.2200    19.9250    16.8610    -9.5300 
  217.7500   395.5850    22.3210     6.9170    16.9280    19.0480    15.1810    -9.6990 
  217.8750   391.3860    22.5860     6.5460    17.0310    18.6570    15.6280    -9.7880 
  218.0000   390.1310    22.8310     6.5370    17.1380    19.1420    16.1990    -9.8720 
  218.1250   390.9050    22.8410     6.3770    17.2500    19.9800    17.4690    -9.8250 
  218.2500   393.3720    22.5750     6.3450    17.7480    21.2100    20.7950    -9.7770 
  218.3750   397.8920    22.2640     6.3470    17.6420    20.7520    15.4660    -9.6970 
  218.5000   402.3420    22.1340     6.2950    16.7660    19.7550    16.3500    -9.6140 
  218.6250   405.4250    22.0700     6.4470    16.5170    18.9790    16.5650    -9.5760 
  218.7500   408.7770    22.0630     6.2620    17.0040    19.4210    16.7400    -9.5760 
  218.8750   412.6930    22.0180     6.2420    18.0410    22.0530    19.0430    -9.5770 
  219.0000   415.9420    22.0500     6.2610    19.7780    27.1360    24.6040    -9.6820 
  219.1250   417.5220    22.1410     6.0620    23.1410    25.4580    21.3300    -9.8480 
  219.2500   417.6300    22.2810     6.1020    21.3820    23.8390    19.9400   -10.0130 
  219.3750   415.7480    22.4620     6.1600    19.8950    22.6100    20.0070   -10.1640 
  219.5000   411.6660    22.5040     6.2340    19.6060    21.7450    18.2920   -10.3120 
  219.6250   408.2540    22.1310     5.9790    20.1550    22.0550    17.3190   -10.4610 
  219.7500   405.5420    21.8090     5.6270    21.1130    22.8860    20.3820   -10.5610 
  219.8750   403.9010    21.8670     5.6230    22.7020    24.0470    22.0900   -10.6170 
  220.0000   402.4430    22.0050     5.6510    23.1250    26.8940    21.7380   -10.6730 
  220.1250   402.4330    22.3250     5.5400    25.5860    26.7340    24.2260   -10.7290 
  220.2500   400.7850    22.6130     5.5660    29.6900    30.4710    27.5240   -10.7840 
  220.3750   394.1000    22.9140     5.5600    32.8530    37.4590    33.0690   -10.8090 
  220.5000   385.8220    22.8700     5.3860    30.7780    37.2300    30.3590   -10.8330 
  220.6250   374.9770    22.6510     5.3280    28.8050    34.7830    24.5180   -10.8580 
  220.7500   366.5920    22.4290     5.3180    28.6320    32.0930    21.6770   -10.8820 
  220.8750   369.2760    22.2890     5.4200    31.3330    33.5210    29.4560   -10.8070 
  221.0000   376.8730    22.2810     5.5070    39.9490    43.1740    36.7100   -10.7130 
  221.1250   390.3370    22.3640     5.4700    46.6990    50.0420    43.0000   -10.6190 
  221.2500   385.7630    22.4980     5.5230    37.5830    46.9950    30.9680   -10.5250 
  221.3750   380.4220    22.6670     5.6020    37.6650    42.7040    26.9960   -10.4310 
  221.5000   376.2810    22.7470     5.6130    39.3920    41.6970    30.1190   -10.2820 
  221.6250   374.9320    22.7480     5.5790    42.0190    42.5780    30.3700   -10.0850 
  221.7500   378.9180    22.5150     5.6650    43.1690    44.3360    29.5370    -9.8870 
  221.8750   387.6160    22.1660     5.6520    42.6480    46.9630    30.5460    -9.6900 
  222.0000   385.8450    21.9820     5.7800    42.3140    48.4920    31.7440    -9.4830 
  222.1250   376.7140    21.8800     5.7890    43.5080    48.6130    33.9870    -9.2760 
  222.2500   384.1500    21.8530     5.8770    42.3910    48.0150    35.2370    -9.0680 
  222.3750   357.3450    21.8700     6.0030    38.9500    46.4260    34.7140    -8.8510 
