~V
VERS. 2.00: Ver 2.00
~W
STRT.M 20.0000:
STOP.M 315.0000:
STEP.M 0.1250:
NULL. -999.2500:
UWI. Z112:
~C
DEPT.M :
AC.US/MT :
CALI.CM :
GR.API :
RI. :
RML.OHMM :
RXO.OHMM :
SP.MV :
~A
# ...
  110.0000     0.0000     0.0000     0.0000     0.0000     0.0000     0.0000     0.0000 
  110.1250     0.0000     0.0000     0.0000     0.0000     0.0000     0.0000     0.0000 
  110.2500     0.0000     0.0000     0.0000     0.0000     0.0000     0.0000     0.0000 
  110.3750     0.0000     0.0000     0.0000     0.0000     0.0000     0.0000     0.0000 
  110.5000     0.0000     0.0000     0.0000     0.0000     0.0000     0.0000     0.0000 
  110.6250     0.0000     0.0000     0.0000     0.0000     0.0000     0.0000     0.0000 
  110.7500     0.0000     0.0000     0.0000     0.0000     0.0000     0.0000     0.0000 
  110.8750     0.0000     0.0000     0.0000     0.0000     0.0000     0.0000     0.0000 
  111.0000     0.0000     0.0000     0.0000     0.0000     0.0000     0.0000     0.0000 
  111.1250     0.0000     0.0000     0.0000     0.0000     0.0000     0.0000     0.0000 
  111.2500     0.0000     0.0000     0.0000     0.0000     0.0000     0.0000     0.0000 
  111.3750     0.0000     0.0000     0.0000     0.0000     0.0000     0.0000     0.0000 
  111.5000     0.0000     0.0000     0.0000     0.0000     0.0000     0.0000     0.0000 
  111.6250     0.0000     0.0000     0.0000     0.0000     0.0000     0.0000     0.0000 
  111.7500     0.0000     0.0000     0.0000     0.0000     0.0000     0.0000     0.0000 
  111.8750     0.0000     0.0000     0.0000     0.0000     0.0000     0.0000     0.0000 
  112.0000     0.0000     0.0000     0.0000     0.0000     0.0000     0.0000     0.0000 
  112.1250     0.0000     0.0000     0.0000     0.0000     0.0000     0.0000     0.0000 
  112.2500     0.0000     0.0000     0.0000     0.0000     0.0000     0.0000     0.0000 
  112.3750     0.0000     0.0000     0.0000     0.0000     0.0000     0.0000     0.0000 
  112.5000     0.0000     0.0000     0.0000     0.0000     0.0000     0.0000     0.0000 
  112.6250     0.0000     0.0000     0.0000     0.0000     0.0000     0.0000     0.0000 
  112.7500     0.0000     0.0000     0.0000     0.0000     0.0000     0.0000     0.0000 
  112.8750     0.0000     0.0000     0.0000     0.0000     0.0000     0.0000     0.0000 
  113.0000     0.0000     0.0000     0.0000     0.0000     0.0000     0.0000     0.0000 
  113.1250     0.0000     0.0000     0.0000     0.0000     0.0000     0.0000     0.0000 
  113.2500     0.0000     0.0000     0.0000     0.0000     0.0000     0.0000     0.0000 
  113.3750     0.0000     0.0000     0.0000     0.0000     0.0000     0.0000     0.0000 
  113.5000     0.0000     0.0000     0.0000     0.0000     0.0000     0.0000     0.0000 
  113.6250     0.0000     0.0000     0.0000     0.0000     0.0000     0.0000     0.0000 
  113.7500     0.0000     0.0000     0.0000     0.0000     0.0000     0.0000     0.0000 
  113.8750     0.0000     0.0000     0.0000     0.0000     0.0000     0.0000     0.0000 
  114.0000     0.0000     0.0000     0.0000     0.0000     0.0000     0.0000     0.0000 
  114.1250     0.0000     0.0000     0.0000     0.0000     0.0000     0.0000     0.0000 
  114.2500     0.0000     0.0000     0.0000     0.0000     0.0000     0.0000     0.0000 
  114.3750     0.0000     0.0000     0.0000     0.0000     0.0000     0.0000     0.0000 
  114.5000     0.0000     0.0000     0.0000     0.0000     0.0000     0.0000     0.0000 
  114.6250     0.0000     0.0000     0.0000     0.0000     0.0000     0.0000     0.0000 
  114.7500     0.0000     0.0000     0.0000     0.0000     0.0000     0.0000     0.0000 
  114.8750     0.0000     0.0000     0.0000     0.0000     0.0000     0.0000     0.0000 
  115.0000     0.0000     0.0000     0.0000     0.0000     0.0000     0.0000     0.0000 
  115.1250     0.0000     0.0000     0.0000     0.0000     0.0000     0.0000     0.0000 
  115.2500     0.0000     0.0000     0.0000     0.0000     0.0000     0.0000     0.0000 
  115.3750     0.0000     0.0000     0.0000     0.0000     0.0000     0.0000     0.0000 
  115.5000     0.0000     0.0000     0.0000     0.0000     0.0000     0.0000     0.0000 
  115.6250     0.0000     0.0000     0.0000     0.0000     0.0000     0.0000     0.0000 
  115.7500     0.0000     0.0000     0.0000     0.0000     0.0000     0.0000     0.0000 
  115.8750     0.0000     0.0000     0.0000     0.0000     0.0000     0.0000     0.0000 
  116.0000     0.0000     0.0000     0.0000     0.0000     0.0000     0.0000     0.0000 
  116.1250     0.0000     0.0000     0.0000     0.0000     0.0000     0.0000     0.0000 
  116.2500     0.0000     0.0000     0.0000     0.0000     0.0000     0.0000     0.0000 
  116.3750     0.0000     0.0000     0.0000     0.0000     0.0000     0.0000     0.0000 
  116.5000     0.0000     0.0000     0.0000     0.0000     0.0000     0.0000     0.0000 
  116.6250     0.0000     0.0000     0.0000     0.0000     0.0000     0.0000     0.0000 
  116.7500     0.0000     0.0000     0.0000     0.0000     0.0000     0.0000     0.0000 
  116.8750     0.0000     0.0000     0.0000     0.0000     0.0000     0.0000     0.0000 
  117.0000     0.0000     0.0000     0.0000     0.0000     0.0000     0.0000     0.0000 
  117.1250     0.0000     0.0000     0.0000     0.0000     0.0000     0.0000     0.0000 
  117.2500     0.0000     0.0000     0.0000     0.0000     0.0000     0.0000     0.0000 
  117.3750     0.0000     0.0000     0.0000     0.0000     0.0000     0.0000     0.0000 
  117.5000     0.0000     0.0000     0.0000     0.0000     0.0000     0.0000     0.0000 
  117.6250     0.0000     0.0000     0.0000     0.0000     0.0000     0.0000     0.0000 
  117.7500     0.0000     0.0000     0.0000     0.0000     0.0000     0.0000     0.0000 
  117.8750     0.0000     0.0000     0.0000     0.0000     0.0000     0.0000     0.0000 
  118.0000     0.0000     0.0000     0.0000     0.0000     0.0000     0.0000     0.0000 
  118.1250     0.0000     0.0000     0.0000     0.0000     0.0000     0.0000     0.0000 
  118.2500     0.0000     0.0000     0.0000     0.0000     0.0000     0.0000     0.0000 
  118.3750     0.0000     0.0000     0.0000     0.0000     0.0000     0.0000     0.0000 
  118.5000     0.0000     0.0000     0.0000     0.0000     0.0000     0.0000     0.0000 
  118.6250     0.0000     0.0000     0.0000     0.0000     0.0000     0.0000     0.0000 
  118.7500     0.0000     0.0000     0.0000     0.0000     0.0000     0.0000     0.0000 
  118.8750     0.0000     0.0000     0.0000     0.0000     0.0000     0.0000     0.0000 
  119.0000     0.0000     0.0000     0.0000     0.0000     0.0000     0.0000     0.0000 
  119.1250     0.0000     0.0000     0.0000     0.0000     0.0000     0.0000     0.0000 
  119.2500     0.0000     0.0000     0.0000     0.0000     0.0000     0.0000     0.0000 
  119.3750     0.0000     0.0000     0.0000     0.0000     0.0000     0.0000     0.0000 
  119.5000     0.0000     0.0000     0.0000     0.0000     0.0000     0.0000     0.0000 
  119.6250     0.0000     0.0000     0.0000     0.0000     0.0000     0.0000     0.0000 
  119.7500     0.0000     0.0000     0.0000     0.0000     0.0000     0.0000     0.0000 
  119.8750     0.0000     0.0000     0.0000     0.0000     0.0000     0.0000     0.0000 
  120.0000     0.0000     0.0000     0.0000     0.0000     0.0000     0.0000     0.0000 
  120.1250     0.0000     0.0000     0.0000     0.0000     0.0000     0.0000     0.0000 
  120.2500     0.0000     0.0000     0.0000     0.0000     0.0000     0.0000     0.0000 
  120.3750     0.0000     0.0000     0.0000     0.0000     0.0000     0.0000     0.0000 
  120.5000     0.0000     0.0000     0.0000     0.0000     0.0000     0.0000     0.0000 
  120.6250     0.0000     0.0000     0.0000     0.0000     0.0000     0.0000     0.0000 
  120.7500     0.0000     0.0000     0.0000     0.0000     0.0000     0.0000     0.0000 
  120.8750     0.0000     0.0000     0.0000     0.0000     0.0000     0.0000     0.0000 
  121.0000     0.0000     0.0000     0.0000     0.0000     0.0000     0.0000     0.0000 
  121.1250     0.0000     0.0000     0.0000     0.0000     0.0000     0.0000     0.0000 
