~V
VERS. 2.00: Ver 2.00
~W
STRT.M 20.0000:
STOP.M 315.0000:
STEP.M 0.1250:
NULL. -999.2500:
UWI. Z112:
~C
DEPT.M :
AC.US/MT :
CALI.CM :
GR.API :
RI. :
RML.OHMM :
RXO.OHMM :
SP.MV :
~A
# ...
  222.5000   337.6420    21.9540     5.8850    33.9930    43.3400    33.1600    -8.6960 
  222.6250   319.1230    22.1220     5.6020    28.5440    37.3850    29.7990    -8.6070 
  222.7500   299.5390    22.3030     5.6140    27.4210    32.7890    22.9880    -8.5260 
  222.8750   298.3310    22.4430     5.6400    32.6330    29.9890    24.2990    -8.4720 
  223.0000   312.4050    22.5940     5.4850    40.7000    37.2240    63.0000    -8.4180 
  223.1250   332.3350    22.6480     5.5870    35.0260    44.9170    44.0290    -8.3980 
  223.2500   357.0670    22.3370     5.7260    24.8630    42.4980    31.5180    -8.4140 
  223.3750   387.3310    22.1280     5.8820    23.9960    30.5510    24.2890    -8.4300 
  223.5000   399.4010    22.1270     5.7080    23.6900    29.0060    22.4490    -8.4610 
  223.6250   393.8590    22.0830     5.7750    24.2310    28.5060    23.9500    -8.5320 
  223.7500   408.1460    22.1560     5.7640    20.8660    29.1640    19.3530    -8.6030 
  223.8750   409.6110    22.5070     5.7580    18.6490    25.5840    17.8470    -8.6740 
  224.0000   385.6590    22.8760     5.8700    16.6830    22.0980    18.4960    -8.6710 
  224.1250   373.2130    22.9590     5.9860    12.8050    16.8930    18.9910    -8.6400 
  224.2500   371.5450    22.6040     6.1530    10.5990    14.2030    10.0640    -8.6090 
  224.3750   372.2330    22.2890     6.1180     9.6550    12.8730     9.5680    -8.5140 
  224.5000   375.7010    22.1500     6.1500     9.3170    12.1630     9.0710    -8.3590 
  224.6250   377.8020    22.1370     6.0980     9.3110    12.1080     9.1370    -8.2040 
  224.7500   379.4980    22.2100     6.1730     9.2410    12.2470     9.2310    -7.9830 
  224.8750   379.4860    22.2940     6.3870     9.5990    12.7110     9.5130    -7.7200 
  225.0000   379.3720    22.4680     6.3180    10.1700    13.2010     9.8250    -7.4490 
  225.1250   377.0900    22.7950     6.4340    10.6880    13.7250    10.2750    -7.1690 
  225.2500   374.3670    23.0830     6.2870    10.1380    14.1620    10.8110    -7.0620 
  225.3750   370.5280    23.2530     6.3790    10.6860    14.4100    11.2020    -6.9710 
  225.5000   369.2680    22.8700     6.5200    10.5640    13.8400    10.0210    -6.8960 
  225.6250   369.7870    22.4120     6.4020     9.7080    13.0990     9.2560    -6.8960 
  225.7500   372.0370    22.5650     6.3700     9.8580    13.2540     8.7430    -6.8970 
  225.8750   373.7270    22.9080     6.0350    10.6360    13.8730     9.3120    -6.8970 
  226.0000   373.7130    23.1570     5.9890    11.6710    14.7560    10.2810    -6.8980 
  226.1250   370.5000    22.8180     6.1480    12.7900    15.7640    11.6950    -6.8980 
  226.2500   363.3640    22.3400     6.1310    13.9120    16.9060    12.5650    -6.8990 
  226.3750   354.8760    22.2520     6.2220    15.3510    17.9800    12.0940    -6.9750 
  226.5000   355.0220    22.4500     6.2090    15.8020    17.7080    14.2090    -7.1560 
  226.6250   361.1720    22.7250     6.3410    15.2090    18.4020    18.4560    -7.3370 
  226.7500   369.1870    22.9130     6.5320    14.5950    19.5060    15.4360    -7.4910 
  226.8750   357.3830    22.9590     6.3690    14.5000    18.8200    14.2670    -7.5990 
  227.0000   358.1810    22.8030     6.4360    15.0900    18.1390    15.1450    -7.7070 
  227.1250   363.7080    22.5730     6.6230    15.1430    17.5020    14.4550    -7.8160 
  227.2500   370.4640    22.2870     6.4620    14.4040    17.2690    15.4580    -7.9310 
  227.3750   379.3200    22.2110     6.5480    13.8570    17.1320    14.1310    -8.0740 
  227.5000   385.3750    22.5150     6.4520    14.4210    17.1050    12.7800    -8.2170 
  227.6250   386.7290    22.6920     6.3360    15.2840    17.1650    13.0920    -8.3600 
  227.7500   387.0080    22.1160     6.3850    16.3100    18.0700    13.4040    -8.4910 
  227.8750   386.7540    22.0390     6.5350    17.6680    19.1520    15.6380    -8.5950 
  228.0000   385.8930    22.2040     6.0610    19.2790    20.9760    17.1630    -8.6990 
  228.1250   388.0520    22.4640     6.1020    18.9660    21.3230    16.6050    -8.8030 
  228.2500   391.1360    22.7390     6.1270    19.6440    21.6510    18.2470    -8.8730 
  228.3750   390.5120    22.7370     6.0870    20.5950    22.3790    19.8890    -8.9030 
  228.5000   387.9620    22.5170     6.0660    21.5450    24.2750    22.5980    -8.9330 
  228.6250   383.5640    22.5990     6.0170    22.8450    25.7700    24.8710    -8.9540 
  228.7500   381.8040    22.9380     6.1070    22.3100    26.6960    23.2870    -8.8790 
  228.8750   380.7810    23.3650     6.0040    21.9970    26.7950    22.4670    -8.8050 
  229.0000   379.8110    23.8930     5.9950    23.2880    26.6350    24.1680    -8.7310 
  229.1250   378.9470    24.7170     6.0070    22.6540    26.6090    22.8750    -8.6440 
  229.2500   378.3850    25.7460     5.7050    17.1390    24.4760    27.0000    -8.3860 
  229.3750   377.8230    25.1400     5.2990    16.5830    20.1510    17.0390    -8.1270 
  229.5000   377.5520    23.4250     5.1660    16.6230    19.9070    16.0320    -7.8460 
  229.6250   379.2860    23.2650     5.1930    11.7820    18.6160    20.6670    -7.4530 
  229.7500   384.1090    23.6480     5.2370     7.1530    10.2260    23.2950    -7.0600 
  229.8750   392.0660    24.0920     4.9330     5.4420     7.6760    16.7660    -6.6980 
  230.0000   401.3420    23.6240     4.6940     4.8070     6.2620    23.1180    -6.3460 
  230.1250   409.4880    22.8690     4.6130     4.4940     5.8820     3.2410    -6.0220 
  230.2500   413.6310    23.1570     4.7620     4.5920     5.5400     3.3560    -5.7530 
  230.3750   407.6780    23.6640     4.9570     4.7460     5.8520     3.5750    -5.4840 
  230.5000   402.0520    24.2620     4.8630     4.9810     6.2510     3.8250    -5.3060 
  230.6250   399.8790    23.8030     4.8770     5.4660     6.6900     4.4510    -5.1730 
  230.7500   399.6600    23.8050     4.9000     6.0880     7.1450     4.9370    -5.2570 
  230.8750   399.4410    24.1990     5.0690     5.2350     7.5780     5.1060    -5.3400 
  231.0000   400.8410    24.5720     5.1150     5.9790     7.8010     4.7460    -5.4960 
  231.1250   403.2380    24.7590     5.3510     7.3610     7.6300     4.5030    -5.6780 
  231.2500   407.9590    24.4610     5.2400     6.2120     7.4600     5.0590    -5.8740 
  231.3750   410.7630    24.0470     5.0330     5.2750     6.9900     5.6160    -6.0680 
  231.5000   408.2790    23.7870     5.1270     4.6840     6.5560     5.3110    -6.1400 
  231.6250   407.5800    23.8560     4.8750     4.5440     6.4680     4.2230    -6.2130 
  231.7500   410.5920    24.0820     4.9970     5.0190     6.3790     4.1720    -6.2350 
  231.8750   416.4360    24.4200     4.8000     5.5780     6.2910     4.4550    -6.2550 
  232.0000   412.9540    24.3710     4.8960     6.0450     6.7340     5.1550    -6.2680 
  232.1250   405.5780    24.0290     4.9540     5.6740     7.0800     4.1020    -6.2690 
  232.2500   396.1430    23.7050     4.9290     4.9570     7.0420     3.6430    -6.2400 
  232.3750   397.1770    23.8520     5.0950     4.4710     6.5970     4.1280    -6.1370 
  232.5000   401.6780    23.3270     5.2050     4.3340     6.1960     4.6720    -5.9850 
  232.6250   406.9950    23.4920     5.4450     4.6900     5.8800     5.1020    -5.7440 
  232.7500   412.3640    23.8910     5.3560     5.2910     6.3910     4.6620    -5.5690 
  232.8750   415.4780    23.9680     5.2800     5.5460     6.8330     3.9690    -5.4020 
  233.0000   413.4460    23.4210     5.3980     5.0930     7.0280     3.5050    -5.3530 
  233.1250   408.8760    22.8740     5.3440     4.5180     6.4660     4.1070    -5.3330 
  233.2500   403.9030    22.6930     5.3050     4.5090     5.8130     5.0480    -5.3780 
  233.3750   400.2120    22.7880     5.4270     5.1320     5.5400     4.4060    -5.5250 
  233.5000   403.5890    22.8900     5.6100     5.8320     5.5380     3.7350    -5.6730 
  233.6250   408.5920    22.7450     5.4750     6.7760     5.8900     3.6670    -5.8510 
