~V
VERS. 2.00: Ver 2.00
~W
STRT.M 20.0000:
STOP.M 315.0000:
STEP.M 0.1250:
NULL. -999.2500:
UWI. Z112:
~C
DEPT.M :
AC.US/MT :
CALI.CM :
GR.API :
RI. :
RML.OHMM :
RXO.OHMM :
SP.MV :
~A
# ...
  267.5000   357.9100    22.4180     7.9430     6.6740     7.8760     9.3630   -14.0210 
  267.6250   363.8890    22.3820     7.8520     7.3760     7.1380     7.5740   -14.1800 
  267.7500   367.5110    22.2010     8.0030     6.5330     7.5540     5.9620   -14.3250 
  267.8750   362.2970    21.9210     7.8400     5.9020     6.9230     6.7340   -14.4610 
  268.0000   356.0280    21.6740     7.7860     5.7450     6.3540     8.2240   -14.5860 
  268.1250   353.7190    21.5040     7.9170     6.0210     6.2820     8.0140   -14.7110 
  268.2500   355.3610    21.6920     7.8780     6.6040     6.5030     6.8090   -14.7480 
  268.3750   357.0030    22.0190     7.8470     6.9600     6.7610     6.6380   -14.7850 
  268.5000   359.2170    22.4060     7.7650     6.4140     7.4580     7.9830   -14.7920 
  268.6250   362.1330    22.5060     7.7610     6.1560     7.7800     7.6370   -14.7150 
  268.7500   364.6140    22.1560     7.9250     5.9200     7.8070     6.7400   -14.5920 
  268.8750   360.2890    21.8840     8.1240     6.3720     7.7000     7.8280   -14.3770 
  269.0000   354.2230    21.8130     7.9610     7.0690     7.4090     7.6060   -14.2280 
  269.1250   347.9300    22.0580     7.7470     7.4110     7.1640     6.9620   -14.3820 
  269.2500   342.5010    22.1710     7.5240     6.8650     7.1610     8.0710   -14.6340 
  269.3750   341.8140    21.8990     7.6500     6.7150     7.1590     8.0450   -14.7650 
  269.5000   344.8740    21.6740     8.0420     7.0540     7.3490     7.9920   -14.8710 
  269.6250   349.2160    21.9810     7.9500     7.5340     8.1030     9.4790   -14.8920 
  269.7500   354.1400    22.3290     7.8730     7.1350     7.8920     7.8870   -14.9130 
  269.8750   358.6040    22.2030     7.9590     7.9340     6.9370     6.4890   -14.6250 
  270.0000   362.1240    21.8290     7.7430     7.6060     7.2240     6.8800   -14.2740 
  270.1250   361.8920    21.5030     7.6150     6.5370     7.8050     7.0860   -14.0440 
  270.2500   360.8840    21.3170     7.6110     5.8440     7.7650     6.3270   -13.9780 
  270.3750   360.8880    21.4080     7.5780     5.9300     7.0570     5.9610   -14.0020 
  270.5000   365.3770    21.6830     7.4560     6.0540     6.4960     6.6760   -14.0660 
  270.6250   366.2120    22.0140     7.6720     6.5680     6.1070     7.2490   -14.2080 
  270.7500   360.2980    21.7790     7.6100     7.2450     6.0350     6.1530   -14.4020 
  270.8750   358.8210    21.5380     7.7850     7.3240     6.2190     6.7080   -14.6430 
  271.0000   363.2460    21.4200     7.7880     6.7460     6.7930     9.4220   -14.8410 
  271.1250   369.3910    21.5980     7.6960     6.1600     6.9170     6.2200   -14.7930 
  271.2500   367.1540    21.9150     7.7950     5.6910     6.3510     5.0490   -14.5950 
  271.3750   360.8610    22.2050     7.9200     5.4110     6.1310     5.9520   -14.5330 
  271.5000   349.2720    22.2180     7.9980     5.9270     5.9350     7.4170   -14.6570 
  271.6250   336.3580    22.0470     8.2380     6.8750     5.9910     7.1540   -14.8600 
  271.7500   327.4710    21.8450     8.2930     7.9130     6.4940     9.8890   -15.1250 
  271.8750   325.6600    21.6500     8.3430     9.0470     7.2230     9.3920   -15.3940 
  272.0000   329.3230    21.6040     8.3160     9.0450     8.3380     9.4970   -15.6800 
  272.1250   333.2470    21.7470     8.4250     8.7540     9.3220     8.1310   -15.8990 
  272.2500   334.9520    22.0140     8.0050     8.4410     9.3420    10.5320   -15.9690 
  272.3750   324.9010    22.3060     7.6150     8.5580     8.9510    10.0280   -16.0380 
  272.5000   317.6800    22.2150     7.7990     9.3660     8.7140    10.9180   -16.0890 
  272.6250   315.6210    21.9500     7.7380    11.2450     9.9910    15.9820   -16.1140 
  272.7500   318.2590    21.8220     7.7310    13.4710    11.9780    14.1510   -16.0510 
  272.8750   323.0980    21.7960     7.9150    12.6210    12.8800    15.1170   -15.8100 
  273.0000   329.9220    22.0210     7.8470    10.9360    12.2440    11.7690   -15.4270 
  273.1250   339.9700    22.2430     7.8990     8.8780    10.2590    11.5040   -15.0750 
  273.2500   353.4650    21.9810     7.8580     7.1000     8.5950    11.2090   -14.8680 
  273.3750   366.2460    21.7430     7.6450     5.8550     7.7260     7.8560   -14.7800 
  273.5000   373.9270    21.7400     7.4780     5.6590     7.2480     6.5170   -14.7180 
  273.6250   372.7550    22.0110     7.5570     6.2510     6.9750     6.9640   -14.6900 
  273.7500   370.7570    22.2350     7.6610     6.9850     6.9730     6.9830   -14.7120 
  273.8750   368.9680    22.2050     7.4110     7.1060     7.0370     7.4280   -14.7700 
  274.0000   369.0530    21.9320     7.3660     6.4810     7.1740     7.0150   -15.0250 
  274.1250   372.3680    21.6830     7.5020     6.1940     7.3510     6.6270   -15.3870 
  274.2500   365.3490    21.6050     7.7310     5.9260     7.2640     6.5590   -15.8870 
  274.3750   356.7100    21.5810     7.6710     5.8440     7.0900     6.5560   -16.2850 
  274.5000   350.4100    21.7600     7.9060     5.9840     6.5250     6.7380   -16.6400 
  274.6250   342.3820    21.9890     7.9760     6.5430     6.3930     7.3240   -16.9530 
  274.7500   334.5750    22.0280     8.0320     7.2010     6.5100     8.0380   -17.2170 
  274.8750   326.8410    21.9030     8.0730     8.0680     7.2830     9.0730   -17.4090 
  275.0000   318.9350    21.7730     7.9530     9.0720     8.1470    10.2910   -17.5580 
  275.1250   312.1100    21.6340     7.8120    10.0680     9.0950    12.5430   -17.6150 
  275.2500   304.7610    21.6230     7.6890    11.2540    10.1710    13.1450   -17.4880 
  275.3750   307.7540    21.8210     7.5800    12.4000    11.2180    12.2940   -17.2050 
  275.5000   312.3230    22.1310     7.5200    12.0610    12.3290    13.6710   -16.7920 
  275.6250   327.3470    22.2110     7.7360    11.5750    13.0710    19.0000   -16.3410 
  275.7500   349.7620    21.9390     7.9030    11.6460    12.9430    17.3030   -15.8160 
  275.8750   368.1160    21.6710     8.0030    10.1120    12.1860    12.9750   -15.2910 
  276.0000   400.9170    21.6170     8.1680     6.1430    10.2990     7.7340   -14.6800 
  276.1250   424.9860    21.9630     7.8480     6.4980     8.4230     7.3610   -14.2000 
  276.2500   442.1230    22.3120     7.8840     6.9550     7.2970     7.3960   -14.1140 
  276.3750   443.9550    22.6870     8.0080     7.4210     6.8730     7.5060   -14.3650 
  276.5000   387.8200    22.8590     8.0890     7.2200     6.6380     6.4920   -14.7030 
  276.6250   387.6350    22.6540     7.8810     6.9520     6.9480     6.9500   -15.0000 
  276.7500   390.1230    22.4040     7.8240     6.7200     7.2570     7.2000   -15.2670 
  276.8750   375.9390    22.0930     8.0860     7.3080     7.7260     6.1010   -15.5240 
  277.0000   377.0070    22.0470     8.1820     7.1180     8.2230     6.8930   -15.7490 
  277.1250   379.4320    22.2950     8.0670     6.5720     8.2730     7.0810   -15.8280 
  277.2500   382.3970    22.7380     8.0810     6.2250     8.2540     6.1300   -15.8460 
  277.3750   386.5090    23.2070     7.9330     6.2290     7.5260     7.0390   -15.6280 
  277.5000   378.7940    22.9880     8.2370     7.1730     7.3050     9.0670   -15.4260 
  277.6250   380.3030    22.6770     8.0810     7.6580     7.4810     8.8680   -15.3230 
  277.7500   382.1530    22.2620     7.9550     7.3460     7.8380     7.5910   -15.2190 
  277.8750   370.4570    21.8050     7.8970     6.8930     8.2200     6.7340   -15.1680 
  278.0000   358.5380    21.6720     7.7460     6.8370     8.1930     6.4960   -15.1320 
  278.1250   349.7430    21.5260     7.7160     7.7530     7.5100     7.8660   -15.0980 
  278.2500   346.7600    21.4470     7.7660     9.2530     7.6400    10.6480   -15.0980 
  278.3750   347.2460    21.4460     7.8550     9.2120     8.2910    10.0000   -15.3380 
  278.5000   349.3020    21.4610     8.0270     8.4810     8.9420     9.5310   -15.7860 
  278.6250   351.8110    21.4860     8.2990     7.7130     9.3010     9.3930   -16.2860 
