~V
VERS. 2.00: Ver 2.00
~W
STRT.M 20.0000:
STOP.M 315.0000:
STEP.M 0.1250:
NULL. -999.2500:
UWI. Z112:
~C
DEPT.M :
AC.US/MT :
CALI.CM :
GR.API :
RI. :
RML.OHMM :
RXO.OHMM :
SP.MV :
~A
# ...
   42.5000     0.0000     0.0000     0.0000     0.0000     0.0000     0.0000     0.0000 
   42.6250     0.0000     0.0000     0.0000     0.0000     0.0000     0.0000     0.0000 
   42.7500     0.0000     0.0000     0.0000     0.0000     0.0000     0.0000     0.0000 
   42.8750     0.0000     0.0000     0.0000     0.0000     0.0000     0.0000     0.0000 
   43.0000     0.0000     0.0000     0.0000     0.0000     0.0000     0.0000     0.0000 
   43.1250     0.0000     0.0000     0.0000     0.0000     0.0000     0.0000     0.0000 
   43.2500     0.0000     0.0000     0.0000     0.0000     0.0000     0.0000     0.0000 
   43.3750     0.0000     0.0000     0.0000     0.0000     0.0000     0.0000     0.0000 
   43.5000     0.0000     0.0000     0.0000     0.0000     0.0000     0.0000     0.0000 
   43.6250     0.0000     0.0000     0.0000     0.0000     0.0000     0.0000     0.0000 
   43.7500     0.0000     0.0000     0.0000     0.0000     0.0000     0.0000     0.0000 
   43.8750     0.0000     0.0000     0.0000     0.0000     0.0000     0.0000     0.0000 
   44.0000     0.0000     0.0000     0.0000     0.0000     0.0000     0.0000     0.0000 
   44.1250     0.0000     0.0000     0.0000     0.0000     0.0000     0.0000     0.0000 
   44.2500     0.0000     0.0000     0.0000     0.0000     0.0000     0.0000     0.0000 
   44.3750     0.0000     0.0000     0.0000     0.0000     0.0000     0.0000     0.0000 
   44.5000     0.0000     0.0000     0.0000     0.0000     0.0000     0.0000     0.0000 
   44.6250     0.0000     0.0000     0.0000     0.0000     0.0000     0.0000     0.0000 
   44.7500     0.0000     0.0000     0.0000     0.0000     0.0000     0.0000     0.0000 
   44.8750     0.0000     0.0000     0.0000     0.0000     0.0000     0.0000     0.0000 
   45.0000     0.0000     0.0000     0.0000     0.0000     0.0000     0.0000     0.0000 
   45.1250     0.0000     0.0000     0.0000     0.0000     0.0000     0.0000     0.0000 
   45.2500     0.0000     0.0000     0.0000     0.0000     0.0000     0.0000     0.0000 
   45.3750     0.0000     0.0000     0.0000     0.0000     0.0000     0.0000     0.0000 
   45.5000     0.0000     0.0000     0.0000     0.0000     0.0000     0.0000     0.0000 
   45.6250     0.0000     0.0000     0.0000     0.0000     0.0000     0.0000     0.0000 
   45.7500     0.0000     0.0000     0.0000     0.0000     0.0000     0.0000     0.0000 
   45.8750     0.0000     0.0000     0.0000     0.0000     0.0000     0.0000     0.0000 
   46.0000     0.0000     0.0000     0.0000     0.0000     0.0000     0.0000     0.0000 
   46.1250     0.0000     0.0000     0.0000     0.0000     0.0000     0.0000     0.0000 
   46.2500     0.0000     0.0000     0.0000     0.0000     0.0000     0.0000     0.0000 
   46.3750     0.0000     0.0000     0.0000     0.0000     0.0000     0.0000     0.0000 
   46.5000     0.0000     0.0000     0.0000     0.0000     0.0000     0.0000     0.0000 
   46.6250     0.0000     0.0000     0.0000     0.0000     0.0000     0.0000     0.0000 
   46.7500     0.0000     0.0000     0.0000     0.0000     0.0000     0.0000     0.0000 
   46.8750     0.0000     0.0000     0.0000     0.0000     0.0000     0.0000     0.0000 
   47.0000     0.0000     0.0000     0.0000     0.0000     0.0000     0.0000     0.0000 
   47.1250     0.0000     0.0000     0.0000     0.0000     0.0000     0.0000     0.0000 
   47.2500     0.0000     0.0000     0.0000     0.0000     0.0000     0.0000     0.0000 
   47.3750     0.0000     0.0000     0.0000     0.0000     0.0000     0.0000     0.0000 
   47.5000     0.0000     0.0000     0.0000     0.0000     0.0000     0.0000     0.0000 
   47.6250     0.0000     0.0000     0.0000     0.0000     0.0000     0.0000     0.0000 
   47.7500     0.0000     0.0000     0.0000     0.0000     0.0000     0.0000     0.0000 
   47.8750     0.0000     0.0000     0.0000     0.0000     0.0000     0.0000     0.0000 
   48.0000     0.0000     0.0000     0.0000     0.0000     0.0000     0.0000     0.0000 
   48.1250     0.0000     0.0000     0.0000     0.0000     0.0000     0.0000     0.0000 
   48.2500     0.0000     0.0000     0.0000     0.0000     0.0000     0.0000     0.0000 
   48.3750     0.0000     0.0000     0.0000     0.0000     0.0000     0.0000     0.0000 
   48.5000     0.0000     0.0000     0.0000     0.0000     0.0000     0.0000     0.0000 
   48.6250     0.0000     0.0000     0.0000     0.0000     0.0000     0.0000     0.0000 
   48.7500     0.0000     0.0000     0.0000     0.0000     0.0000     0.0000     0.0000 
   48.8750     0.0000     0.0000     0.0000     0.0000     0.0000     0.0000     0.0000 
   49.0000     0.0000     0.0000     0.0000     0.0000     0.0000     0.0000     0.0000 
   49.1250     0.0000     0.0000     0.0000     0.0000     0.0000     0.0000     0.0000 
   49.2500     0.0000     0.0000     0.0000     0.0000     0.0000     0.0000     0.0000 
   49.3750     0.0000     0.0000     0.0000     0.0000     0.0000     0.0000     0.0000 
   49.5000     0.0000     0.0000     0.0000     0.0000     0.0000     0.0000     0.0000 
   49.6250     0.0000     0.0000     0.0000     0.0000     0.0000     0.0000     0.0000 
   49.7500     0.0000     0.0000     0.0000     0.0000     0.0000     0.0000     0.0000 
   49.8750     0.0000     0.0000     0.0000     0.0000     0.0000     0.0000     0.0000 
   50.0000     0.0000     0.0000     0.0000     0.0000     0.0000     0.0000     0.0000 
   50.1250     0.0000     0.0000     0.0000     0.0000     0.0000     0.0000     0.0000 
   50.2500     0.0000     0.0000     0.0000     0.0000     0.0000     0.0000     0.0000 
   50.3750     0.0000     0.0000     0.0000     0.0000     0.0000     0.0000     0.0000 
   50.5000     0.0000     0.0000     0.0000     0.0000     0.0000     0.0000     0.0000 
   50.6250     0.0000     0.0000     0.0000     0.0000     0.0000     0.0000     0.0000 
   50.7500     0.0000     0.0000     0.0000     0.0000     0.0000     0.0000     0.0000 
   50.8750     0.0000     0.0000     0.0000     0.0000     0.0000     0.0000     0.0000 
   51.0000     0.0000     0.0000     0.0000     0.0000     0.0000     0.0000     0.0000 
   51.1250     0.0000     0.0000     0.0000     0.0000     0.0000     0.0000     0.0000 
   51.2500     0.0000     0.0000     0.0000     0.0000     0.0000     0.0000     0.0000 
   51.3750     0.0000     0.0000     0.0000     0.0000     0.0000     0.0000     0.0000 
   51.5000     0.0000     0.0000     0.0000     0.0000     0.0000     0.0000     0.0000 
   51.6250     0.0000     0.0000     0.0000     0.0000     0.0000     0.0000     0.0000 
   51.7500     0.0000     0.0000     0.0000     0.0000     0.0000     0.0000     0.0000 
   51.8750     0.0000     0.0000     0.0000     0.0000     0.0000     0.0000     0.0000 
   52.0000     0.0000     0.0000     0.0000     0.0000     0.0000     0.0000     0.0000 
   52.1250     0.0000     0.0000     0.0000     0.0000     0.0000     0.0000     0.0000 
   52.2500     0.0000     0.0000     0.0000     0.0000     0.0000     0.0000     0.0000 
   52.3750     0.0000     0.0000     0.0000     0.0000     0.0000     0.0000     0.0000 
   52.5000     0.0000     0.0000     0.0000     0.0000     0.0000     0.0000     0.0000 
   52.6250     0.0000     0.0000     0.0000     0.0000     0.0000     0.0000     0.0000 
   52.7500     0.0000     0.0000     0.0000     0.0000     0.0000     0.0000     0.0000 
   52.8750     0.0000     0.0000     0.0000     0.0000     0.0000     0.0000     0.0000 
   53.0000     0.0000     0.0000     0.0000     0.0000     0.0000     0.0000     0.0000 
   53.1250     0.0000     0.0000     0.0000     0.0000     0.0000     0.0000     0.0000 
   53.2500     0.0000     0.0000     0.0000     0.0000     0.0000     0.0000     0.0000 
   53.3750     0.0000     0.0000     0.0000     0.0000     0.0000     0.0000     0.0000 
   53.5000     0.0000     0.0000     0.0000     0.0000     0.0000     0.0000     0.0000 
   53.6250     0.0000     0.0000     0.0000     0.0000     0.0000     0.0000     0.0000 
