~V
VERS. 2.00: Ver 2.00
~W
STRT.M 20.0000:
STOP.M 315.0000:
STEP.M 0.1250:
NULL. -999.2500:
UWI. Z112:
~C
DEPT.M :
AC.US/MT :
CALI.CM :
GR.API :
RI. :
RML.OHMM :
RXO.OHMM :
SP.MV :
~A
   20.0000     0.0000     0.0000     0.0000     0.0000     0.0000     0.0000     0.0000 
   20.1250     0.0000     0.0000     0.0000     0.0000     0.0000     0.0000     0.0000 
   20.2500     0.0000     0.0000     0.0000     0.0000     0.0000     0.0000     0.0000 
   20.3750     0.0000     0.0000     0.0000     0.0000     0.0000     0.0000     0.0000 
   20.5000     0.0000     0.0000     0.0000     0.0000     0.0000     0.0000     0.0000 
   20.6250     0.0000     0.0000     0.0000     0.0000     0.0000     0.0000     0.0000 
   20.7500     0.0000     0.0000     0.0000     0.0000     0.0000     0.0000     0.0000 
   20.8750     0.0000     0.0000     0.0000     0.0000     0.0000     0.0000     0.0000 
   21.0000     0.0000     0.0000     0.0000     0.0000     0.0000     0.0000     0.0000 
   21.1250     0.0000     0.0000     0.0000     0.0000     0.0000     0.0000     0.0000 
   21.2500     0.0000     0.0000     0.0000     0.0000     0.0000     0.0000     0.0000 
   21.3750     0.0000     0.0000     0.0000     0.0000     0.0000     0.0000     0.0000 
   21.5000     0.0000     0.0000     0.0000     0.0000     0.0000     0.0000     0.0000 
   21.6250     0.0000     0.0000     0.0000     0.0000     0.0000     0.0000     0.0000 
   21.7500     0.0000     0.0000     0.0000     0.0000     0.0000     0.0000     0.0000 
   21.8750     0.0000     0.0000     0.0000     0.0000     0.0000     0.0000     0.0000 
   22.0000     0.0000     0.0000     0.0000     0.0000     0.0000     0.0000     0.0000 
   22.1250     0.0000     0.0000     0.0000     0.0000     0.0000     0.0000     0.0000 
   22.2500     0.0000     0.0000     0.0000     0.0000     0.0000     0.0000     0.0000 
   22.3750     0.0000     0.0000     0.0000     0.0000     0.0000     0.0000     0.0000 
   22.5000     0.0000     0.0000     0.0000     0.0000     0.0000     0.0000     0.0000 
   22.6250     0.0000     0.0000     0.0000     0.0000     0.0000     0.0000     0.0000 
   22.7500     0.0000     0.0000     0.0000     0.0000     0.0000     0.0000     0.0000 
   22.8750     0.0000     0.0000     0.0000     0.0000     0.0000     0.0000     0.0000 
   23.0000     0.0000     0.0000     0.0000     0.0000     0.0000     0.0000     0.0000 
   23.1250     0.0000     0.0000     0.0000     0.0000     0.0000     0.0000     0.0000 
   23.2500     0.0000     0.0000     0.0000     0.0000     0.0000     0.0000     0.0000 
   23.3750     0.0000     0.0000     0.0000     0.0000     0.0000     0.0000     0.0000 
   23.5000     0.0000     0.0000     0.0000     0.0000     0.0000     0.0000     0.0000 
   23.6250     0.0000     0.0000     0.0000     0.0000     0.0000     0.0000     0.0000 
   23.7500     0.0000     0.0000     0.0000     0.0000     0.0000     0.0000     0.0000 
   23.8750     0.0000     0.0000     0.0000     0.0000     0.0000     0.0000     0.0000 
   24.0000     0.0000     0.0000     0.0000     0.0000     0.0000     0.0000     0.0000 
   24.1250     0.0000     0.0000     0.0000     0.0000     0.0000     0.0000     0.0000 
   24.2500     0.0000     0.0000     0.0000     0.0000     0.0000     0.0000     0.0000 
   24.3750     0.0000     0.0000     0.0000     0.0000     0.0000     0.0000     0.0000 
   24.5000     0.0000     0.0000     0.0000     0.0000     0.0000     0.0000     0.0000 
   24.6250     0.0000     0.0000     0.0000     0.0000     0.0000     0.0000     0.0000 
   24.7500     0.0000     0.0000     0.0000     0.0000     0.0000     0.0000     0.0000 
   24.8750     0.0000     0.0000     0.0000     0.0000     0.0000     0.0000     0.0000 
   25.0000     0.0000     0.0000     0.0000     0.0000     0.0000     0.0000     0.0000 
   25.1250     0.0000     0.0000     0.0000     0.0000     0.0000     0.0000     0.0000 
   25.2500     0.0000     0.0000     0.0000     0.0000     0.0000     0.0000     0.0000 
   25.3750     0.0000     0.0000     0.0000     0.0000     0.0000     0.0000     0.0000 
   25.5000     0.0000     0.0000     0.0000     0.0000     0.0000     0.0000     0.0000 
   25.6250     0.0000     0.0000     0.0000     0.0000     0.0000     0.0000     0.0000 
   25.7500     0.0000     0.0000     0.0000     0.0000     0.0000     0.0000     0.0000 
   25.8750     0.0000     0.0000     0.0000     0.0000     0.0000     0.0000     0.0000 
   26.0000     0.0000     0.0000     0.0000     0.0000     0.0000     0.0000     0.0000 
   26.1250     0.0000     0.0000     0.0000     0.0000     0.0000     0.0000     0.0000 
   26.2500     0.0000     0.0000     0.0000     0.0000     0.0000     0.0000     0.0000 
   26.3750     0.0000     0.0000     0.0000     0.0000     0.0000     0.0000     0.0000 
   26.5000     0.0000     0.0000     0.0000     0.0000     0.0000     0.0000     0.0000 
   26.6250     0.0000     0.0000     0.0000     0.0000     0.0000     0.0000     0.0000 
   26.7500     0.0000     0.0000     0.0000     0.0000     0.0000     0.0000     0.0000 
   26.8750     0.0000     0.0000     0.0000     0.0000     0.0000     0.0000     0.0000 
   27.0000     0.0000     0.0000     0.0000     0.0000     0.0000     0.0000     0.0000 
   27.1250     0.0000     0.0000     0.0000     0.0000     0.0000     0.0000     0.0000 
   27.2500     0.0000     0.0000     0.0000     0.0000     0.0000     0.0000     0.0000 
   27.3750     0.0000     0.0000     0.0000     0.0000     0.0000     0.0000     0.0000 
   27.5000     0.0000     0.0000     0.0000     0.0000     0.0000     0.0000     0.0000 
   27.6250     0.0000     0.0000     0.0000     0.0000     0.0000     0.0000     0.0000 
   27.7500     0.0000     0.0000     0.0000     0.0000     0.0000     0.0000     0.0000 
   27.8750     0.0000     0.0000     0.0000     0.0000     0.0000     0.0000     0.0000 
   28.0000     0.0000     0.0000     0.0000     0.0000     0.0000     0.0000     0.0000 
   28.1250     0.0000     0.0000     0.0000     0.0000     0.0000     0.0000     0.0000 
   28.2500     0.0000     0.0000     0.0000     0.0000     0.0000     0.0000     0.0000 
   28.3750     0.0000     0.0000     0.0000     0.0000     0.0000     0.0000     0.0000 
   28.5000     0.0000     0.0000     0.0000     0.0000     0.0000     0.0000     0.0000 
   28.6250     0.0000     0.0000     0.0000     0.0000     0.0000     0.0000     0.0000 
   28.7500     0.0000     0.0000     0.0000     0.0000     0.0000     0.0000     0.0000 
   28.8750     0.0000     0.0000     0.0000     0.0000     0.0000     0.0000     0.0000 
   29.0000     0.0000     0.0000     0.0000     0.0000     0.0000     0.0000     0.0000 
   29.1250     0.0000     0.0000     0.0000     0.0000     0.0000     0.0000     0.0000 
   29.2500     0.0000     0.0000     0.0000     0.0000     0.0000     0.0000     0.0000 
   29.3750     0.0000     0.0000     0.0000     0.0000     0.0000     0.0000     0.0000 
   29.5000     0.0000     0.0000     0.0000     0.0000     0.0000     0.0000     0.0000 
   29.6250     0.0000     0.0000     0.0000     0.0000     0.0000     0.0000     0.0000 
   29.7500     0.0000     0.0000     0.0000     0.0000     0.0000     0.0000     0.0000 
   29.8750     0.0000     0.0000     0.0000     0.0000     0.0000     0.0000     0.0000 
   30.0000     0.0000     0.0000     0.0000     0.0000     0.0000     0.0000     0.0000 
   30.1250     0.0000     0.0000     0.0000     0.0000     0.0000     0.0000     0.0000 
   30.2500     0.0000     0.0000     0.0000     0.0000     0.0000     0.0000     0.0000 
   30.3750     0.0000     0.0000     0.0000     0.0000     0.0000     0.0000     0.0000 
   30.5000     0.0000     0.0000     0.0000     0.0000     0.0000     0.0000     0.0000 
   30.6250     0.0000     0.0000     0.0000     0.0000     0.0000     0.0000     0.0000 
   30.7500     0.0000     0.0000     0.0000     0.0000     0.0000     0.0000     0.0000 
   30.8750     0.0000     0.0000     0.0000     0.0000     0.0000     0.0000     0.0000 
   31.0000     0.0000     0.0000     0.0000     0.0000     0.0000     0.0000     0.0000 
   31.1250     0.0000     0.0000     0.0000     0.0000     0.0000     0.0000     0.0000 
