~V
VERS. 2.00: Ver 2.00
~W
STRT.M 20.0000:
STOP.M 315.0000:
STEP.M 0.1250:
NULL. -999.2500:
UWI. Z112:
~C
DEPT.M :
AC.US/MT :
CALI.CM :
GR.API :
RI. :
RML.OHMM :
RXO.OHMM :
SP.MV :
~A
# ...
   98.7500     0.0000     0.0000     0.0000     0.0000     0.0000     0.0000     0.0000 
   98.8750     0.0000     0.0000     0.0000     0.0000     0.0000     0.0000     0.0000 
   99.0000     0.0000     0.0000     0.0000     0.0000     0.0000     0.0000     0.0000 
   99.1250     0.0000     0.0000     0.0000     0.0000     0.0000     0.0000     0.0000 
   99.2500     0.0000     0.0000     0.0000     0.0000     0.0000     0.0000     0.0000 
   99.3750     0.0000     0.0000     0.0000     0.0000     0.0000     0.0000     0.0000 
   99.5000     0.0000     0.0000     0.0000     0.0000     0.0000     0.0000     0.0000 
   99.6250     0.0000     0.0000     0.0000     0.0000     0.0000     0.0000     0.0000 
   99.7500     0.0000     0.0000     0.0000     0.0000     0.0000     0.0000     0.0000 
   99.8750     0.0000     0.0000     0.0000     0.0000     0.0000     0.0000     0.0000 
  100.0000     0.0000     0.0000     0.0000     0.0000     0.0000     0.0000     0.0000 
  100.1250     0.0000     0.0000     0.0000     0.0000     0.0000     0.0000     0.0000 
  100.2500     0.0000     0.0000     0.0000     0.0000     0.0000     0.0000     0.0000 
  100.3750     0.0000     0.0000     0.0000     0.0000     0.0000     0.0000     0.0000 
  100.5000     0.0000     0.0000     0.0000     0.0000     0.0000     0.0000     0.0000 
  100.6250     0.0000     0.0000     0.0000     0.0000     0.0000     0.0000     0.0000 
  100.7500     0.0000     0.0000     0.0000     0.0000     0.0000     0.0000     0.0000 
  100.8750     0.0000     0.0000     0.0000     0.0000     0.0000     0.0000     0.0000 
  101.0000     0.0000     0.0000     0.0000     0.0000     0.0000     0.0000     0.0000 
  101.1250     0.0000     0.0000     0.0000     0.0000     0.0000     0.0000     0.0000 
  101.2500     0.0000     0.0000     0.0000     0.0000     0.0000     0.0000     0.0000 
  101.3750     0.0000     0.0000     0.0000     0.0000     0.0000     0.0000     0.0000 
  101.5000     0.0000     0.0000     0.0000     0.0000     0.0000     0.0000     0.0000 
  101.6250     0.0000     0.0000     0.0000     0.0000     0.0000     0.0000     0.0000 
  101.7500     0.0000     0.0000     0.0000     0.0000     0.0000     0.0000     0.0000 
  101.8750     0.0000     0.0000     0.0000     0.0000     0.0000     0.0000     0.0000 
  102.0000     0.0000     0.0000     0.0000     0.0000     0.0000     0.0000     0.0000 
  102.1250     0.0000     0.0000     0.0000     0.0000     0.0000     0.0000     0.0000 
  102.2500     0.0000     0.0000     0.0000     0.0000     0.0000     0.0000     0.0000 
  102.3750     0.0000     0.0000     0.0000     0.0000     0.0000     0.0000     0.0000 
  102.5000     0.0000     0.0000     0.0000     0.0000     0.0000     0.0000     0.0000 
  102.6250     0.0000     0.0000     0.0000     0.0000     0.0000     0.0000     0.0000 
  102.7500     0.0000     0.0000     0.0000     0.0000     0.0000     0.0000     0.0000 
  102.8750     0.0000     0.0000     0.0000     0.0000     0.0000     0.0000     0.0000 
  103.0000     0.0000     0.0000     0.0000     0.0000     0.0000     0.0000     0.0000 
  103.1250     0.0000     0.0000     0.0000     0.0000     0.0000     0.0000     0.0000 
  103.2500     0.0000     0.0000     0.0000     0.0000     0.0000     0.0000     0.0000 
  103.3750     0.0000     0.0000     0.0000     0.0000     0.0000     0.0000     0.0000 
  103.5000     0.0000     0.0000     0.0000     0.0000     0.0000     0.0000     0.0000 
  103.6250     0.0000     0.0000     0.0000     0.0000     0.0000     0.0000     0.0000 
  103.7500     0.0000     0.0000     0.0000     0.0000     0.0000     0.0000     0.0000 
  103.8750     0.0000     0.0000     0.0000     0.0000     0.0000     0.0000     0.0000 
  104.0000     0.0000     0.0000     0.0000     0.0000     0.0000     0.0000     0.0000 
  104.1250     0.0000     0.0000     0.0000     0.0000     0.0000     0.0000     0.0000 
  104.2500     0.0000     0.0000     0.0000     0.0000     0.0000     0.0000     0.0000 
  104.3750     0.0000     0.0000     0.0000     0.0000     0.0000     0.0000     0.0000 
  104.5000     0.0000     0.0000     0.0000     0.0000     0.0000     0.0000     0.0000 
  104.6250     0.0000     0.0000     0.0000     0.0000     0.0000     0.0000     0.0000 
  104.7500     0.0000     0.0000     0.0000     0.0000     0.0000     0.0000     0.0000 
  104.8750     0.0000     0.0000     0.0000     0.0000     0.0000     0.0000     0.0000 
  105.0000     0.0000     0.0000     0.0000     0.0000     0.0000     0.0000     0.0000 
  105.1250     0.0000     0.0000     0.0000     0.0000     0.0000     0.0000     0.0000 
  105.2500     0.0000     0.0000     0.0000     0.0000     0.0000     0.0000     0.0000 
  105.3750     0.0000     0.0000     0.0000     0.0000     0.0000     0.0000     0.0000 
  105.5000     0.0000     0.0000     0.0000     0.0000     0.0000     0.0000     0.0000 
  105.6250     0.0000     0.0000     0.0000     0.0000     0.0000     0.0000     0.0000 
  105.7500     0.0000     0.0000     0.0000     0.0000     0.0000     0.0000     0.0000 
  105.8750     0.0000     0.0000     0.0000     0.0000     0.0000     0.0000     0.0000 
  106.0000     0.0000     0.0000     0.0000     0.0000     0.0000     0.0000     0.0000 
  106.1250     0.0000     0.0000     0.0000     0.0000     0.0000     0.0000     0.0000 
  106.2500     0.0000     0.0000     0.0000     0.0000     0.0000     0.0000     0.0000 
  106.3750     0.0000     0.0000     0.0000     0.0000     0.0000     0.0000     0.0000 
  106.5000     0.0000     0.0000     0.0000     0.0000     0.0000     0.0000     0.0000 
  106.6250     0.0000     0.0000     0.0000     0.0000     0.0000     0.0000     0.0000 
  106.7500     0.0000     0.0000     0.0000     0.0000     0.0000     0.0000     0.0000 
  106.8750     0.0000     0.0000     0.0000     0.0000     0.0000     0.0000     0.0000 
  107.0000     0.0000     0.0000     0.0000     0.0000     0.0000     0.0000     0.0000 
  107.1250     0.0000     0.0000     0.0000     0.0000     0.0000     0.0000     0.0000 
  107.2500     0.0000     0.0000     0.0000     0.0000     0.0000     0.0000     0.0000 
  107.3750     0.0000     0.0000     0.0000     0.0000     0.0000     0.0000     0.0000 
  107.5000     0.0000     0.0000     0.0000     0.0000     0.0000     0.0000     0.0000 
  107.6250     0.0000     0.0000     0.0000     0.0000     0.0000     0.0000     0.0000 
  107.7500     0.0000     0.0000     0.0000     0.0000     0.0000     0.0000     0.0000 
  107.8750     0.0000     0.0000     0.0000     0.0000     0.0000     0.0000     0.0000 
  108.0000     0.0000     0.0000     0.0000     0.0000     0.0000     0.0000     0.0000 
  108.1250     0.0000     0.0000     0.0000     0.0000     0.0000     0.0000     0.0000 
  108.2500     0.0000     0.0000     0.0000     0.0000     0.0000     0.0000     0.0000 
  108.3750     0.0000     0.0000     0.0000     0.0000     0.0000     0.0000     0.0000 
  108.5000     0.0000     0.0000     0.0000     0.0000     0.0000     0.0000     0.0000 
  108.6250     0.0000     0.0000     0.0000     0.0000     0.0000     0.0000     0.0000 
  108.7500     0.0000     0.0000     0.0000     0.0000     0.0000     0.0000     0.0000 
  108.8750     0.0000     0.0000     0.0000     0.0000     0.0000     0.0000     0.0000 
  109.0000     0.0000     0.0000     0.0000     0.0000     0.0000     0.0000     0.0000 
  109.1250     0.0000     0.0000     0.0000     0.0000     0.0000     0.0000     0.0000 
  109.2500     0.0000     0.0000     0.0000     0.0000     0.0000     0.0000     0.0000 
  109.3750     0.0000     0.0000     0.0000     0.0000     0.0000     0.0000     0.0000 
  109.5000     0.0000     0.0000     0.0000     0.0000     0.0000     0.0000     0.0000 
  109.6250     0.0000     0.0000     0.0000     0.0000     0.0000     0.0000     0.0000 
  109.7500     0.0000     0.0000     0.0000     0.0000     0.0000     0.0000     0.0000 
  109.8750     0.0000     0.0000     0.0000     0.0000     0.0000     0.0000     0.0000 
