~V
VERS. 2.00: Ver 2.00
~W
STRT.M 20.0000:
STOP.M 315.0000:
STEP.M 0.1250:
NULL. -999.2500:
UWI. Z112:
~C
DEPT.M :
AC.US/MT :
CALI.CM :
GR.API :
RI. :
RML.OHMM :
RXO.OHMM :
SP.MV :
~A
# ...
   76.2500     0.0000     0.0000     0.0000     0.0000     0.0000     0.0000     0.0000 
   76.3750     0.0000     0.0000     0.0000     0.0000     0.0000     0.0000     0.0000 
   76.5000     0.0000     0.0000     0.0000     0.0000     0.0000     0.0000     0.0000 
   76.6250     0.0000     0.0000     0.0000     0.0000     0.0000     0.0000     0.0000 
   76.7500     0.0000     0.0000     0.0000     0.0000     0.0000     0.0000     0.0000 
   76.8750     0.0000     0.0000     0.0000     0.0000     0.0000     0.0000     0.0000 
   77.0000     0.0000     0.0000     0.0000     0.0000     0.0000     0.0000     0.0000 
   77.1250     0.0000     0.0000     0.0000     0.0000     0.0000     0.0000     0.0000 
   77.2500     0.0000     0.0000     0.0000     0.0000     0.0000     0.0000     0.0000 
   77.3750     0.0000     0.0000     0.0000     0.0000     0.0000     0.0000     0.0000 
   77.5000     0.0000     0.0000     0.0000     0.0000     0.0000     0.0000     0.0000 
   77.6250     0.0000     0.0000     0.0000     0.0000     0.0000     0.0000     0.0000 
   77.7500     0.0000     0.0000     0.0000     0.0000     0.0000     0.0000     0.0000 
   77.8750     0.0000     0.0000     0.0000     0.0000     0.0000     0.0000     0.0000 
   78.0000     0.0000     0.0000     0.0000     0.0000     0.0000     0.0000     0.0000 
   78.1250     0.0000     0.0000     0.0000     0.0000     0.0000     0.0000     0.0000 
   78.2500     0.0000     0.0000     0.0000     0.0000     0.0000     0.0000     0.0000 
   78.3750     0.0000     0.0000     0.0000     0.0000     0.0000     0.0000     0.0000 
   78.5000     0.0000     0.0000     0.0000     0.0000     0.0000     0.0000     0.0000 
   78.6250     0.0000     0.0000     0.0000     0.0000     0.0000     0.0000     0.0000 
   78.7500     0.0000     0.0000     0.0000     0.0000     0.0000     0.0000     0.0000 
   78.8750     0.0000     0.0000     0.0000     0.0000     0.0000     0.0000     0.0000 
   79.0000     0.0000     0.0000     0.0000     0.0000     0.0000     0.0000     0.0000 
   79.1250     0.0000     0.0000     0.0000     0.0000     0.0000     0.0000     0.0000 
   79.2500     0.0000     0.0000     0.0000     0.0000     0.0000     0.0000     0.0000 
   79.3750     0.0000     0.0000     0.0000     0.0000     0.0000     0.0000     0.0000 
   79.5000     0.0000     0.0000     0.0000     0.0000     0.0000     0.0000     0.0000 
   79.6250     0.0000     0.0000     0.0000     0.0000     0.0000     0.0000     0.0000 
   79.7500     0.0000     0.0000     0.0000     0.0000     0.0000     0.0000     0.0000 
   79.8750     0.0000     0.0000     0.0000     0.0000     0.0000     0.0000     0.0000 
   80.0000     0.0000     0.0000     0.0000     0.0000     0.0000     0.0000     0.0000 
   80.1250     0.0000     0.0000     0.0000     0.0000     0.0000     0.0000     0.0000 
   80.2500     0.0000     0.0000     0.0000     0.0000     0.0000     0.0000     0.0000 
   80.3750     0.0000     0.0000     0.0000     0.0000     0.0000     0.0000     0.0000 
   80.5000     0.0000     0.0000     0.0000     0.0000     0.0000     0.0000     0.0000 
   80.6250     0.0000     0.0000     0.0000     0.0000     0.0000     0.0000     0.0000 
   80.7500     0.0000     0.0000     0.0000     0.0000     0.0000     0.0000     0.0000 
   80.8750     0.0000     0.0000     0.0000     0.0000     0.0000     0.0000     0.0000 
   81.0000     0.0000     0.0000     0.0000     0.0000     0.0000     0.0000     0.0000 
   81.1250     0.0000     0.0000     0.0000     0.0000     0.0000     0.0000     0.0000 
   81.2500     0.0000     0.0000     0.0000     0.0000     0.0000     0.0000     0.0000 
   81.3750     0.0000     0.0000     0.0000     0.0000     0.0000     0.0000     0.0000 
   81.5000     0.0000     0.0000     0.0000     0.0000     0.0000     0.0000     0.0000 
   81.6250     0.0000     0.0000     0.0000     0.0000     0.0000     0.0000     0.0000 
   81.7500     0.0000     0.0000     0.0000     0.0000     0.0000     0.0000     0.0000 
   81.8750     0.0000     0.0000     0.0000     0.0000     0.0000     0.0000     0.0000 
   82.0000     0.0000     0.0000     0.0000     0.0000     0.0000     0.0000     0.0000 
   82.1250     0.0000     0.0000     0.0000     0.0000     0.0000     0.0000     0.0000 
   82.2500     0.0000     0.0000     0.0000     0.0000     0.0000     0.0000     0.0000 
   82.3750     0.0000     0.0000     0.0000     0.0000     0.0000     0.0000     0.0000 
   82.5000     0.0000     0.0000     0.0000     0.0000     0.0000     0.0000     0.0000 
   82.6250     0.0000     0.0000     0.0000     0.0000     0.0000     0.0000     0.0000 
   82.7500     0.0000     0.0000     0.0000     0.0000     0.0000     0.0000     0.0000 
   82.8750     0.0000     0.0000     0.0000     0.0000     0.0000     0.0000     0.0000 
   83.0000     0.0000     0.0000     0.0000     0.0000     0.0000     0.0000     0.0000 
   83.1250     0.0000     0.0000     0.0000     0.0000     0.0000     0.0000     0.0000 
   83.2500     0.0000     0.0000     0.0000     0.0000     0.0000     0.0000     0.0000 
   83.3750     0.0000     0.0000     0.0000     0.0000     0.0000     0.0000     0.0000 
   83.5000     0.0000     0.0000     0.0000     0.0000     0.0000     0.0000     0.0000 
   83.6250     0.0000     0.0000     0.0000     0.0000     0.0000     0.0000     0.0000 
   83.7500     0.0000     0.0000     0.0000     0.0000     0.0000     0.0000     0.0000 
   83.8750     0.0000     0.0000     0.0000     0.0000     0.0000     0.0000     0.0000 
   84.0000     0.0000     0.0000     0.0000     0.0000     0.0000     0.0000     0.0000 
   84.1250     0.0000     0.0000     0.0000     0.0000     0.0000     0.0000     0.0000 
   84.2500     0.0000     0.0000     0.0000     0.0000     0.0000     0.0000     0.0000 
   84.3750     0.0000     0.0000     0.0000     0.0000     0.0000     0.0000     0.0000 
   84.5000     0.0000     0.0000     0.0000     0.0000     0.0000     0.0000     0.0000 
   84.6250     0.0000     0.0000     0.0000     0.0000     0.0000     0.0000     0.0000 
   84.7500     0.0000     0.0000     0.0000     0.0000     0.0000     0.0000     0.0000 
   84.8750     0.0000     0.0000     0.0000     0.0000     0.0000     0.0000     0.0000 
   85.0000     0.0000     0.0000     0.0000     0.0000     0.0000     0.0000     0.0000 
   85.1250     0.0000     0.0000     0.0000     0.0000     0.0000     0.0000     0.0000 
   85.2500     0.0000     0.0000     0.0000     0.0000     0.0000     0.0000     0.0000 
   85.3750     0.0000     0.0000     0.0000     0.0000     0.0000     0.0000     0.0000 
   85.5000     0.0000     0.0000     0.0000     0.0000     0.0000     0.0000     0.0000 
   85.6250     0.0000     0.0000     0.0000     0.0000     0.0000     0.0000     0.0000 
   85.7500     0.0000     0.0000     0.0000     0.0000     0.0000     0.0000     0.0000 
   85.8750     0.0000     0.0000     0.0000     0.0000     0.0000     0.0000     0.0000 
   86.0000     0.0000     0.0000     0.0000     0.0000     0.0000     0.0000     0.0000 
   86.1250     0.0000     0.0000     0.0000     0.0000     0.0000     0.0000     0.0000 
   86.2500     0.0000     0.0000     0.0000     0.0000     0.0000     0.0000     0.0000 
   86.3750     0.0000     0.0000     0.0000     0.0000     0.0000     0.0000     0.0000 
   86.5000     0.0000     0.0000     0.0000     0.0000     0.0000     0.0000     0.0000 
   86.6250     0.0000     0.0000     0.0000     0.0000     0.0000     0.0000     0.0000 
   86.7500     0.0000     0.0000     0.0000     0.0000     0.0000     0.0000     0.0000 
   86.8750     0.0000     0.0000     0.0000     0.0000     0.0000     0.0000     0.0000 
   87.0000     0.0000     0.0000     0.0000     0.0000     0.0000     0.0000     0.0000 
   87.1250     0.0000     0.0000     0.0000     0.0000     0.0000     0.0000     0.0000 
   87.2500     0.0000     0.0000     0.0000     0.0000     0.0000     0.0000     0.0000 
   87.3750     0.0000     0.0000     0.0000     0.0000     0.0000     0.0000     0.0000 
