~V
VERS. 2.00: Ver 2.00
~W
STRT.M 20.0000:
STOP.M 315.0000:
STEP.M 0.1250:
NULL. -999.2500:
UWI. Z112:
~C
DEPT.M :
AC.US/MT :
CALI.CM :
GR.API :
RI. :
RML.OHMM :
RXO.OHMM :
SP.MV :
~A
# ...
  155.0000   435.5720    22.7640     7.3450     3.8590     3.5880     3.5550    -8.0210 
  155.1250   420.6450    22.9640     7.3500     3.9770     3.6440     4.3070    -8.2200 
  155.2500   406.1550    22.4950     7.3880     4.2960     3.8530     4.6450    -8.4190 
  155.3750   403.1930    22.3070     7.4420     4.9190     4.3290     3.1420    -8.6180 
  155.5000   402.9910    22.5390     7.2600     3.7880     4.8160     3.1350    -8.7670 
  155.6250   406.8170    22.7480     7.2860     4.0630     5.3740     3.8780    -8.9080 
  155.7500   412.9600    22.1380     7.1340     5.0410     6.0660     4.7180    -9.0490 
  155.8750   420.1590    21.9350     6.9560     5.6700     6.8870     6.3320    -9.1500 
  156.0000   428.8740    22.1220     6.8310     5.5000     7.6590     4.6690    -9.2280 
  156.1250   436.9220    22.5170     6.9060     6.1960     7.0860     4.6610    -9.3070 
  156.2500   444.9700    22.8930     7.0070     5.8210     6.0320     5.2170    -9.3530 
  156.3750   448.0090    23.2380     7.1340     5.4450     5.0240     5.6310    -9.3530 
  156.5000   446.1380    22.8640     7.1820     5.2940     4.9520     4.2110    -9.3540 
  156.6250   447.9520    22.4280     6.9660     5.5170     5.2010     4.0460    -9.1680 
  156.7500   453.5710    22.2360     6.9830     6.0180     5.6890     4.6900    -8.9810 
  156.8750   464.5920    22.1680     7.0160     5.3280     6.2280     5.4420    -8.7680 
  157.0000   477.5680    22.3790     7.1400     4.9700     5.3880     5.8460    -8.5350 
  157.1250   494.3670    22.6440     7.3010     5.1330     4.8270     3.8650    -8.3020 
  157.2500   507.8220    23.0490     7.4450     5.8370     5.0030     4.4050    -8.0550 
  157.3750   419.9290    23.6450     7.5150     6.9250     5.8320     3.9930    -7.7930 
  157.5000   398.1050    24.2380     7.6560     7.2040     6.6870     2.7780    -7.6380 
  157.6250   390.6680    23.9020     7.3100     6.5370     7.6370     4.0750    -7.5740 
  157.7500   388.2800    23.1500     7.2340     6.3380     7.3800     5.7340    -7.7110 
  157.8750   387.4530    22.6070     7.2070     7.0430     6.7150     4.9750    -8.0230 
  158.0000   388.9290    23.0280     7.2330     7.2070     6.9300     5.2870    -8.2680 
  158.1250   395.5770    23.9060     7.3820     6.4240     5.8990     7.1600    -8.4000 
  158.2500   408.1150    24.3400     7.6410     5.3820     4.9570    10.1840    -8.3720 
  158.3750   422.3060    24.3350     8.2170     4.6300     4.3820    13.7700    -8.2380 
  158.5000   429.1800    25.2350     8.0580     4.6280     4.3790     3.8770    -8.0060 
  158.6250   431.5160    24.9220     8.1090     4.6980     4.3770     3.9370    -7.7970 
  158.7500   431.8940    24.1890     7.9550     5.0090     4.3740     3.9700    -7.6060 
  158.8750   430.7670    23.6950     7.7770     4.6380     4.4580     3.9680    -7.4660 
  159.0000   424.0950    23.7260     7.8460     4.0130     4.6050     4.2700    -7.5220 
  159.1250   420.5550    24.0360     7.9830     3.8210     4.7510     4.7250    -7.8470 
  159.2500   420.5750    24.1710     8.1110     4.2810     4.9280     4.6110    -8.3150 
  159.3750   421.8060    23.7310     7.9960     4.8960     4.7880     4.0630    -8.4830 
  159.5000   424.1800    22.6550     7.7880     5.1020     4.1920     4.4890    -8.5720 
  159.6250   427.2040    22.0830     7.8190     4.5970     3.8750     5.2550    -8.6050 
  159.7500   431.9640    21.9860     7.8380     4.2380     4.1730     5.6190    -8.5900 
  159.8750   436.9390    22.1360     8.0120     4.0360     4.6800     3.8840    -8.5750 
  160.0000   442.2160    22.4720     8.2020     4.5020     4.4800     4.9390    -8.4860 
  160.1250   441.1190    22.8110     8.3500     4.9480     3.6640     4.1150    -8.2420 
  160.2500   436.5240    23.1590     8.2380     5.1110     3.3350     3.1350    -7.9990 
  160.3750   429.8380    23.0890     8.2700     6.1130     3.2310     3.3980    -7.7780 
  160.5000   420.1640    22.6810     8.3780     4.7390     3.2290     3.8910    -7.5560 
  160.6250   415.2940    22.3700     8.2080     3.7410     3.2740     4.0220    -7.4140 
  160.7500   413.0490    22.1300     8.2680     3.6630     3.3580     2.7190    -7.3790 
  160.8750   413.3830    22.0090     7.9520     3.9950     3.5900     3.2490    -7.6920 
  161.0000   414.3440    21.9880     7.8640     4.4780     3.8220     3.8040    -8.2410 
  161.1250   415.4440    22.1030     7.7510     4.9460     4.1650     4.4250    -8.7170 
  161.2500   415.2100    22.2830     7.7310     5.0420     4.5990     4.5460    -8.9200 
  161.3750   414.9750    22.5150     7.7690     4.1410     4.9170     3.8570    -8.9200 
  161.5000   413.7640    22.7430     7.8060     3.7210     4.4080     3.7240    -8.8290 
  161.6250   410.6010    22.8140     7.7190     4.0760     3.8480     4.3040    -8.6120 
  161.7500   404.4040    22.6160     7.7630     4.6980     3.6660     4.7030    -8.4110 
  161.8750   394.3690    22.3410     7.4560     4.6730     3.5180     3.5940    -8.2160 
  162.0000   370.7300    22.0210     7.3630     4.1470     3.6510     3.3760    -8.1000 
  162.1250   357.3900    22.0140     7.0430     4.1770     4.0170     3.2980    -8.1950 
  162.2500   355.3300    22.2240     6.5230     4.8390     4.7180     3.3360    -8.3590 
  162.3750   353.9960    22.4470     6.0860     5.7120     5.6240     3.7630    -8.5240 
  162.5000   342.1400    22.4720     5.9860     6.8630     7.1040     4.9650    -8.8420 
  162.6250   345.1590    21.9760     5.8530     8.8420     9.0040     6.2390    -9.2260 
  162.7500   351.5920    21.5180     5.5520    11.0020    11.6580     5.4920    -9.6100 
  162.8750   367.8560    21.2060     5.3830    14.7150    24.3600    28.2100    -9.9950 
  163.0000   395.6180    21.2490     5.4100    22.3510    23.3580    42.1220   -10.2380 
  163.1250   416.0290    21.3430     5.3580    18.3510    19.5370    24.5160   -10.3540 
  163.2500   426.3740    21.4660     5.4520    17.8180    19.8330    15.0950   -10.4690 
  163.3750   427.8490    21.6380     5.5110    18.5750    20.7910    15.7790   -10.5420 
  163.5000   425.6400    21.9710     5.3440    19.4260    21.6140    16.5060   -10.5670 
  163.6250   421.8710    22.2710     5.3630    19.4540    19.0270    17.0750   -10.5920 
  163.7500   417.7900    22.4960     5.4830    16.3370    16.6200    13.4850   -10.6180 
  163.8750   412.9020    22.1850     5.6510    15.5040    16.6960    13.6410   -10.6250 
  164.0000   410.3830    21.8990     5.5070    15.7630    16.7940    14.0820   -10.6090 
  164.1250   407.6360    21.7960     5.5670    14.5640    15.6970    12.2900   -10.5930 
  164.2500   406.7710    21.9900     5.3560    12.0180    14.0650    12.9900   -10.5350 
  164.3750   406.2810    22.0930     5.3690     9.5480    12.3710     9.1720   -10.4110 
  164.5000   406.9200    21.9360     5.4290    10.1180    11.5440     7.6980   -10.2870 
  164.6250   407.9430    21.7660     5.1990    10.7990    12.0860     8.3340   -10.1640 
  164.7500   409.3870    21.6130     5.3180    11.5770    12.6270     9.0090   -10.0480 
  164.8750   410.9270    21.5090     5.2770    11.7420    13.0680     9.3840    -9.9320 
  165.0000   412.9210    21.4380     5.3760    10.3130    11.7860     7.6990    -9.8150 
  165.1250   415.4170    21.4890     5.5100     9.0730    10.5020     6.9530    -9.6990 
  165.2500   414.4710    21.7550     5.4870     8.9760    10.2330     7.3690    -9.5820 
  165.3750   411.0400    22.0300     5.5590     9.1000    10.1790     8.0330    -9.4270 
  165.5000   410.9750    22.3270     5.6940     9.4560    10.4180     8.8100    -9.2720 
  165.6250   413.2070    22.1530     5.8580     9.4120    10.8610     8.4920    -9.1170 
  165.7500   415.5170    21.9470     5.8760     9.1140    10.1720     6.2680    -8.9580 
  165.8750   417.2370    21.7070     5.8260     9.4790     9.8700     6.5010    -8.7960 
  166.0000   417.9170    21.5190     6.0560    10.0320     9.8780     7.1070    -8.6330 
  166.1250   416.0220    21.4790     6.3990     9.7690    10.1030     7.5600    -8.4810 
