~V
VERS. 2.00: Ver 2.00
~W
STRT.M 24.0000:
STOP.M 215.0000:
STEP.M 0.1250:
NULL. -999.2500:
UWI. Z114:
~C
DEPT.M :
AC.US/MT :
CALI.CM :
GR.API :
RI. :
RML.OHMM :
RXO.OHMM :
SP.MV :
~A
# ...
  192.7500   340.1600    21.5950     5.2100     5.9090     6.6540     5.6050    -0.0440 
  192.8750   375.5040    21.5210     5.2740     5.5580     6.4000     4.9230    -0.2750 
  193.0000   390.7480    21.5030     5.3100     5.1180     5.8760     4.9260    -0.5400 
  193.1250   401.6060    21.6340     5.1350     4.7340     5.4560     4.8460    -0.7320 
  193.2500   399.8180    21.6550     5.2120     4.4180     5.3620     4.3370    -0.2380 
  193.3750   396.6800    21.6560     5.2180     4.7920     5.3640     4.0300     0.3020 
  193.5000   407.8650    21.7570     5.1440     5.2240     5.7210     4.6500     0.7660 
  193.6250   422.6320    21.7590     5.1230     5.2170     5.9160     4.5040     1.1330 
  193.7500   432.2350    21.7550     4.8760     5.1310     5.6530     4.0390     1.4640 
  193.8750   429.2100    21.7030     4.7980     5.0310     5.1760     3.7300     1.6910 
  194.0000   423.5030    21.6610     4.7340     4.9540     4.9260     3.7330     1.5810 
  194.1250   418.8850    21.7120     4.7450     4.7360     4.8310     4.0460     1.3170 
  194.2500   421.3860    21.7130     4.6270     4.9400     4.7770     4.4740     1.0740 
  194.3750   424.5140    21.6660     4.5090     4.9430     5.0390     4.5110     0.8110 
  194.5000   427.7140    21.5760     4.4420     4.7690     5.2640     4.2230     0.5990 
  194.6250   431.5360    21.5110     4.5350     4.7110     5.0990     3.7740     0.5980 
  194.7500   440.9620    21.4650     4.3800     4.8510     4.8510     3.5500     0.9650 
  194.8750   454.1310    21.6600     4.2190     4.7110     4.6340     3.3400     1.2010 
  195.0000   458.5270    21.6680     4.3160     4.4790     4.4500     3.1460     1.2850 
  195.1250   455.7160    21.6130     4.5380     4.3640     4.3910     3.1480     1.3140 
  195.2500   442.6380    21.5190     4.6800     4.2620     4.3930     3.0500     1.2630 
  195.3750   435.2900    21.5200     4.8050     4.1750     4.7560     3.3630     1.1250 
  195.5000   424.1270    21.5710     4.8610     4.1660     5.3350     3.8980     0.8710 
  195.6250   414.5510    21.5720     5.0550     4.4140     5.7020     4.4400     0.5680 
  195.7500   412.0250    21.5730     5.1190     4.5730     5.9010     4.6760     0.3010 
  195.8750   414.4380    21.5730     5.0980     4.6760     5.9030     4.5750     0.0480 
  196.0000   417.6300    21.5130     5.1430     4.6790     5.8480     4.4790    -0.0730 
  196.1250   420.7280    21.4750     5.4400     4.6820     5.6030     4.5110    -0.1500 
  196.2500   423.0170    21.4250     5.6970     4.6850     5.4020     4.8230    -0.2390 
  196.3750   423.4390    21.4100     5.9780     4.4810     5.3100     4.7850    -0.3660 
  196.5000   420.5620    21.3770     6.1440     4.5270     5.3120     4.5890    -0.0260 
  196.6250   414.9940    21.3780     6.3410     4.8750     5.3140     4.6500     0.1800 
  196.7500   410.1930    21.5800     6.4450     4.8230     5.4730     4.7960     0.3430 
  196.8750   410.1260    21.5800     6.3760     4.6210     5.8580     4.7990     0.3590 
  197.0000   415.4510    21.5810     6.4170     4.7560     6.0200     4.8010    -0.2190 
  197.1250   420.4030    21.6050     6.4060     5.1920     6.0170     5.0060    -0.9000 
  197.2500   424.1290    21.6840     6.2600     4.9950     5.7060     5.0080    -1.6970 
  197.3750   425.8380    21.6350     6.1740     4.8290     5.4940     4.9410    -2.4820 
  197.5000   421.6820    21.5850     6.0510     4.4990     5.4280     4.5930    -2.9460 
  197.6250   414.1240    21.5420     6.0550     4.2610     5.4300     4.3080    -3.2510 
  197.7500   404.9650    21.4540     6.1510     4.2180     5.6000     4.6680    -3.2600 
  197.8750   396.4110    21.4120     6.2790     4.5610     5.9140     5.3800    -2.7010 
  198.0000   388.4530    21.3870     6.5150     5.1600     6.2670     6.0540    -1.7830 
  198.1250   380.0510    21.4140     6.5660     5.7700     6.6950     6.5290    -0.9550 
  198.2500   374.0160    21.6830     6.4500     6.1260     7.1290     6.9320    -0.4070 
  198.3750   380.8100    21.6910     6.4580     6.4430     7.1820     7.7560     0.0060 
  198.5000   388.7120    21.6540     6.2990     6.7430     6.6540     8.1880     0.3320 
  198.6250   396.0770    21.5730     5.7910     6.4380     6.1050     7.3080     0.4160 
  198.7500   403.7730    21.4800     5.3920     5.6640     5.7630     5.9030     0.3940 
  198.8750   408.3080    21.4440     5.2260     5.1430     5.6340     4.9390     0.2860 
  199.0000   412.6630    21.3900     5.1270     5.3090     5.4940     5.2370     0.2880 
  199.1250   419.5990    21.3450     5.1670     5.3530     5.4530     4.9430     0.3030 
  199.2500   417.9790    21.3880     5.2440     5.0140     5.4550     4.9300     0.4240 
  199.3750   414.9570    21.4470     5.1020     4.6570     5.4570     4.7460     0.5940 
  199.5000   411.8010    21.4480     4.7360     4.6330     5.4590     4.7490     0.7020 
  199.6250   408.6700    21.4490     4.6150     4.5620     5.4610     4.9290     0.7740 
  199.7500   405.7880    21.5650     4.6880     4.9660     5.5970     5.0960     0.8050 
  199.8750   404.5340    21.6210     4.7410     4.8420     5.7550     5.2610     0.7190 
  200.0000   404.1690    21.6530     4.7050     4.7550     5.8550     5.2640     0.5060 
  200.1250   406.5140    21.6540     4.9130     4.6740     5.7810     5.1970     0.2910 
  200.2500   413.3230    21.6120     5.1080     4.6610     5.5310     4.8880     0.0430 
  200.3750   423.0920    21.5780     5.2680     4.4410     5.2850     4.5380    -0.2690 
  200.5000   417.4470    21.5560     5.4810     4.2810     5.1750     4.3510    -0.6300 
  200.6250   410.7720    21.6070     5.4910     4.4410     5.2840     4.3500    -1.0270 
  200.7500   402.9850    21.6080     5.5980     5.0760     5.5980     4.9630    -1.5210 
  200.8750   397.4150    21.6090     5.6270     5.2930     5.8180     5.2130    -2.0270 
  201.0000   394.1190    21.6100     5.6660     5.1880     5.9200     5.3840    -2.5590 
  201.1250   390.1260    21.6100     5.6150     4.9700     6.0220     5.3110    -3.0600 
  201.2500   384.8170    21.6110     5.6520     4.8000     6.0860     5.0860    -3.4950 
  201.3750   384.8440    21.5660     5.7880     5.0030     6.0880     5.2900    -3.9940 
  201.5000   393.6010    21.4770     5.9060     4.9490     6.0900     5.6200    -4.4010 
  201.6250   400.8550    21.4130     5.9400     4.8090     6.0920     5.7400    -4.3110 
  201.7500   406.9400    21.5140     5.7740     5.0910     6.0940     5.4160    -3.8540 
  201.8750   408.8660    21.5150     5.6200     5.1160     6.1280     5.1990    -3.1670 
  202.0000   399.2190    21.5160     5.6540     5.1190     6.4900     5.4220    -2.4240 
  202.1250   391.9320    21.5170     5.5160     5.1210     6.7380     5.9270    -1.6400 
  202.2500   384.0030    21.5180     5.5600     5.2630     6.8020     6.1080    -0.8960 
  202.3750   383.9950    21.5060     5.4840     5.6800     6.8040     6.3200    -0.1450 
  202.5000   398.7650    21.4690     5.2500     5.8560     6.7480     6.2240     0.4960 
  202.6250   408.5470    21.4700     4.9670     5.4660     6.5510     5.7960     0.9850 
  202.7500   415.9970    21.4710     4.7260     5.0470     6.1400     5.3360     1.4670 
  202.8750   421.2250    21.4660     4.7190     4.9410     5.6850     4.9170     1.2630 
  203.0000   425.2640    21.3330     4.5940     4.9300     5.4180     4.9800     0.9080 
  203.1250   428.4950    21.2730     4.3750     4.6410     5.1150     4.8960     0.5570 
  203.2500   434.1190    21.4100     4.2790     4.4450     5.0170     4.5370     0.2880 
  203.3750   439.0650    21.5320     4.1550     4.4480     5.0190     4.3200     0.0270 
  203.5000   430.3780    21.6780     4.1720     4.6510     5.0210     4.4640    -0.1500 
  203.6250   420.6310    21.6280     4.4540     4.5790     5.0870     4.7150    -0.2490 
  203.7500   414.1430    21.7880     4.5080     4.4560     5.4460     4.8500    -0.3650 
  203.8750   404.8130    21.8810     4.5690     4.5930     5.7790     5.0100    -0.4670 
