~V
VERS. 2.00: Ver 2.00
~W
STRT.M 24.0000:
STOP.M 215.0000:
STEP.M 0.1250:
NULL. -999.2500:
UWI. Z114:
~C
DEPT.M :
AC.US/MT :
CALI.CM :
GR.API :
RI. :
RML.OHMM :
RXO.OHMM :
SP.MV :
~A
# ...
   91.5000   475.6710    22.3220     8.2730     4.8610     5.2790     4.2250    -1.1160 
   91.6250   481.0090    22.3440     8.3750     4.9380     5.1810     4.1650    -1.1140 
   91.7500   470.9890    22.2540     8.4150     4.2050     5.2000     4.2320    -1.1110 
   91.8750   457.0740    22.1950     8.4710     4.6460     5.4720     4.4490    -1.1090 
   92.0000   429.6770    22.2160     8.3370     5.7990     5.7870     4.9490    -1.1060 
   92.1250   418.3190    22.2390     8.3600     6.4900     6.4130     5.4870    -1.1040 
   92.2500   422.9590    22.1470     8.2840     6.0020     6.9910     6.4900    -1.1010 
   92.3750   436.9150    22.1810     8.1910     5.6080     6.2270     6.0530    -1.0990 
   92.5000   448.9300    22.2520     8.2850     5.5880     6.3940     4.8390    -1.0990 
   92.6250   456.9030    22.3010     8.3120     4.7110     5.7710     4.0840    -1.1190 
   92.7500   464.4090    22.3490     8.1770     4.8450     5.2240     4.0860    -1.1390 
   92.8750   468.3890    22.3520     8.0780     5.4510     5.5260     4.1500    -1.1390 
   93.0000   468.3950    22.3840     7.9930     5.6000     5.8430     4.3860    -1.1370 
   93.1250   463.5390    22.4050     8.1440     5.1560     6.1390     4.6990    -1.1690 
   93.2500   444.6100    22.3460     8.2590     5.6270     6.4810     5.2310    -1.2150 
   93.3750   419.6510    22.3060     8.1180     6.0970     6.8520     5.8160    -1.2700 
   93.5000   397.3230    22.3070     7.9580     6.7580     7.1100     6.3950    -1.3520 
   93.6250   381.3180    22.0950     7.9120     6.7020     6.9880     6.3250    -1.4320 
   93.7500   418.7220    22.0070     7.8370     5.6330     6.0370     6.1260    -1.4900 
   93.8750   433.3770    22.0370     7.5450     5.4080     5.3420     5.4990    -1.5200 
   94.0000   444.4750    22.0870     7.5930     5.7070     5.5940     5.1690    -1.5180 
   94.1250   447.8880    22.1700     7.5140     6.1230     6.2450     5.8300    -1.5150 
   94.2500   443.2030    22.2260     7.3350     6.7240     6.8720     6.4590    -1.5130 
   94.3750   442.3980    22.3270     7.2140     8.1920     8.3780     8.2670    -1.5000 
   94.5000   442.0020    22.3640     7.1690    10.8230    11.0510    11.5800    -1.4710 
   94.6250   440.9820    22.3650     6.9840    13.5810    13.3140    17.4390    -1.4320 
   94.7500   441.4200    22.3170     6.7160    15.7890    16.1680    22.2340    -1.3810 
   94.8750   445.3960    22.1150     6.7430    13.6240    15.0850    29.5040    -1.3200 
   95.0000   450.4800    22.1160     6.8080    10.4460    12.3770    31.3930    -1.2480 
   95.1250   454.9300    22.1170     7.1180    14.6520    13.7430    21.7930    -1.2100 
   95.2500   459.7200    22.0200     7.2430    18.4650    18.3740    21.0520    -1.1690 
   95.3750   458.7720    21.7880     7.3540    15.5420    14.0740    27.5710    -1.1290 
   95.5000   461.9280    21.7180     7.4630     6.3640     7.5410    24.5500    -1.0910 
   95.6250   466.1920    21.8590     7.6030     5.8840     5.3140    16.6460    -1.0840 
   95.7500   470.1350    22.1190     7.8230     5.8040     5.3070     4.4480    -1.0810 
   95.8750   471.4910    22.3640     7.8220     6.0860     5.5580     4.4990    -1.1290 
   96.0000   468.8750    22.4250     7.9870     6.1210     5.8490     4.9120    -1.1960 
   96.1250   450.5880    22.4260     8.2400     5.8520     5.3220     5.8590    -1.2790 
   96.2500   424.0890    22.1760     8.3440     5.2270     5.0530     5.4430    -1.3210 
   96.3750   454.0470    22.0100     8.3260     5.0960     5.1750     4.5380    -1.3190 
   96.5000   469.2830    21.9260     8.2390     5.6620     5.6200     4.3610    -1.3170 
   96.6250   460.6250    22.1660     8.2030     6.0290     6.1870     5.0580    -1.3140 
   96.7500   453.9510    22.2790     8.2210     6.4450     6.8130     5.6360    -1.3120 
   96.8750   448.2640    22.2330     8.0630     7.0070     7.4200     5.9850    -1.3090 
   97.0000   443.4860    22.1170     7.8120     7.2770     7.8900     6.2560    -1.2790 
   97.1250   442.8340    21.9370     7.6770     7.4130     8.3560     6.7930    -1.2140 
   97.2500   445.2310    21.7780     7.3980     7.6480     8.6510     7.2810    -1.1340 
   97.3750   447.4240    21.5010     7.3710     7.8530     8.3030     7.7120    -1.0530 
   97.5000   449.6970    21.4300     7.5720     7.4190     7.1500     7.3570    -1.0130 
   97.6250   451.4350    21.6230     7.6820     6.3560     6.4460     6.7270    -0.9930 
   97.7500   451.7720    21.6330     7.6150     5.8330     5.9990     5.4970    -0.9910 
   97.8750   452.1880    21.6340     7.4550     5.8350     5.7830     5.4990    -1.0040 
   98.0000   451.8480    21.7580     7.4730     5.9390     5.8620     5.5010    -1.0630 
   98.1250   448.0030    21.9830     7.1160     6.0620     6.1470     5.5040    -1.1360 
   98.2500   445.8530    22.0390     7.2550     6.2450     6.3840     5.5060    -1.1690 
   98.3750   446.3480    22.0350     7.3750     6.3110     6.4860     5.5090    -1.1990 
   98.5000   448.4150    21.9240     7.4120     6.1400     6.4700     5.6120    -1.2270 
   98.6250   451.8000    21.8830     7.2450     5.7560     6.3250     5.7160    -1.2240 
   98.7500   455.5050    21.8410     7.1320     5.5550     6.0300     5.5400    -1.2220 
   98.8750   446.8970    21.8420     7.0400     5.6550     5.8000     5.2160    -1.1990 
   99.0000   453.8160    21.9150     7.0280     6.0760     5.8640     5.6870    -1.1400 
   99.1250   474.6140    22.0910     6.8530     6.9340     6.3180     6.4330    -1.0400 
   99.2500   495.4110    22.0460     6.6350     8.3550     7.0740     7.3680    -1.0110 
   99.3750   464.9850    22.0470     6.5760    10.4200     8.0560     8.6640    -1.0540 
   99.5000   418.0090    22.0650     6.6160    15.7840     9.9000    11.5070    -1.0640 
   99.6250   371.0330    22.1490     6.4750    22.0340    19.2380    17.2070    -1.1040 
   99.7500   398.6260    22.1500     6.5200    30.6140    29.8080    23.9500    -0.9980 
   99.8750   441.0500    22.0270     6.5650    40.3180    37.4020    36.7700    -0.7900 
  100.0000   483.4730    21.8230     6.6280    43.9090    43.7040    43.0200    -0.6040 
  100.1250   495.6810    21.6500     6.6690    43.6890    49.4130    47.0140    -0.4200 
  100.2500   468.1030    21.6010     6.8740    40.7020    43.2350    46.7810    -0.2640 
  100.3750   449.8120    21.7520     7.0060    30.0320    36.6210    43.4530    -0.1250 
  100.5000   462.1900    21.7530     7.0400    28.5710    30.7580    33.2460    -0.0830 
  100.6250   458.8550    21.7540     7.1940    28.5740    30.1300    29.3950    -0.0800 
  100.7500   437.9380    21.7550     7.2840    24.9520    26.5940    33.0960    -0.0780 
  100.8750   417.0210    21.7560     7.3840     9.5660    14.2590    35.0280    -0.1120 
  101.0000   422.5940    21.7960     7.5050     6.2750     8.0980    25.9640    -0.2780 
  101.1250   441.6740    21.9590     7.7010     5.6090     5.4630    16.6960    -0.6440 
  101.2500   460.7550    22.0600     7.8030     5.6120     4.9720     7.4280    -1.1230 
  101.3750   446.8470    22.0460     7.9040     5.9070     4.8940     5.2700    -1.5120 
  101.5000   419.4780    21.8970     7.8000     7.2590     5.7500     6.4980    -1.6780 
  101.6250   392.1090    21.7930     7.7910     8.7000     7.2280     9.0280    -1.7710 
  101.7500   385.9280    21.7620     7.7760     7.4140     8.7910    12.9420    -1.8140 
  101.8750   408.1800    21.7930     7.8270     7.5040     7.7010    15.1120    -1.8110 
  102.0000   430.0820    21.7640     7.6520     8.3980     7.7520     7.6720    -1.8090 
  102.1250   428.2930    21.8430     7.4250     9.2890     9.5850     7.6670    -1.8060 
  102.2500   422.1810    22.0010     7.2420     8.7350     9.6950     9.0310    -1.7580 
  102.3750   419.0930    22.0180     7.1150    10.8510     9.2040    10.1670    -1.7100 
  102.5000   411.7140    21.8230     7.0590    13.6580    12.0870     8.8070    -1.6350 
  102.6250   403.0560    21.7180     6.7750    15.2140    15.3220    12.0120    -1.5540 
