~V
VERS. 2.00: Ver 2.00
~W
STRT.M 24.0000:
STOP.M 215.0000:
STEP.M 0.1250:
NULL. -999.2500:
UWI. Z114:
~C
DEPT.M :
AC.US/MT :
CALI.CM :
GR.API :
RI. :
RML.OHMM :
RXO.OHMM :
SP.MV :
~A
# ...
  170.2500   384.8970    21.7250     7.1870     5.9920     6.0270     5.8380    -1.1910 
  170.3750   388.3450    21.6080     7.3400     6.3590     6.1060     5.9270    -1.1890 
  170.5000   396.2350    21.5450     7.4480     6.5000     6.1080     6.5730    -1.1860 
  170.6250   401.7800    21.5580     7.4450     6.4040     6.1100     6.5660    -1.1540 
  170.7500   405.1530    21.5970     7.4300     6.2570     6.0120     6.0930    -1.0810 
  170.8750   405.5770    21.5980     7.4000     6.0580     5.9260     5.5110    -0.9380 
  171.0000   401.6950    21.5980     7.2850     5.9170     5.9160     5.4070    -0.7950 
  171.1250   396.8200    21.5990     7.2140     5.9120     5.9180     5.6060    -0.6570 
  171.2500   393.0450    21.6000     7.3720     5.9150     5.9200     5.7870    -0.5690 
  171.3750   391.1510    21.6010     7.3990     5.9180     5.9210     5.9030    -0.5990 
  171.5000   392.6050    21.6020     7.4100     6.0210     5.9230     5.6910    -0.8560 
  171.6250   392.9510    21.6030     7.4690     5.9270     5.9250     5.5660    -1.2250 
  171.7500   388.7230    21.6290     7.5090     5.7260     5.7240     5.3920    -1.5760 
  171.8750   384.5870    21.7050     7.4730     5.7290     5.5810     5.3230    -1.9270 
  172.0000   382.9950    21.6870     7.4580     5.7310     5.5310     5.5710    -2.2270 
  172.1250   387.4910    21.6570     7.5250     5.9320     5.6240     5.9780    -2.4370 
  172.2500   393.5730    21.7090     7.4870     5.9380     5.9180     5.8790    -2.2890 
  172.3750   398.6600    21.8920     7.5260     5.9410     6.0140     5.4620    -2.0090 
  172.5000   403.8880    22.0000     7.4700     5.7930     6.0390     5.1110    -1.8460 
  172.6250   404.7550    22.0620     7.5770     5.4530     5.8180     4.8370    -1.7460 
  172.7500   401.9490    22.0630     7.6410     5.3700     5.6160     4.7910    -1.7540 
  172.8750   399.6690    22.0400     7.4960     5.1790     5.5240     4.7360    -1.8420 
  173.0000   399.1430    21.9780     7.5930     5.3200     5.4470     4.9040    -1.9610 
  173.1250   400.5140    21.9350     7.6430     5.6570     5.4490     5.4400    -2.0370 
  173.2500   396.3470    21.8930     7.5320     5.6600     5.5510     5.6230    -2.0340 
  173.3750   393.2190    21.8660     7.6420     5.5890     5.5530     5.7560    -1.8800 
  173.5000   396.6300    21.8670     7.7510     5.4650     5.5550     5.6260    -1.6760 
  173.6250   400.2050    21.8680     7.7090     5.5410     5.5570     5.3120    -1.5340 
  173.7500   403.6930    21.9190     7.8630     5.5710     5.5580     4.9990    -1.4720 
  173.8750   406.7920    21.9200     7.8920     5.5740     5.5600     4.8080    -1.4820 
  174.0000   406.2580    21.8170     7.9150     5.5770     5.5620     4.7580    -1.6490 
  174.1250   400.6610    21.6730     7.8220     5.5800     5.5640     4.8490    -1.8850 
  174.2500   394.4690    21.6210     7.7610     5.5300     5.5660     5.1030    -2.0930 
  174.3750   390.1710    21.5680     7.6790     5.4850     5.5850     5.2700    -2.2770 
  174.5000   390.6030    21.5230     7.9870     5.4880     5.7700     5.5360    -2.4580 
  174.6250   392.4180    21.5730     8.0750     5.6860     5.8360     5.6790    -2.6360 
  174.7500   382.3860    21.6250     8.1040     5.6940     6.0050     5.4790    -3.0030 
  174.8750   372.4530    21.6260     8.1790     5.6970     6.0760     5.4820    -3.4510 
  175.0000   364.2420    21.6270     8.4130     5.7000     6.1110     5.7470    -3.8410 
  175.1250   357.0880    21.6280     8.4210     5.7620     6.2380     6.2320    -4.4270 
  175.2500   358.5330    21.6290     8.3520     6.1640     6.4900     6.7280    -5.0500 
  175.3750   364.1160    21.5830     8.3530     6.5640     6.7240     7.0920    -5.7450 
  175.5000   369.9900    21.5300     8.3280     6.6850     6.7860     6.7720    -6.5420 
  175.6250   377.3270    21.5610     8.2550     6.7180     6.7880     6.5060    -6.4280 
  175.7500   376.6460    21.6060     8.1540     6.6430     6.7900     6.4000    -5.8300 
  175.8750   373.8510    21.6330     7.9810     6.6230     6.7920     6.3930    -5.1460 
  176.0000   371.0170    21.6340     7.8710     6.8070     6.8880     7.0760    -4.4880 
  176.1250   369.5780    21.5650     7.7690     6.9980     7.0640     7.6270    -3.2160 
  176.2500   369.7170    21.4850     7.7090     6.9810     6.9890     7.3210    -2.1540 
  176.3750   379.7970    21.4700     7.7300     6.5780     6.5570     6.6650    -1.5940 
  176.5000   401.2640    21.4360     7.8250     5.9750     5.9750     5.9600    -1.5240 
  176.6250   409.7390    21.4870     7.7470     5.4460     5.4090     5.1280    -1.8910 
  176.7500   403.7220    21.4880     7.6690     5.1010     5.2050     4.6090    -2.2920 
  176.8750   401.7480    21.4890     7.5740     5.0410     5.2070     5.1620    -2.7610 
  177.0000   400.5820    21.4900     7.5200     5.1440     5.2090     5.2690    -3.1980 
  177.1250   385.9470    21.4910     7.6310     5.1470     5.4350     4.9900    -3.5690 
  177.2500   371.1410    21.4920     7.7450     5.6070     5.8260     5.0390    -3.8330 
  177.3750   359.1920    21.4930     7.6760     6.0120     6.4300     6.0880    -4.0090 
  177.5000   346.1570    21.4940     7.6080     6.6300     6.8840     6.9900    -4.0890 
  177.6250   334.8190    21.4950     7.5990     6.8650     6.9190     7.4760    -4.1250 
  177.7500   320.1590    21.4950     7.6270     7.0830     7.4550     8.0010    -3.9160 
  177.8750   303.7010    21.4960     7.8760     8.1360     8.6030     9.3370    -3.6500 
  178.0000   257.2340    21.5480     7.9690     9.1610     9.8510    10.9860    -3.1740 
  178.1250   260.1860    21.5480     7.9150    10.2230    11.6670    14.1300    -2.7630 
  178.2500   302.1590    21.5490     8.0600    12.0890    12.3970    12.0170    -2.4370 
  178.3750   344.0010    21.6000     8.0080    11.1470    10.1160    11.2650    -2.1170 
  178.5000   355.0530    21.6010     7.6690     9.7920     8.8020     9.2400    -1.8720 
  178.6250   363.1010    21.6020     7.4510     8.4560     7.5420     7.6690    -1.7110 
  178.7500   370.5430    21.5680     7.3950     7.4340     6.8360     7.1750    -1.6230 
  178.8750   378.5630    21.5140     7.3410     7.1940     6.8380     6.8160    -1.7350 
  179.0000   384.5910    21.5040     7.2590     7.3200     6.6560     5.9660    -1.8380 
  179.1250   380.4810    21.5050     7.3090     6.9710     6.1460     5.4530    -1.9690 
  179.2500   373.5870    21.4910     7.1410     6.7010     6.3840     5.3670    -2.1320 
  179.3750   366.7270    21.4570     6.9060     7.1050     6.3010     5.8250    -2.3890 
  179.5000   359.9270    21.4580     7.0520     6.6510     5.8000     6.1660    -2.6230 
  179.6250   353.2850    21.4580     7.1770     6.1170     5.6460     6.6230    -2.9660 
  179.7500   348.3230    21.4590     7.1560     6.4700     6.4460     7.2950    -3.1920 
  179.8750   349.5180    21.4600     7.3080     6.7160     7.3540     7.7430    -3.3560 
  180.0000   362.0390    21.4610     7.4800     6.3620     7.2610     7.9050    -3.3510 
  180.1250   367.7730    21.4620     7.5740     5.6970     6.9100     7.6100    -3.1830 
  180.2500   369.2330    21.4630     7.4700     5.7270     6.5470     6.8180    -3.1010 
  180.3750   362.5770    21.4640     7.4170     5.1580     6.2030     6.2690    -3.0950 
  180.5000   353.7700    21.4650     7.5410     4.7390     5.9950     6.0960    -3.1520 
  180.6250   352.2620    21.4650     7.5450     5.5750     6.1620     6.2000    -3.2970 
  180.7500   370.3730    21.4660     7.7590     4.8220     6.1940     5.5940    -3.4490 
  180.8750   386.6620    21.4670     7.7540     5.6270     5.9100     4.9930    -3.6450 
  181.0000   384.2040    21.4680     7.7140     5.8390     5.7710     4.9480    -3.8950 
  181.1250   379.0320    21.4190     7.6410     5.9320     5.7730     5.9600    -4.1710 
  181.2500   374.1470    21.4200     7.5350     6.2070     6.5490     6.0770    -4.4840 
  181.3750   373.8750    21.4210     7.3380     6.5350     6.5770     5.8350    -4.9520 
