~V
VERS. 2.00: Ver 2.00
~W
STRT.M 24.0000:
STOP.M 215.0000:
STEP.M 0.1250:
NULL. -999.2500:
UWI. Z114:
~C
DEPT.M :
AC.US/MT :
CALI.CM :
GR.API :
RI. :
RML.OHMM :
RXO.OHMM :
SP.MV :
~A
# ...
  125.2500   311.8270    21.7930     6.5000    14.2340    14.3100    14.4150    -1.1180 
  125.3750   326.4680    21.8290     6.7740    13.7380    13.7170    13.9640    -1.7020 
  125.5000   356.6800    21.8290     7.0720    12.8590    12.8560    13.1340    -2.2480 
  125.6250   392.9700    21.8300     7.3210    10.2130    11.3380    14.0760    -2.6740 
  125.7500   446.6970    21.8310     7.4980     7.8060     7.7230    13.1150    -3.2740 
  125.8750   467.9770    21.7320     7.5470     6.6810     5.7160     9.0910    -3.8150 
  126.0000   476.2780    21.8390     7.5190     7.6130     6.4380     6.1130    -4.3630 
  126.1250   481.4380    21.9750     7.4330     8.7400     7.5270     7.6250    -4.9600 
  126.2500   490.5290    21.9850     7.2550     9.2470     8.9510     8.9230    -5.4040 
  126.3750   501.6160    21.9440     6.9990     7.5960     8.5230     8.8230    -5.3910 
  126.5000   493.0010    21.7530     6.1830     6.5930     7.1720     7.3370    -4.4850 
  126.6250   472.2320    21.5670     5.8230     5.7930     5.9830     6.6140    -3.1100 
  126.7500   430.8440    21.4360     5.2980     5.6160     5.3270     6.3510    -1.8700 
  126.8750   425.2680    21.4370     4.8860     5.5000     5.3290     4.7470    -1.3720 
  127.0000   424.6710    21.7020     4.4820     5.6030     5.5030     4.6730    -0.9420 
  127.1250   430.4450    21.7400     4.4460     5.6820     5.9400     5.1480    -0.6220 
  127.2500   437.7230    21.6900     4.5000     5.7100     6.0200     5.5530    -0.3010 
  127.3750   431.5300    21.4910     4.2630     5.6510     6.0370     5.2460    -0.1750 
  127.5000   422.7890    21.4920     4.2850     5.3760     5.9960     4.5600    -0.1430 
  127.6250   422.5190    21.5130     4.3620     5.3180     5.7900     4.7270    -0.1400 
  127.7500   434.6790    21.5440     4.4310     5.4200     5.6740     4.7670    -0.1640 
  127.8750   445.2500    21.5450     4.5600     5.4230     5.6440     4.5870    -0.2320 
  128.0000   447.9320    21.6360     4.6250     5.4260     5.4890     4.5010    -0.3500 
  128.1250   440.2970    21.7750     4.6120     5.4280     5.4490     4.6320    -0.4820 
  128.2500   431.5390    21.9260     4.7680     5.3100     5.4510     4.7770    -0.5700 
  128.3750   421.9310    21.9500     4.9630     5.2340     5.5290     4.7790    -0.5770 
  128.5000   427.4140    21.9510     4.9440     5.2210     5.5540     4.7820    -0.5740 
  128.6250   438.2220    21.9370     5.0810     5.1390     5.5570     4.4300    -0.5290 
  128.7500   446.3590    21.8490     5.2930     5.1420     5.4620     3.8890    -0.4610 
  128.8750   452.1690    21.6850     5.4580     5.0570     5.2250     3.6770    -0.3630 
  129.0000   455.1270    21.5810     5.6640     5.0480     5.0360     3.6220    -0.2740 
  129.1250   454.9580    21.4920     5.9240     5.0840     4.9640     4.1380    -0.1920 
  129.2500   452.5800    21.4540     6.2850     5.4170     4.9660     3.9880    -0.1230 
  129.3750   442.2200    21.4720     6.5230     5.5580     4.9700     4.5760    -0.0630 
  129.5000   431.0470    21.5400     6.7350     5.5610     5.3020     4.9860    -0.0230 
  129.6250   428.4220    21.6810     6.9380     5.4630     5.7720     5.1820     0.0000 
  129.7500   432.1620    21.8240     6.8190     5.1910     5.7740     4.6390     0.0030 
  129.8750   441.6610    21.8850     6.9320     5.4630     5.3720     4.1020     0.0050 
  130.0000   448.2970    21.9120     6.8950     5.1910     4.9900     4.2750    -0.0500 
  130.1250   451.4720    21.9120     6.6740     5.1680     4.8800     4.4930    -0.1630 
  130.2500   449.7600    21.8980     6.5620     5.3630     5.1820     4.7060    -0.2920 
  130.3750   445.1140    21.8640     6.4970     5.5750     5.1790     4.9180    -0.3860 
  130.5000   442.9400    21.8650     6.5100     5.5330     4.9860     5.0300    -0.4900 
  130.6250   440.6710    21.8660     6.4440     5.3800     5.0660     5.2270    -0.5730 
  130.7500   434.8240    21.8540     6.4950     5.3830     5.2850     5.6400    -0.6800 
  130.8750   425.7130    21.7920     6.6030     5.3860     5.4610     6.0450    -0.8420 
  131.0000   417.7530    21.7180     6.6100     5.6510     6.0020     5.3850    -1.0510 
  131.1250   409.5520    21.7180     6.5760     6.2870     7.1050     7.1850    -1.2930 
  131.2500   402.5040    21.7190     6.5530     7.5400     8.1820     7.9410    -1.5580 
  131.3750   402.2590    21.7200     6.5590     8.4920     7.9970     7.6200    -1.8000 
  131.5000   408.9470    21.9290     6.7990     8.6950     7.7010     7.3830    -2.0410 
  131.6250   408.5520    21.9730     6.9550     8.1410     8.1860     8.6750    -2.2750 
  131.7500   388.0300    21.9400     6.8460     8.1150     9.1580    11.0890    -2.3980 
  131.8750   381.7310    21.7980     6.8570     8.8020    10.3070    13.2950    -2.4620 
  132.0000   393.0350    21.7360     7.0110    10.1480    10.7230    13.6910    -2.5120 
  132.1250   411.2910    21.6750     7.2230    10.1540     8.6290     8.4510    -2.5490 
  132.2500   437.5390    21.6760     7.3350     8.5990     7.2520     7.1440    -2.5560 
  132.3750   467.5390    21.7270     7.4180     7.3490     7.0340     7.2730    -2.5790 
  132.5000   495.5050    21.7280     7.4750     7.2380     7.0820     7.4750    -2.6010 
  132.6250   484.8880    21.9590     7.2940     7.6340     6.8450     7.0280    -2.5990 
  132.7500   473.5870    22.0460     7.0970     7.4240     6.5390     6.6710    -2.5460 
  132.8750   462.2780    22.0830     7.2870     6.9440     6.6290     6.2850    -2.4750 
  133.0000   452.3040    22.0330     7.1400     6.4200     6.5250     6.6030    -2.3860 
  133.1250   448.5210    21.9140     6.9420     6.2550     6.3430     6.5470    -2.3110 
  133.2500   451.2320    21.8100     6.8290     6.4440     6.2280     6.0860    -2.2510 
  133.3750   456.2840    21.7450     6.9120     6.2920     6.3020     5.9880    -2.1820 
  133.5000   449.0640    21.7350     6.8590     6.0070     6.6560     6.1500    -2.1300 
  133.6250   442.1150    21.6860     6.6150     6.3380     7.1910     6.6600    -2.1270 
  133.7500   442.4990    21.7780     6.4900     6.8240     6.9450     7.4740    -2.1250 
  133.8750   446.4120    21.7810     6.2260     7.4520     6.5340     8.8720    -2.1220 
  134.0000   428.4860    21.7050     5.9650     7.6650     6.3400    11.1880    -2.1630 
  134.1250   386.8850    21.6890     5.7350     7.6680     7.9750    15.1740    -2.2440 
  134.2500   345.2840    21.6900     5.4660     8.6370    11.9640    23.2170    -2.3240 
  134.3750   303.6840    21.6910     5.2300    12.6390    25.2900    49.1600    -2.4000 
  134.5000   332.9830    21.7600     5.3450    18.8050    53.3280    67.4750    -2.4750 
  134.6250   369.1200    21.8720     5.4320    43.5070    68.3270    78.5750    -2.5420 
  134.7500   405.2570    21.9410     5.5250    58.3180    64.7770    72.3530    -2.6100 
  134.8750   422.5610    21.9460     5.4170    61.5650    60.2360    61.4900    -2.6660 
  135.0000   405.9480    21.9040     5.4850    56.6780    69.3000    70.0760    -2.6980 
  135.1250   395.9750    21.7580     5.2350    63.1560    78.3630    73.7680    -2.6990 
  135.2500   389.0830    21.6520     5.0640    72.1620    78.0070    72.6490    -2.6970 
  135.3750   401.0810    21.8050     5.1480    77.6300    73.5810    70.2780    -2.6760 
  135.5000   418.5920    22.1150     5.1660    74.1590    73.8020    68.1570    -2.5870 
  135.6250   428.5140    22.2420     5.3380    70.8040    78.2920    72.9220    -2.5010 
  135.7500   428.2230    22.2540     5.4740    74.0310    82.3090    77.3130    -2.4200 
  135.8750   422.8240    22.0460     5.5700    79.6470    81.1260    75.9780    -2.3420 
  136.0000   419.2680    21.8030     5.6530    78.9630    80.3440    76.9310    -2.2660 
  136.1250   412.5290    21.8040     5.5590    78.6500    76.5160    77.4630    -2.2010 
  136.2500   401.0890    21.8780     5.4730    77.3780    70.5640    75.4760    -2.1450 
  136.3750   398.5210    22.0540     5.5040    73.0190    70.6920    71.3480    -2.0900 
