~V
VERS. 2.00: Ver 2.00
~W
STRT.M 24.0000:
STOP.M 215.0000:
STEP.M 0.1250:
NULL. -999.2500:
UWI. Z114:
~C
DEPT.M :
AC.US/MT :
CALI.CM :
GR.API :
RI. :
RML.OHMM :
RXO.OHMM :
SP.MV :
~A
# ...
  136.5000   399.5170    22.1480     5.5060    67.8120    74.7300    68.8290    -2.0350 
  136.6250   396.1350    22.2100     5.4980    69.2310    82.3470    76.9640    -2.0000 
  136.7500   385.6070    22.0930     5.3590    76.3270    88.1730    81.5070    -1.9730 
  136.8750   370.1390    22.0100     5.3060    79.6680    93.8650    86.4870    -1.9250 
  137.0000   378.8250    22.0110     5.3470    82.3130    96.4350    90.8560    -1.8650 
  137.1250   397.4240    22.1360     5.3530    84.3060    96.0130    88.8360    -1.8330 
  137.2500   414.7680    22.3020     5.2130    85.4380    90.0690    74.1110    -1.8040 
  137.3750   429.9790    22.3660     5.0350    80.2740    90.7570    76.9840    -1.7750 
  137.5000   432.9380    22.2160     5.2650    77.4650    95.2060    82.5810    -1.7480 
  137.6250   422.9410    22.0970     5.3540    80.8550    99.6550    88.1790    -1.7460 
  137.7500   436.6490    22.0670     5.4560    86.0410   101.1620    81.1870    -1.7430 
  137.8750   442.2740    22.1010     5.3950    88.5220    94.5180    72.2360    -1.7410 
  138.0000   426.2900    22.2320     5.4530    83.4090    87.8750    74.6480    -1.7300 
  138.1250   423.2500    22.2710     5.3920    78.2960    86.6280    80.9310    -1.6990 
  138.2500   415.0130    22.1750     5.2880    74.1190    94.4880    92.7320    -1.6830 
  138.3750   416.2370    22.0450     5.3090    81.0000   102.3480   107.8720    -1.6810 
  138.5000   430.4400    21.9450     5.2710    87.8810   107.5610    84.6420    -1.6780 
  138.6250   442.0450    21.8720     5.3510    90.5260   100.6780    72.7590    -1.6760 
  138.7500   429.0430    21.8730     5.4470    83.5860    91.1160    65.2410    -1.6730 
  138.8750   412.3580    21.9240     5.5270    76.6450    94.5200    77.8970    -1.6710 
  139.0000   389.0510    21.8860     5.4630    79.8400   104.0400    90.5530    -1.6680 
  139.1250   394.0030    21.8760     5.3440    85.8170   113.5610    96.6080    -1.6660 
  139.2500   403.5470    22.0360     5.2920    91.7940   107.2290    86.2540    -1.6630 
  139.3750   413.4030    22.0780     5.2540    88.9130   100.4560    82.8510    -1.6930 
  139.5000   421.4300    22.0790     5.1770    82.2800    96.0020    81.4840    -1.7300 
  139.6250   421.4380    22.0090     5.2890    78.8170    99.3590    82.7700    -1.7700 
  139.7500   421.4420    21.8810     5.3020    81.4060    99.6210    74.0450    -1.8240 
  139.8750   420.0890    21.7800     5.2540    81.2680    87.8670    66.8140    -1.9010 
  140.0000   408.5820    21.7810     5.2770    72.8960    78.0860    62.7790    -1.8660 
  140.1250   416.3790    21.9210     5.3040    64.5240    66.4920    50.5730    -1.7840 
  140.2500   422.4480    22.0660     5.4700    53.4120    63.6080    55.4630    -1.6950 
  140.3750   425.7770    22.0710     5.6570    53.9200    71.2950    63.2100    -1.6010 
  140.5000   420.8680    21.9500     5.7670    59.3590    78.9820    70.9560    -1.5010 
  140.6250   413.2470    21.8550     5.7290    64.7980    84.7000    65.4950    -1.4170 
  140.7500   405.2330    21.7710     5.6550    65.9650    78.0430    60.0030    -1.3620 
  140.8750   405.1270    21.6870     5.5440    60.9240    71.3860    54.5190    -1.2990 
  141.0000   411.2060    21.7370     5.5860    55.8830    70.6120    57.3300    -1.2260 
  141.1250   417.7870    21.8900     5.6740    56.1880    71.6280    59.3250    -1.1950 
  141.2500   423.3390    21.7910     5.7240    56.9820    71.7430    60.6150    -1.1620 
  141.3750   420.1160    21.7910     5.8680    56.7000    72.9610    61.1940    -1.1240 
  141.5000   422.0630    21.7920     5.9580    57.7360    74.9560    60.2330    -1.1160 
  141.6250   426.1530    21.8070     5.8410    58.9550    74.3450    58.1060    -1.1140 
  141.7500   428.7550    21.9110     5.7200    58.3330    73.9050    58.8120    -1.1270 
  141.8750   426.1460    22.0670     5.7410    60.4860    76.4850    61.3170    -1.2000 
  142.0000   417.4900    22.0970     6.0170    62.4250    80.0480    60.0260    -1.3190 
  142.1250   415.3920    22.0040     6.0190    61.7390    78.6340    58.1920    -1.4740 
  142.2500   420.2560    21.9270     5.9200    61.9980    78.6300    57.2870    -1.5950 
  142.3750   425.6240    21.8980     5.9330    62.0070    77.3890    55.6010    -1.6780 
  142.5000   428.9750    21.8990     5.7690    59.9290    71.5090    52.5600    -1.8040 
  142.6250   431.2290    21.9000     5.7750    57.8980    78.2810    58.1170    -1.9450 
  142.7500   435.3080    22.0540     5.9050    60.9820    83.4830    63.6730    -2.0160 
  142.8750   440.3480    22.1770     5.9470    66.1440    86.5960    59.5730    -2.0870 
  143.0000   439.8630    22.2040     5.8290    67.4650    88.7180    51.0660    -2.1620 
  143.1250   436.7760    22.1910     5.7140    70.1380    94.0980    55.5080    -2.2390 
  143.2500   433.8240    22.0780     5.7940    74.6410    96.0370    57.7290    -2.2990 
  143.3750   430.9750    21.9890     5.7080    74.6120    88.9720    52.6310    -2.3460 
  143.5000   429.5280    21.9840     5.6660    69.3100    77.7040    54.4230    -2.3760 
  143.6250   432.4640    22.1070     5.7440    63.3000    77.5920    63.4580    -2.4050 
  143.7500   430.2360    21.9560     5.7890    65.2580    82.1570    60.7450    -2.4260 
  143.8750   424.9130    21.9090     5.6450    68.9180    86.7210    55.6290    -2.4230 
  144.0000   418.1020    21.9100     5.7330    69.7090    83.6910    50.5130    -2.4050 
  144.1250   412.9400    21.9920     5.7630    65.0250    76.1250    49.8570    -2.3570 
  144.2500   417.6680    22.0770     5.6400    59.6170    70.0460    55.5480    -2.3110 
  144.3750   421.1500    22.1140     5.7290    56.7240    74.7400    59.3580    -2.2750 
  144.5000   421.1550    22.0670     5.8920    61.4280    75.7980    53.7610    -2.2390 
  144.6250   420.7350    21.9950     5.8770    60.5580    72.4370    54.9040    -2.2020 
  144.7500   422.1910    21.9660     5.7530    59.0080    73.3070    57.3180    -2.1540 
  144.8750   426.3200    21.9660     5.7490    60.4450    73.0360    56.6190    -2.1070 
  145.0000   432.5650    21.9200     5.6780    58.8730    70.0630    54.0300    -2.0590 
  145.1250   427.8220    21.8180     5.5360    57.3170    67.0900    54.4100    -2.0110 
  145.2500   433.1130    21.9270     5.4360    55.6750    66.4910    56.5210    -1.9650 
  145.3750   439.8000    22.0200     5.4500    55.7790    67.0170    57.7580    -1.9190 
  145.5000   435.9510    21.8790     5.3260    56.4100    66.6190    58.8850    -1.8740 
  145.6250   418.9400    21.7710     5.1800    56.9530    68.0440    61.6730    -1.8290 
  145.7500   412.8730    21.8290     5.1990    58.4540    72.5890    67.3110    -1.7870 
  145.8750   410.8900    22.0500     5.2300    61.7400    84.2670    74.3180    -1.7450 
  146.0000   416.2960    22.1250     5.3220    67.8230    99.0370    96.8790    -1.7010 
  146.1250   419.8820    22.0750     5.4210    75.3260   118.5930   115.7000    -1.6560 
  146.2500   421.0370    21.9730     5.3620    81.9810   121.8840   117.8110    -1.6160 
  146.3750   418.6540    21.9000     5.5610    95.1880   121.7630   118.0120    -1.5890 
  146.5000   419.7230    21.8290     5.5490    92.6350   117.5830   123.8540    -1.5620 
  146.6250   424.1960    21.7770     5.5790    97.3790   100.9980    79.5550    -1.5300 
  146.7500   421.9580    21.7430     5.4720    87.8550    82.9670    67.5450    -1.5000 
  146.8750   417.4650    21.6990     5.5220    71.8500    86.0690    71.7590    -1.4710 
  147.0000   409.8890    21.6800     5.5960    74.4750    88.6420    75.9730    -1.4570 
  147.1250   413.6350    21.6820     5.5960    77.1010    86.3130    76.5940    -1.4550 
  147.2500   417.0760    21.7320     5.5560    75.5170    84.1050    77.8700    -1.4320 
  147.3750   415.5380    21.7330     5.4500    73.1660    84.5480    77.2910    -1.4060 
  147.5000   412.8720    21.7750     5.6040    73.8530    82.4810    73.8300    -1.3970 
  147.6250   413.7820    21.8570     5.8010    72.8510    81.4060    70.3700    -1.3950 
