~V
VERS. 2.00: Ver 2.00
~W
STRT.M 24.0000:
STOP.M 215.0000:
STEP.M 0.1250:
NULL. -999.2500:
UWI. Z114:
~C
DEPT.M :
AC.US/MT :
CALI.CM :
GR.API :
RI. :
RML.OHMM :
RXO.OHMM :
SP.MV :
~A
# ...
  102.7500   414.0940    21.7690     6.7370    14.9110    17.3130    14.3190    -1.4840 
  102.8750   431.8230    21.7280     6.6860    15.7970    17.5830    14.8430    -1.4460 
  103.0000   440.4480    21.7210     6.8110    18.0530    19.1370    14.8180    -1.3720 
  103.1250   446.2930    21.8620     6.8730    20.5140    22.3760    17.3460    -1.2990 
  103.2500   447.6380    22.0130     6.9890    20.3030    24.0620    19.3940    -1.2410 
  103.3750   452.4240    22.1600     7.1020    18.4160    22.3560    21.5300    -1.2290 
  103.5000   452.9630    22.2770     7.1730    16.1340    19.8220    19.3030    -1.2270 
  103.6250   448.1650    22.1800     7.2400    12.1300    15.0340    18.5790    -1.2550 
  103.7500   442.4040    21.9710     7.4550    10.4360    12.3730    14.5580    -1.3240 
  103.8750   439.8140    21.9000     7.8550    12.3830    11.1000    10.3380    -1.5310 
  104.0000   437.8650    21.8780     7.9880    15.4380    16.1270    13.1220    -1.7990 
  104.1250   406.0060    21.9920     7.9220    15.2600    18.6690    16.2460    -2.1110 
  104.2500   373.0560    22.0470     7.9530    12.7440    15.9190    21.5970    -2.3930 
  104.3750   372.7180    21.9350     7.6650    10.7030    12.2080    15.1730    -2.6120 
  104.5000   399.4140    21.8820     7.7380     8.6850     9.8710    11.8430    -2.7530 
  104.6250   419.4860    21.8830     7.6020     8.5320     8.9830     8.6530    -2.8450 
  104.7500   434.1220    21.9110     7.4920     9.2180     9.3490     7.7560    -2.8570 
  104.8750   426.3670    21.7490     7.4050     9.6900     9.7460     8.0740    -2.8550 
  105.0000   426.1180    21.6340     7.3450    10.1130    10.1230     8.5010    -2.8520 
  105.1250   434.6530    21.7510     6.9960     9.2040    10.2340     8.8730    -2.8500 
  105.2500   440.3510    22.0670     6.7780     7.8530     8.4360     7.9630    -2.8470 
  105.3750   422.1380    22.0430     6.5770    10.8110     8.3990     8.0230    -2.8480 
  105.5000   387.9920    21.8370     6.1690    13.6080    12.6930    11.4580    -2.8750 
  105.6250   329.2800    21.7890     5.9530    16.1430    16.9470    16.7710    -2.9500 
  105.7500   295.5710    21.8100     5.6550    18.9160    19.6500    21.4800    -3.1130 
  105.8750   275.9610    21.7910     5.4660    21.8630    22.1270    26.9350    -3.3360 
  106.0000   271.9360    21.8920     5.4470    24.7250    25.5360    28.4160    -3.6440 
  106.1250   274.8480    21.7740     5.3090    28.1230    28.7970    28.2760    -3.8660 
  106.2500   267.2610    21.4610     5.2040    30.7240    32.9730    33.4890    -4.0750 
  106.3750   262.4140    21.2920     5.2110    31.8610    33.5700    37.9880    -4.2370 
  106.5000   272.2630    21.4800     5.1270    36.8110    35.7520    33.9500    -4.3530 
  106.6250   252.3540    21.7240     5.1200    41.4770    39.1110    41.1340    -4.4690 
  106.7500   235.7430    21.8920     5.1490    52.8510    43.7000    46.9540    -4.4730 
  106.8750   219.2860    21.8990     5.0710    63.3330    58.3720    58.6680    -4.4700 
  107.0000   213.1760    21.8430     5.0960    67.9500    73.5860    71.7960    -4.4680 
  107.1250   252.6730    21.6990     4.9580    68.1820    75.4460    76.3880    -4.4550 
  107.2500   264.7180    21.7000     5.0520    59.6120    67.5410    76.8390    -4.4320 
  107.3750   278.7190    21.7510     5.1270    52.9150    59.6360    82.0510    -4.4080 
  107.5000   288.4370    21.8030     5.1590    46.1130    53.8280    82.2560    -4.3860 
  107.6250   288.0790    21.8030     5.1400    44.5620    49.1470    49.5660    -4.3640 
  107.7500   280.1950    21.7580     4.9400    44.7430    46.1180    39.8240    -4.3350 
  107.8750   263.7440    21.5880     4.9610    47.9870    49.2420    44.3830    -4.3010 
  108.0000   249.4660    21.4890     5.0290    60.1180    54.0130    49.3570    -4.2970 
  108.1250   259.0600    21.4110     4.9400    63.7940    63.4710    64.3840    -4.3010 
  108.2500   280.9810    21.5570     4.8760    46.9470    70.8200    78.2460    -4.4190 
  108.3750   294.6520    21.5870     4.8860    42.4080    57.5520    76.6070    -4.5060 
  108.5000   304.8030    21.5080     4.7970    40.4060    45.9720    53.3320    -4.5380 
  108.6250   303.9020    21.5910     4.7120    38.7060    42.5370    44.8270    -4.5350 
  108.7500   289.5860    21.6910     4.6860    42.3030    42.4560    40.4880    -4.5330 
  108.8750   270.7580    21.8800     4.6560    45.3590    45.6600    42.2480    -4.5300 
  109.0000   250.5550    21.9640     4.7030    48.4810    49.4600    42.3100    -4.5010 
  109.1250   229.7610    21.9650     4.7310    53.7710    59.0510    52.1650    -4.4280 
  109.2500   236.6900    22.0140     4.7800    51.2490    62.7110    62.4040    -4.3850 
  109.3750   254.4040    22.0670     4.8750    46.8150    56.5300    57.1590    -4.3150 
  109.5000   257.4170    22.0680     5.0400    47.6830    53.8270    47.8060    -4.2480 
  109.6250   256.4800    21.9920     5.0600    50.8050    56.9070    46.2750    -4.1900 
  109.7500   270.1180    21.9690     5.0260    46.4850    60.0100    45.5930    -4.1100 
  109.8750   284.4540    21.9270     4.9190    40.3260    55.1890    49.8790    -4.0680 
  110.0000   283.2040    21.9210     4.8030    41.8520    46.0610    47.8470    -4.0560 
  110.1250   275.4340    21.9220     4.8000    43.7430    49.3710    44.3720    -4.0540 
  110.2500   265.1940    21.9730     4.7770    43.8250    50.5700    49.2060    -4.0510 
  110.3750   266.1890    21.9740     4.8310    46.2940    50.5180    51.1650    -4.0590 
  110.5000   259.3570    21.8840     4.8640    49.3750    53.9480    45.5190    -4.0910 
  110.6250   256.9470    21.8130     4.8940    52.1430    57.9940    51.8690    -4.1180 
  110.7500   270.7630    21.8740     4.9300    48.1500    59.8810    58.9450    -4.1450 
  110.8750   283.0430    21.9270     4.8730    41.5940    52.9520    49.9540    -4.1710 
  111.0000   274.2510    21.8200     4.8240    45.8590    47.7640    42.2190    -4.1870 
  111.1250   258.1130    21.6770     4.7150    49.8820    54.9140    44.2090    -4.1840 
  111.2500   241.8840    21.7530     4.7870    56.6060    61.0360    49.8440    -4.1820 
  111.3750   230.8170    21.7800     4.9160    64.9900    71.2220    57.0060    -4.1530 
  111.5000   247.2380    21.6970     4.9650    63.3240    76.2350    65.8520    -4.1010 
  111.6250   244.6430    21.7060     5.0340    46.5870    71.4200    62.8420    -3.9930 
  111.7500   258.9320    21.8500     4.9810    45.0110    61.2050    54.8110    -3.8770 
  111.8750   276.2600    21.9840     4.9330    41.1350    53.9740    48.2510    -3.7640 
  112.0000   282.3970    22.0350     4.9950    39.9930    47.4750    38.6140    -3.7040 
  112.1250   287.8310    22.0360     5.0860    47.0110    40.9760    41.9290    -3.6360 
  112.2500   281.9730    21.8980     5.1010    57.4750    54.1070    47.8760    -3.5600 
  112.3750   260.9280    21.7990     4.9820    75.2520    67.7850    65.8920    -3.5570 
  112.5000   243.4340    21.8700     4.7510    89.7990    92.4460    96.2630    -3.5970 
  112.6250   203.3210    21.8890     4.6630   103.5340   115.5070   115.7590    -3.6680 
  112.7500   197.4820    21.8380     4.5610    95.2500   128.7090   121.2730    -3.7110 
  112.8750   199.1500    21.7900     4.6910    84.1630   114.2850    98.9790    -3.7540 
  113.0000   202.7000    21.8110     4.7220    74.5110    98.9120    93.5780    -3.7960 
  113.1250   207.2140    21.8420     4.7650    58.2420    80.2560    81.3240    -3.8390 
  113.2500   212.1270    21.8250     4.6210    50.2360    60.6410    65.5860    -3.8630 
  113.3750   217.3200    21.7940     4.5830    50.7360    55.9100    53.2540    -3.8840 
  113.5000   220.4560    21.8950     4.5040    47.7340    56.3210    50.7350    -3.8860 
  113.6250   222.2130    21.8870     4.5390    45.3090    53.3560    49.2270    -3.8830 
  113.7500   225.7420    21.7930     4.6410    46.2890    51.4990    48.0660    -3.8750 
  113.8750   225.0050    21.7540     4.6670    42.8980    52.4970    46.7250    -3.8540 
