~V
VERS. 2.00: Ver 2.00
~W
STRT.M 24.0000:
STOP.M 215.0000:
STEP.M 0.1250:
NULL. -999.2500:
UWI. Z114:
~C
DEPT.M :
AC.US/MT :
CALI.CM :
GR.API :
RI. :
RML.OHMM :
RXO.OHMM :
SP.MV :
~A
# ...
  147.7500   413.7040    21.8860     5.8480    70.6950    85.9140    74.6440    -1.3920 
  147.8750   410.9610    21.8610     5.8760    75.6690    89.5170    77.5190    -1.4020 
  148.0000   407.6110    21.7890     5.9210    78.0950    90.1000    75.8070    -1.4510 
  148.1250   408.2290    21.6930     5.9670    80.1280    88.5620    72.8910    -1.5440 
  148.2500   412.0140    21.6140     5.9230    79.3030    85.4890    73.3830    -1.7540 
  148.3750   414.5810    21.5890     5.8180    76.2280    82.5100    76.3020    -1.9760 
  148.5000   415.8860    21.5900     6.0440    73.9190    91.9930    87.3660    -2.1000 
  148.6250   415.4000    21.5910     6.1450    81.5750   101.4750   100.3450    -2.1770 
  148.7500   409.8270    21.7430     6.1280    89.4240   112.9140   117.1170    -2.1750 
  148.8750   403.3020    21.7430     6.0790    98.4210   126.1140   128.0400    -2.1440 
  149.0000   396.1170    21.7440     6.0060   107.9410   139.3130   126.1890    -2.0500 
  149.1250   392.5280    21.6720     6.0340   117.4610   129.5630   114.0270    -1.8570 
  149.2500   401.9170    21.6160     6.0720   116.2430   110.9340    98.1240    -1.6680 
  149.3750   404.2650    21.5960     6.0510   103.0660    80.2070    71.6890    -1.4810 
  149.5000   400.2490    21.5970     5.9940    78.0500    78.2030    70.8460    -1.2840 
  149.6250   398.5960    21.5980     5.9760    74.7410    75.3480    65.7380    -1.0860 
  149.7500   404.2970    21.6560     6.0490    72.9050    70.4630    64.0310    -0.8830 
  149.8750   407.3060    21.7000     6.1230    70.4480    68.8610    64.8650    -0.6770 
  150.0000   398.9170    21.6500     5.9880    68.6530    67.8890    65.4500    -0.4470 
  150.1250   388.8950    21.5610     5.9260    67.3160    67.6560    65.9550    -0.1790 
  150.2500   377.3340    21.5020     5.9090    67.2370    67.0660    64.4830     0.1530 
  150.3750   367.7810    21.5350     5.8960    66.6690    66.6370    61.3020     0.5060 
  150.5000   356.1430    21.5540     6.0150    65.7420    68.2790    64.8860     0.7870 
  150.6250   336.9040    21.5550     6.0500    67.0810    69.4650    64.5240     1.1020 
  150.7500   303.3210    21.5090     6.1410    67.7500    69.2720    65.3050     1.4230 
  150.8750   250.1500    21.4560     6.1160    66.4310    70.0800    68.9800     1.7430 
  151.0000   236.5280    21.4760     6.0850    66.4450    72.1780    74.8260     2.0630 
  151.1250   218.9460    21.5340     6.4880    67.5910    72.0310    75.6410     2.3560 
  151.2500   215.9260    21.6260     6.5070    62.9030    63.8790    62.1670     2.6030 
  151.3750   233.4590    21.7410     6.9960    53.9640    43.5240    48.6930     2.8840 
  151.5000   251.1440    21.8050     7.1950    34.6070    22.4690    31.9020     3.0760 
  151.6250   288.1330    21.8130     7.3750    13.1640     6.8280    10.1670     3.3250 
  151.7500   357.7720    21.8140     7.5260     6.5690     4.6830     5.5220     3.5250 
  151.8750   454.7550    21.8150     7.6790     4.8440     5.6420     5.8430     3.7030 
  152.0000   438.5350    21.7790     7.8650     5.9670     6.0940     5.8450     3.9150 
  152.1250   423.4800    21.7660     8.0100     6.4780     6.1940     5.8470     4.0800 
  152.2500   417.3180    21.7670     8.0710     6.4090     6.3230     5.8500     4.2620 
  152.3750   418.4180    21.7680     8.0450     6.1600     6.4510     6.0600     4.3430 
  152.5000   423.6170    21.7690     8.3650     6.0850     6.5220     6.2560     4.1750 
  152.6250   427.7720    21.8710     8.4670     5.9080     6.6990     6.4680     3.9100 
  152.7500   421.4130    21.8710     8.5290     5.8900     6.9810     6.5670     3.6270 
  152.8750   412.4960    21.9160     8.5420     5.9820     7.2580     6.5690     3.3930 
  153.0000   408.6940    22.0670     8.5160     6.2430     7.3360     6.5720     3.1780 
  153.1250   413.8220    22.1000     8.6500     6.4550     7.3380     6.4590     2.9800 
  153.2500   420.4260    21.9050     8.8570     6.5040     7.2070     6.3740     2.8070 
  153.3750   426.2590    21.7540     8.9110     6.5060     7.0520     6.4600     2.5920 
  153.5000   432.8620    21.6760     8.8650     6.2610     6.8560     6.4800     2.4360 
  153.6250   431.1590    21.6860     8.7550     6.1280     6.7270     6.4820     2.3220 
  153.7500   427.4520    21.7820     8.5640     5.9050     6.5480     6.2830     2.2300 
  153.8750   422.7230    21.8290     8.5170     5.8150     6.3680     6.6520     2.1170 
  154.0000   427.9260    21.8300     8.6070     5.8640     6.2010     7.4860     1.9270 
  154.1250   429.1080    21.8310     8.5660     6.4390     6.1720     8.6410     1.6860 
  154.2500   420.9730    21.8320     8.2610     6.8870     6.5050    10.7930     1.4460 
  154.3750   409.9700    21.8330     8.0570     7.4140     7.4260    16.1000     1.1770 
  154.5000   398.3140    21.8330     7.7000     8.7540     9.4380    34.8930     0.9040 
  154.6250   394.1390    21.8340     7.4360    10.7920    13.3320    52.1180     0.6700 
  154.7500   408.9760    21.8350     7.2030    22.2210    32.6510    69.8660     0.3810 
  154.8750   419.2280    21.9370     6.5090    33.1170    49.1170    91.5690     0.1000 
  155.0000   410.3160    21.9160     6.3120    44.3640    57.9590    81.9640    -0.2340 
  155.1250   397.1750    21.8590     6.2020    56.2030    45.3350    51.5520    -0.5080 
  155.2500   385.4660    21.8110     6.3010    51.6320    39.0430    59.8170    -0.5390 
  155.3750   384.9320    21.7890     6.2970    40.6630    52.5530    76.3020    -0.5370 
  155.5000   386.4790    21.7900     6.3670    49.3460    64.9040    81.4490    -0.3940 
  155.6250   367.3330    21.7630     6.5100    61.3880    73.7920    87.8070    -0.1610 
  155.7500   345.1120    21.7420     6.7180    71.0230    82.6800    91.8550     0.1770 
  155.8750   304.8060    21.7430     6.9030    79.6460    73.6450    81.5460     0.5870 
  156.0000   310.5490    21.7440     7.0870    73.2190    54.0340    68.9510     0.9170 
  156.1250   344.0060    21.8450     7.2660    55.6160    37.8280    50.1990     1.3110 
  156.2500   374.5250    21.8170     7.4650    39.8770    21.7760    24.8050     1.5480 
  156.3750   384.5840    21.7310     7.7400    22.7850    12.1620    10.1120     1.6990 
  156.5000   382.9250    21.6220     7.8650    13.0200     9.3500     8.7910     1.7940 
  156.6250   382.0860    21.5160     7.7240    11.0850     7.7920     7.5440     1.7850 
  156.7500   383.1750    21.4470     7.5500     9.4470     7.5940     7.1490     1.6750 
  156.8750   380.9830    21.4750     7.4550     8.3050     7.7380     7.3320     1.5430 
  157.0000   377.2140    21.6030     7.3880     8.0950     7.7980     7.3150     1.5140 
  157.1250   376.1670    21.6430     7.4110     8.0460     7.8000     6.8460     1.5520 
  157.2500   375.2930    21.6840     7.5180     7.9340     7.8020     6.4520     1.6280 
  157.3750   370.6160    21.7030     7.5370     7.8370     7.7970     6.5850     1.7270 
  157.5000   369.2530    21.7040     7.3180     7.6770     7.6430     6.6770     1.7630 
  157.6250   368.3390    21.7050     7.1730     7.5060     7.4170     6.5610     1.7660 
  157.7500   364.2430    21.7060     7.2790     7.3430     7.3100     6.5630     1.7330 
  157.8750   362.8510    21.7070     7.3650     7.2120     7.3110     6.8250     1.6590 
  158.0000   360.9050    21.6810     7.4810     7.1460     7.3130     7.2750     1.5990 
  158.1250   361.9980    21.7010     7.3490     7.1170     7.3690     7.1210     1.5050 
  158.2500   358.7630    21.8100     7.2040     7.2320     7.4780     6.7430     1.3660 
  158.3750   355.4300    21.8080     7.0650     7.3240     7.5190     6.5120     1.2240 
  158.5000   359.0560    21.7640     6.8480     7.3270     7.5110     6.8710     1.1450 
  158.6250   362.8270    21.6140     6.9980     7.3300     7.3790     7.2230     1.0720 
  158.7500   365.9030    21.4670     7.1470     7.3330     7.3250     7.2890     1.0160 
  158.8750   363.0770    21.3620     7.3030     7.3360     7.3270     6.9180     0.9800 
