~V
VERS. 2.00: Ver 2.00
~W
STRT.M 24.0000:
STOP.M 215.0000:
STEP.M 0.1250:
NULL. -999.2500:
UWI. Z114:
~C
DEPT.M :
AC.US/MT :
CALI.CM :
GR.API :
RI. :
RML.OHMM :
RXO.OHMM :
SP.MV :
~A
# ...
   57.7500     0.0000     0.0000     0.0000     0.0000     0.0000     0.0000     0.0000 
   57.8750     0.0000     0.0000     0.0000     0.0000     0.0000     0.0000     0.0000 
   58.0000     0.0000     0.0000     0.0000     0.0000     0.0000     0.0000     0.0000 
   58.1250     0.0000     0.0000     0.0000     0.0000     0.0000     0.0000     0.0000 
   58.2500     0.0000     0.0000     0.0000     0.0000     0.0000     0.0000     0.0000 
   58.3750     0.0000     0.0000     0.0000     0.0000     0.0000     0.0000     0.0000 
   58.5000     0.0000     0.0000     0.0000     0.0000     0.0000     0.0000     0.0000 
   58.6250     0.0000     0.0000     0.0000     0.0000     0.0000     0.0000     0.0000 
   58.7500     0.0000     0.0000     0.0000     0.0000     0.0000     0.0000     0.0000 
   58.8750     0.0000     0.0000     0.0000     0.0000     0.0000     0.0000     0.0000 
   59.0000     0.0000     0.0000     0.0000     0.0000     0.0000     0.0000     0.0000 
   59.1250     0.0000     0.0000     0.0000     0.0000     0.0000     0.0000     0.0000 
   59.2500     0.0000     0.0000     0.0000     0.0000     0.0000     0.0000     0.0000 
   59.3750     0.0000     0.0000     0.0000     0.0000     0.0000     0.0000     0.0000 
   59.5000     0.0000     0.0000     0.0000     0.0000     0.0000     0.0000     0.0000 
   59.6250     0.0000     0.0000     0.0000     0.0000     0.0000     0.0000     0.0000 
   59.7500     0.0000     0.0000     0.0000     0.0000     0.0000     0.0000     0.0000 
   59.8750     0.0000     0.0000     0.0000     0.0000     0.0000     0.0000     0.0000 
   60.0000     0.0000     0.0000     0.0000     0.0000     0.0000     0.0000     0.0000 
   60.1250     0.0000     0.0000     0.0000     0.0000     0.0000     0.0000     0.0000 
   60.2500     0.0000     0.0000     0.0000     0.0000     0.0000     0.0000     0.0000 
   60.3750     0.0000     0.0000     0.0000     0.0000     0.0000     0.0000     0.0000 
   60.5000     0.0000     0.0000     0.0000     0.0000     0.0000     0.0000     0.0000 
   60.6250     0.0000     0.0000     0.0000     0.0000     0.0000     0.0000     0.0000 
   60.7500     0.0000     0.0000     0.0000     0.0000     0.0000     0.0000     0.0000 
   60.8750     0.0000     0.0000     0.0000     0.0000     0.0000     0.0000     0.0000 
   61.0000     0.0000     0.0000     0.0000     0.0000     0.0000     0.0000     0.0000 
   61.1250     0.0000     0.0000     0.0000     0.0000     0.0000     0.0000     0.0000 
   61.2500     0.0000     0.0000     0.0000     0.0000     0.0000     0.0000     0.0000 
   61.3750     0.0000     0.0000     0.0000     0.0000     0.0000     0.0000     0.0000 
   61.5000     0.0000     0.0000     0.0000     0.0000     0.0000     0.0000     0.0000 
   61.6250     0.0000     0.0000     0.0000     0.0000     0.0000     0.0000     0.0000 
   61.7500     0.0000     0.0000     0.0000     0.0000     0.0000     0.0000     0.0000 
   61.8750     0.0000     0.0000     0.0000     0.0000     0.0000     0.0000     0.0000 
   62.0000     0.0000     0.0000     0.0000     0.0000     0.0000     0.0000     0.0000 
   62.1250     0.0000     0.0000     0.0000     0.0000     0.0000     0.0000     0.0000 
   62.2500     0.0000     0.0000     0.0000     0.0000     0.0000     0.0000     0.0000 
   62.3750     0.0000     0.0000     0.0000     0.0000     0.0000     0.0000     0.0000 
   62.5000     0.0000     0.0000     0.0000     0.0000     0.0000     0.0000     0.0000 
   62.6250     0.0000     0.0000     0.0000     0.0000     0.0000     0.0000     0.0000 
   62.7500     0.0000     0.0000     0.0000     0.0000     0.0000     0.0000     0.0000 
   62.8750     0.0000     0.0000     0.0000     0.0000     0.0000     0.0000     0.0000 
   63.0000     0.0000     0.0000     0.0000     0.0000     0.0000     0.0000     0.0000 
   63.1250     0.0000     0.0000     0.0000     0.0000     0.0000     0.0000     0.0000 
   63.2500     0.0000     0.0000     0.0000     0.0000     0.0000     0.0000     0.0000 
   63.3750     0.0000     0.0000     0.0000     0.0000     0.0000     0.0000     0.0000 
   63.5000     0.0000     0.0000     0.0000     0.0000     0.0000     0.0000     0.0000 
   63.6250     0.0000     0.0000     0.0000     0.0000     0.0000     0.0000     0.0000 
   63.7500     0.0000     0.0000     0.0000     0.0000     0.0000     0.0000     0.0000 
   63.8750     0.0000     0.0000     0.0000     0.0000     0.0000     0.0000     0.0000 
   64.0000     0.0000     0.0000     0.0000     0.0000     0.0000     0.0000     0.0000 
   64.1250     0.0000     0.0000     0.0000     0.0000     0.0000     0.0000     0.0000 
   64.2500     0.0000     0.0000     0.0000     0.0000     0.0000     0.0000     0.0000 
   64.3750     0.0000     0.0000     0.0000     0.0000     0.0000     0.0000     0.0000 
   64.5000     0.0000     0.0000     0.0000     0.0000     0.0000     0.0000     0.0000 
   64.6250     0.0000     0.0000     0.0000     0.0000     0.0000     0.0000     0.0000 
   64.7500     0.0000     0.0000     0.0000     0.0000     0.0000     0.0000     0.0000 
   64.8750     0.0000     0.0000     0.0000     0.0000     0.0000     0.0000     0.0000 
   65.0000     0.0000     0.0000     0.0000     0.0000     0.0000     0.0000     0.0000 
   65.1250     0.0000     0.0000     0.0000     0.0000     0.0000     0.0000     0.0000 
   65.2500     0.0000     0.0000     0.0000     0.0000     0.0000     0.0000     0.0000 
   65.3750     0.0000     0.0000     0.0000     0.0000     0.0000     0.0000     0.0000 
   65.5000     0.0000     0.0000     0.0000     0.0000     0.0000     0.0000     0.0000 
   65.6250     0.0000     0.0000     0.0000     0.0000     0.0000     0.0000     0.0000 
   65.7500     0.0000     0.0000     0.0000     0.0000     0.0000     0.0000     0.0000 
   65.8750     0.0000     0.0000     0.0000     0.0000     0.0000     0.0000     0.0000 
   66.0000     0.0000     0.0000     0.0000     0.0000     0.0000     0.0000     0.0000 
   66.1250     0.0000     0.0000     0.0000     0.0000     0.0000     0.0000     0.0000 
   66.2500     0.0000     0.0000     0.0000     0.0000     0.0000     0.0000     0.0000 
   66.3750     0.0000     0.0000     0.0000     0.0000     0.0000     0.0000     0.0000 
   66.5000     0.0000     0.0000     0.0000     0.0000     0.0000     0.0000     0.0000 
   66.6250     0.0000     0.0000     0.0000     0.0000     0.0000     0.0000     0.0000 
   66.7500     0.0000     0.0000     0.0000     0.0000     0.0000     0.0000     0.0000 
   66.8750     0.0000     0.0000     0.0000     0.0000     0.0000     0.0000     0.0000 
   67.0000     0.0000     0.0000     0.0000     0.0000     0.0000     0.0000     0.0000 
   67.1250     0.0000     0.0000     0.0000     0.0000     0.0000     0.0000     0.0000 
   67.2500     0.0000     0.0000     0.0000     0.0000     0.0000     0.0000     0.0000 
   67.3750     0.0000     0.0000     0.0000     0.0000     0.0000     0.0000     0.0000 
   67.5000     0.0000     0.0000     0.0000     0.0000     0.0000     0.0000     0.0000 
   67.6250     0.0000     0.0000     0.0000     0.0000     0.0000     0.0000     0.0000 
   67.7500     0.0000     0.0000     0.0000     0.0000     0.0000     0.0000     0.0000 
   67.8750     0.0000     0.0000     0.0000     0.0000     0.0000     0.0000     0.0000 
   68.0000     0.0000     0.0000     0.0000     0.0000     0.0000     0.0000     0.0000 
   68.1250     0.0000     0.0000     0.0000     0.0000     0.0000     0.0000     0.0000 
   68.2500     0.0000     0.0000     0.0000     0.0000     0.0000     0.0000     0.0000 
   68.3750     0.0000     0.0000     0.0000     0.0000     0.0000     0.0000     0.0000 
   68.5000     0.0000     0.0000     0.0000     0.0000     0.0000     0.0000     0.0000 
   68.6250     0.0000     0.0000     0.0000     0.0000     0.0000     0.0000     0.0000 
   68.7500     0.0000     0.0000     0.0000     0.0000     0.0000     0.0000     0.0000 
   68.8750     0.0000     0.0000     0.0000     0.0000     0.0000     0.0000     0.0000 
