~V
VERS. 2.00: Ver 2.00
~W
STRT.M 24.0000:
STOP.M 215.0000:
STEP.M 0.1250:
NULL. -999.2500:
UWI. Z114:
~C
DEPT.M :
AC.US/MT :
CALI.CM :
GR.API :
RI. :
RML.OHMM :
RXO.OHMM :
SP.MV :
~A
# ...
   80.2500   470.7440    22.0620     6.5930    10.2020     8.5200     6.4470    -1.9640 
   80.3750   465.2470    22.0630     6.3420    12.5810    11.8490     8.2420    -1.6650 
   80.5000   460.4250    22.0640     6.0570    15.7440    15.8250    10.8250    -2.4330 
   80.6250   455.7290    22.0650     5.9550    25.6220    24.3190    17.2540    -2.2280 
   80.7500   451.2760    22.0660     5.7580    32.9660    36.6990    24.7470    -1.9640 
   80.8750   448.0580    22.0670     5.6310    44.3210    48.5060    36.7100    -1.6650 
   81.0000   450.0410    22.0670     5.6090    47.3480    52.8280    44.5080    -1.4250 
   81.1250   452.2930    22.1140     5.7080    46.4880    54.8640    49.2970    -1.1680 
   81.2500   454.1760    22.1700     5.6670    46.1460    49.4040    50.9700    -0.8840 
   81.3750   455.5060    22.1710     5.6230    41.1850    43.9450    46.2120    -0.6260 
   81.5000   455.0230    22.1280     5.7400    36.8910    38.4850    33.8160    -0.4410 
   81.6250   455.0220    22.0720     5.8430    32.6740    33.0260    29.6190    -0.3250 
   81.7500   455.8460    22.0730     5.9300    27.9340    27.5660    26.1650    -0.2000 
   81.8750   457.6890    22.0740     5.9100    23.5790    22.3510    21.8010    -0.1560 
   82.0000   458.8720    22.0750     5.9530    21.3220    21.0310    18.1510    -0.1530 
   82.1250   459.5010    22.0750     5.8580    21.5620    21.6940    18.0900    -0.1500 
   82.2500   458.7790    22.0760     5.5790    24.9690    26.8680    20.7000    -0.1480 
   82.3750   457.5670    22.0770     5.5450    29.1120    32.1740    23.0770    -0.1460 
   82.5000   458.1910    22.0780     5.4240    33.3220    37.0590    27.9280    -0.1920 
   82.6250   460.2010    22.1290     5.4270    27.6330    34.3410    35.6050    -0.1910 
   82.7500   461.5990    22.1300     5.3840    25.8250    29.2390    30.4390    -0.1880 
   82.8750   462.7850    22.1090     5.3700    25.3780    27.9840    24.8240    -0.0410 
   83.0000   462.6810    22.0110     5.5240    24.8610    27.0180    23.6950     0.1020 
   83.1250   459.9380    21.9320     5.6830    30.2560    29.0580    23.6970     0.2430 
   83.2500   456.6470    21.9330     5.5970    34.5320    36.3180    28.3370     0.3830 
   83.3750   453.2670    21.9340     5.6150    33.5020    37.6800    32.0360     0.5270 
   83.5000   449.9460    21.9340     5.6230    30.5060    35.3730    30.2440     0.6200 
   83.6250   449.4660    21.9350     5.7120    36.6140    33.2010    28.8860     0.7350 
   83.7500   451.2330    21.9360     5.5300    42.1660    42.1170    28.3530     0.8550 
   83.8750   453.4470    21.8820     5.4570    44.6000    48.5400    32.7930     0.9890 
   84.0000   454.1360    21.7930     5.5530    45.8160    51.8790    43.3770     1.1170 
   84.1250   452.4170    21.7880     5.5460    45.1500    51.5270    46.0100     1.2250 
   84.2500   448.4850    21.7890     5.6260    47.8750    51.7010    44.7400     1.3340 
   84.3750   447.3090    21.7900     5.6200    52.7040    58.1930    42.0010     1.4420 
   84.5000   448.2080    21.7910     5.6490    54.4160    60.9730    45.2200     1.5590 
   84.6250   448.2240    21.7410     5.7420    54.4930    61.6720    44.2870     1.6780 
   84.7500   446.0360    21.7420     5.8840    54.3930    61.5720    45.0090     1.8020 
   84.8750   446.6700    21.9060     5.9290    52.9880    56.8520    44.0740     1.9310 
   85.0000   449.5840    21.9110     5.9400    49.6470    52.8620    39.6520     2.0920 
   85.1250   452.8230    21.8080     5.8600    47.7950    51.0610    38.8600     2.2460 
   85.2500   456.8770    21.7460     5.6470    45.5120    48.3420    36.5570     2.3750 
   85.3750   459.2050    21.7720     5.7270    41.3150    45.3770    34.1120     2.4970 
   85.5000   460.6390    21.8480     5.8000    43.9680    50.0570    31.0940     2.6140 
   85.6250   459.2690    21.8490     5.8090    46.3370    52.9510    31.5180     2.7320 
   85.7500   457.2120    21.6920     5.8420    47.0640    53.5570    33.6920     2.8420 
   85.8750   456.2330    21.5990     5.8000    45.7120    52.0200    35.3670     2.9080 
   86.0000   455.3290    21.6000     5.8260    43.4060    49.1710    34.7510     2.9370 
   86.1250   456.4980    21.6020     5.9530    42.1860    48.7110    32.5430     2.9400 
   86.2500   458.6530    21.6520     6.1740    42.0890    49.1840    32.5650     2.9420 
   86.3750   461.4970    21.5890     6.4850    33.7870    46.3170    32.9750     2.9450 
   86.5000   465.5670    21.5540     6.5330    19.3860    27.1820    33.7490     2.9010 
   86.6250   470.8950    21.5540     6.4970    17.6160    21.2110    25.9410     2.7980 
   86.7500   474.8530    21.5550     6.6280    18.2010    20.9260    15.6870     2.7030 
   86.8750   478.8430    21.5560     6.5790    15.8490    20.1730    16.7100     2.6000 
   87.0000   481.1840    21.5470     6.5640    13.8780    17.2400    14.4130     2.4990 
   87.1250   475.2000    21.4580     6.5210    12.3320    14.9730    12.4730     2.3770 
   87.2500   458.1640    21.4820     6.5820    11.0370    12.7780    10.9050     2.2340 
   87.3750   440.1420    21.5550     6.5400    10.9080    11.6530     9.1340     2.0770 
   87.5000   439.5890    21.6610     6.5200    11.1110    12.2880     6.7120     1.8770 
   87.6250   450.4000    21.6260     6.4630    10.7160    11.8190     9.2370     1.6470 
   87.7500   464.0770    21.5450     6.2300    15.3210    13.7860     9.6690     1.3020 
   87.8750   490.7610    21.4630     6.0340    17.2290    17.8010    12.1940     1.1160 
   88.0000   483.6360    21.6370     6.0580    16.6600    19.7880    14.8960     1.5960 
   88.1250   475.4110    21.7660     6.2330    15.8450    18.8260    15.9150     2.1350 
   88.2500   472.8290    21.7670     6.3540    20.3900    19.8410    14.8940     2.6470 
   88.3750   476.4840    21.7600     6.2870    22.9120    24.2370    16.3060     3.0410 
   88.5000   479.5370    21.9680     6.2270    24.0810    27.1400    19.2380     3.4420 
   88.6250   482.1260    22.1770     6.2690    23.9680    28.2490    21.9150     3.8190 
   88.7500   484.2340    22.3230     6.4540    23.3870    26.4540    22.1550     4.1640 
   88.8750   486.0360    22.1860     6.4240    21.5740    24.8870    20.9920     4.4000 
   89.0000   483.2640    21.8230     6.5740    18.6490    22.4560    23.8560     4.3780 
   89.1250   461.2430    21.5810     6.6960    15.3820    18.7370    23.3140     4.0890 
   89.2500   382.3110    21.5310     6.8180     9.1480    10.6260    12.0010     3.5060 
   89.3750   350.0440    21.7150     6.8430    10.5270    10.2600    10.3160     2.3830 
   89.5000   336.1310    21.8980     6.8030    10.5010    11.2480    10.9680     0.8710 
   89.6250   340.2100    22.0330     6.9160     8.9150     9.8750    12.1990     0.0710 
   89.7500   347.1420    22.1350     7.1610     8.9170     8.7080    10.8390    -0.4090 
   89.8750   350.6440    22.1800     7.5250     9.7650     9.5220     9.2510    -0.6210 
   90.0000   376.8750    22.1810     7.7870     8.3410     9.8640     9.8310    -0.8490 
   90.1250   402.6820    21.9260     7.7690     8.2660     8.5470     8.9470    -0.9990 
   90.2500   423.9300    21.8310     7.7740     6.7270     8.0600     6.8660    -1.0280 
   90.3750   445.8010    21.8640     7.7810     5.5620     8.1270     7.0190    -1.0590 
   90.5000   451.4520    21.9860     7.8140     6.0920     7.4020     6.1640    -1.0900 
   90.6250   449.2080    22.1440     7.9850     6.0700     7.1650     6.3340    -1.1100 
   90.7500   451.7960    22.3030     8.1710     6.4870     7.1670     6.4080    -1.1300 
   90.8750   454.9650    22.3410     8.2350     5.3730     6.4810     5.6140    -1.1290 
   91.0000   456.4260    22.1350     8.2940     5.3760     5.6050     4.9850    -1.1260 
   91.1250   453.9120    22.0890     8.4190     5.3790     5.3290     4.2510    -1.1240 
   91.2500   458.6950    22.0900     8.4300     4.9920     5.6880     4.2440    -1.1210 
   91.3750   469.2040    22.2400     8.3980     4.7830     5.7020     4.5650    -1.1190 
