~V
VERS. 2.00: Ver 2.00
~W
STRT.M 24.0000:
STOP.M 215.0000:
STEP.M 0.1250:
NULL. -999.2500:
UWI. Z114:
~C
DEPT.M :
AC.US/MT :
CALI.CM :
GR.API :
RI. :
RML.OHMM :
RXO.OHMM :
SP.MV :
~A
# ...
  159.0000   367.2140    21.4840     7.4170     7.3380     7.3290     6.3310     0.9480 
  159.1250   379.3830    21.5140     7.3190     7.5420     7.3310     6.0850     0.9430 
  159.2500   390.4080    21.5150     7.2290     7.4890     7.3650     5.9860     0.9460 
  159.3750   398.7260    21.5160     7.2680     7.0890     6.9210     5.9890     0.9480 
  159.5000   402.5910    21.4910     7.3180     6.6180     6.6520     5.8690     0.9510 
  159.6250   396.8900    21.4430     7.2280     6.3220     6.5390     5.6900     0.9310 
  159.7500   398.2830    21.3920     7.2420     6.2520     6.5410     5.6850     0.8060 
  159.8750   402.4140    21.3690     7.5320     6.2550     6.5430     5.5290     0.6110 
  160.0000   405.7060    21.3550     7.6060     6.2580     6.4430     5.4960     0.3400 
  160.1250   404.9250    21.3210     7.4880     6.2610     6.2200     5.4980     0.0670 
  160.2500   395.5430    21.3610     7.4540     6.2410     5.9470     5.6670    -0.2230 
  160.3750   392.6480    21.4310     7.4590     6.1660     5.8500     5.8920    -0.5100 
  160.5000   398.5590    21.4740     7.5310     6.0980     6.2300     6.1310    -0.7930 
  160.6250   405.3670    21.3490     7.6370     6.0710     6.4540     6.2920    -0.9540 
  160.7500   415.7500    21.2370     7.5590     6.0810     6.5560     6.5200    -1.1310 
  160.8750   414.4790    21.1750     7.5200     6.2170     6.5580     6.5230    -1.1060 
  161.0000   409.4270    21.2790     7.3840     6.5080     6.6600     6.5250    -0.9340 
  161.1250   404.4350    21.3440     7.4330     6.5850     6.6620     6.5270    -0.7930 
  161.2500   401.2170    21.3720     7.5210     6.5870     6.7640     6.5940    -0.7340 
  161.3750   399.5730    21.4180     7.5230     6.5900     6.7660     6.6320    -0.7170 
  161.5000   398.1420    21.4310     7.3490     6.4960     6.6790     6.3550    -0.8320 
  161.6250   401.4930    21.4320     7.3030     6.5310     6.4430     6.2340    -1.1390 
  161.7500   400.1900    21.4830     7.3400     6.7760     6.2900     6.2370    -1.5020 
  161.8750   391.3210    21.5560     7.2260     6.8030     6.2740     6.3930    -1.8130 
  162.0000   385.4700    21.5850     7.3050     6.8050     6.3150     7.1260    -2.1180 
  162.1250   380.3080    21.5860     7.1950     6.8080     6.5980     7.6240    -2.3780 
  162.2500   375.0810    21.5870     7.1890     6.8180     6.7800     7.9760    -2.4560 
  162.3750   368.6250    21.5880     7.3200     7.1280     6.8810     8.0670    -2.4530 
  162.5000   361.8100    21.5890     7.5050     7.2180     6.8840     7.8510    -2.8440 
  162.6250   363.7360    21.5900     7.6500     7.2210     6.8850     7.5170    -3.2340 
  162.7500   375.7130    21.5900     7.7450     7.1240     6.8870     7.1700    -3.6790 
  162.8750   387.9580    21.5910     7.7860     7.0000     6.8890     6.8650    -4.0320 
  163.0000   386.6380    21.5920     7.9450     7.1300     6.8340     6.8670    -4.3930 
  163.1250   381.0690    21.5930     8.0540     7.0720     6.7930     6.8690    -4.6910 
  163.2500   375.7330    21.5940     7.9840     7.0350     6.8640     6.6950    -4.8440 
  163.3750   371.1410    21.5950     7.8660     6.9470     7.0910     6.4700    -4.8410 
  163.5000   367.0240    21.5960     7.8540     6.8400     6.9360     6.9250    -5.0720 
  163.6250   364.3170    21.5360     8.0380     6.8430     6.7300     7.2620    -5.4050 
  163.7500   365.6650    21.4680     8.1440     6.8460     6.7030     7.3870    -5.6720 
  163.8750   374.0320    21.4240     8.3850     6.8490     6.7050     7.1710    -5.6860 
  164.0000   379.1720    21.3980     8.5280     6.8960     6.7980     6.9290    -5.2330 
  164.1250   372.9920    21.3870     8.5710     6.9550     6.9360     6.8890    -4.5740 
  164.2500   370.6130    21.3500     8.5160     6.9580     7.0110     7.2250    -3.8130 
  164.3750   376.5550    21.3860     8.4310     6.9610     6.9130     7.2980    -3.0540 
  164.5000   385.9220    21.4710     8.3600     6.9630     6.6830     7.3000    -2.3860 
  164.6250   391.3420    21.5190     8.0960     6.8160     6.5030     7.4030    -1.8680 
  164.7500   388.2560    21.5990     8.0160     6.5550     6.3500     7.4810    -1.3800 
  164.8750   385.9140    21.6050     7.9090     6.4700     6.3210     7.6110    -1.0470 
  165.0000   390.4410    21.6060     8.0880     6.5680     6.3220     7.4980    -0.7600 
  165.1250   394.7130    21.5030     8.0460     6.7370     6.5240     6.8110    -0.5190 
  165.2500   397.0390    21.4060     7.9490     6.7800     6.4430     6.1890    -0.3020 
  165.3750   398.0960    21.3230     7.8890     6.5490     6.1940     5.7860    -0.1110 
  165.5000   395.3960    21.2660     7.9900     6.1400     6.0180     5.5730     0.0320 
  165.6250   391.9720    21.2090     7.8780     5.9860     5.8950     5.3360     0.1490 
  165.7500   388.8020    21.1950     7.8000     5.9890     5.8340     5.1390     0.2320 
  165.8750   387.6860    21.1610     7.7930     5.9920     5.9190     5.0040     0.2610 
  166.0000   397.3360    21.1270     7.4490     6.0640     5.9380     5.1810     0.2930 
  166.1250   408.7150    21.1460     7.3530     6.0980     5.8590     5.9180     0.3310 
  166.2500   415.2990    21.2200     7.2020     6.0690     5.6720     5.3920     0.2550 
  166.3750   411.9940    21.2640     7.1040     5.8280     5.4260     4.7630     0.0590 
  166.5000   399.0710    21.2650     7.0360     5.5460     5.3460     4.5110    -0.2030 
  166.6250   384.5340    21.2660     7.0320     5.4070     5.3950     4.9410    -0.5160 
  166.7500   368.6340    21.2670     7.1130     5.5450     5.5830     5.2850    -0.8730 
  166.8750   354.3410    21.2490     7.2520     5.8450     6.0660     5.7030    -1.1490 
  167.0000   358.4190    21.2180     7.1420     6.0920     6.5270     6.5100    -1.4340 
  167.1250   365.2000    21.2190     7.0910     6.3380     6.5560     6.7450    -1.6370 
  167.2500   371.1490    21.2270     6.9480     6.4490     6.4350     6.1310    -1.8150 
  167.3750   374.7610    21.2710     6.7090     6.5280     6.3000     6.0430    -1.8910 
  167.5000   370.7530    21.2720     6.6950     6.5310     6.2610     6.1950    -1.8990 
  167.6250   378.4000    21.2760     6.7320     6.5340     6.5870     6.5820    -1.8510 
  167.7500   387.4380    21.3120     6.5390     6.4360     6.6650     7.2980    -1.6760 
  167.8750   393.7010    21.3250     6.4870     6.5400     6.5260     7.2080    -1.5900 
  168.0000   394.8410    21.3260     6.5120     6.5420     6.2570     6.5480    -1.6260 
  168.1250   394.7210    21.3320     6.5210     6.4570     6.1710     6.2120    -1.7500 
  168.2500   396.3470    21.4010     6.6820     6.3170     6.1730     5.8580    -1.8340 
  168.3750   397.9730    21.4690     6.5750     6.2500     6.0750     6.1200    -1.5980 
  168.5000   399.5990    21.5560     6.5060     6.2530     6.1770     6.5110    -1.1070 
  168.6250   401.7320    21.6440     6.4560     6.4560     6.1010     6.6250    -0.7760 
  168.7500   399.8470    21.6730     6.4110     6.4590     5.8610     6.2540    -0.8020 
  168.8750   396.7590    21.7340     6.5410     6.3130     5.6950     6.0610    -1.0170 
  169.0000   394.3220    21.7180     6.6390     6.1640     5.6160     5.7030    -1.2750 
  169.1250   391.9480    21.6680     6.6100     6.1670     5.8580     5.5180    -1.4820 
  169.2500   388.9810    21.5990     6.6730     6.2800     6.1080     5.9570    -1.6900 
  169.3750   391.2420    21.5870     6.7720     6.5550     6.1900     6.3910    -1.7610 
  169.5000   398.6850    21.6190     6.7170     6.5770     6.2530     6.7740    -1.5610 
  169.6250   405.3670    21.6390     6.8620     6.5800     6.2940     6.9000    -1.3280 
  169.7500   415.5500    21.6400     7.0730     6.5760     6.1680     6.3760    -1.1970 
  169.8750   415.7560    21.6620     7.1970     6.4740     5.9290     5.6660    -1.1490 
  170.0000   403.0750    21.7470     7.1850     6.2640     5.7680     5.8020    -1.1460 
  170.1250   394.0420    21.7930     7.0450     6.0250     5.6020     6.0960    -1.1580 
