~V
VERS. 2.00: Ver 2.00
~W
STRT.M 24.0000:
STOP.M 215.0000:
STEP.M 0.1250:
NULL. -999.2500:
UWI. Z114:
~C
DEPT.M :
AC.US/MT :
CALI.CM :
GR.API :
RI. :
RML.OHMM :
RXO.OHMM :
SP.MV :
~A
# ...
  181.5000   377.4090    21.4210     7.1790     6.8530     6.2960     5.8130    -5.4330 
  181.6250   376.1650    21.4220     7.1620     6.5680     6.0560     6.1020    -5.9280 
  181.7500   372.2900    21.4230     7.3540     6.2570     6.0650     6.6580    -6.4420 
  181.8750   366.1090    21.4570     7.3850     6.2600     6.5320     7.2730    -6.9410 
  182.0000   359.6800    21.4750     7.4430     6.6010     7.1150     7.9390    -7.4400 
  182.1250   351.6420    21.4720     7.3640     7.1600     8.0780     8.8250    -7.3520 
  182.2500   341.4590    21.4270     7.4470     7.9410     8.9090     9.4580    -6.1400 
  182.3750   331.9790    21.4280     7.4950     9.2040     9.2710    10.1910    -5.0660 
  182.5000   338.9170    21.4280     7.3060     9.3360     8.8200    10.8690    -4.3520 
  182.6250   352.0200    21.4290     7.2700     8.8550     8.1700    10.1270    -3.8830 
  182.7500   365.2380    21.4300     7.3560     8.1880     7.4910     9.0460    -3.6310 
  182.8750   377.3460    21.5820     7.3280     7.9890     7.3000     7.9190    -3.5470 
  183.0000   387.6350    21.6330     7.1420    10.1890     7.1310     7.4040    -3.4940 
  183.1250   398.5340    21.6340     7.0500    10.2780     6.6060     6.8100    -3.5110 
  183.2500   402.7110    21.6000     6.9770     7.0950     5.9630     5.4950    -3.6090 
  183.3750   399.5700    21.5350     6.8290     5.8930     5.4410     4.9650    -3.8560 
  183.5000   395.8040    21.5360     7.0070     5.8960     5.4100     5.6240    -4.2070 
  183.6250   399.8740    21.6380     6.9080     6.1760     6.1100     5.6520    -4.6050 
  183.7500   405.2920    21.6380     6.9000     6.2020     6.1290     5.6550    -5.0780 
  183.8750   410.5130    21.6390     7.2030     5.6410     5.8020     5.5440    -5.5880 
  184.0000   405.1820    21.6400     6.9790     5.7410     5.5280     5.3060    -6.0480 
  184.1250   400.1260    21.6910     7.0260     5.9860     5.5200     5.2580    -6.3110 
  184.2500   395.8540    21.6920     6.9140     5.8130     5.8470     5.4620    -6.3290 
  184.3750   393.2810    21.6930     6.8290     5.8790     6.4230     5.9850    -6.1130 
  184.5000   392.9510    21.7440     6.7180     6.0190     6.7260     6.1740    -5.7260 
  184.6250   399.8230    21.7450     6.5530     6.0220     6.6610     6.0180    -5.4490 
  184.7500   408.8350    21.7310     6.3650     6.0750     6.4700     5.6250    -5.2850 
  184.8750   420.5140    21.6620     6.2600     6.2290     6.1820     5.3120    -5.2700 
  185.0000   428.4600    21.6470     6.0760     6.0650     5.8080     4.9220    -5.3100 
  185.1250   428.1820    21.7250     5.9210     5.6490     5.4850     4.6850    -5.2640 
  185.2500   414.1550    21.7490     5.9090     5.3340     5.2720     4.5730    -5.0370 
  185.3750   393.4230    21.7130     5.8350     5.0360     5.2390     5.6480    -4.7690 
  185.5000   356.2170    21.6460     5.7680     6.1160     6.6280     7.3200    -4.5220 
  185.6250   303.5450    21.6010     5.7160     7.2930     8.5300     9.9560    -4.5990 
  185.7500   304.6080    21.6020     5.7110     8.3470    10.4200    12.0690    -4.8870 
  185.8750   323.9650    21.6030     5.8510     9.1980    11.0900    14.2730    -5.0890 
  186.0000   359.3750    21.6000     5.9900    10.2680    10.3800    12.8030    -5.2510 
  186.1250   364.6190    21.5550     5.8560     9.7690     9.8540    10.8890    -5.3820 
  186.2500   358.5870    21.6050     5.7940     9.4250     9.4120     8.9630    -5.4860 
  186.3750   348.4840    21.5990     5.7740     9.0340     8.9730     8.5340    -5.4830 
  186.5000   340.1380    21.5600     5.8340     8.7940     8.9640     8.3340    -5.4410 
  186.6250   332.3910    21.5080     5.8570     8.7770     9.9840     9.4740    -5.5620 
  186.7500   325.5590    21.5090     5.9060     8.9730    10.8090    11.1340    -5.7170 
  186.8750   325.7830    21.5100     5.8190    10.0060    11.2480    13.2030    -5.7290 
  187.0000   326.4910    21.5110     5.8830    10.7310    11.3480    14.0720    -5.7900 
  187.1250   328.9840    21.5120     5.9480    11.1970    11.1200    12.4960    -5.9230 
  187.2500   330.9580    21.5120     5.8000    10.9740    10.8290    11.5810    -6.1560 
  187.3750   327.9510    21.5130     5.8610    10.8010    10.9330    11.1790    -6.3090 
  187.5000   322.1300    21.5140     5.8580    11.1890    11.2720    11.4620    -6.3640 
  187.6250   318.9260    21.5150     5.7030    11.7100    11.2740    11.7610    -6.1130 
  187.7500   317.6260    21.6170     5.7870    11.3540    11.0760    11.3050    -5.5830 
  187.8750   316.6290    21.6170     5.8850    11.0100    11.2410    10.6750    -5.0240 
  188.0000   320.1230    21.6180     5.9430    10.9410    12.1470    10.6760    -4.5990 
  188.1250   327.2020    21.6190     5.7250    11.6820    12.8260    11.7420    -4.2950 
  188.2500   325.9710    21.6200     5.5490    12.5270    12.5890    11.9680    -3.9110 
  188.3750   315.7250    21.6210     5.4920    12.0490    11.3260    11.3940    -3.6070 
  188.5000   301.9500    21.5760     5.6510    11.1920    10.4270    10.1220    -3.3680 
  188.6250   289.6110    21.5220     5.7600    10.7150    11.4720     9.3470    -3.1670 
  188.7500   294.2550    21.5280     5.6630    11.7210    12.8000    12.0670    -2.9950 
  188.8750   316.5570    21.6590     5.4960    12.6200    12.8940    13.4370    -2.8650 
  189.0000   309.0960    21.7260     5.5290    12.3770    12.8960    15.3270    -2.7430 
  189.1250   297.1800    21.7270     5.4910    12.8060    13.4890    16.9650    -2.6320 
  189.2500   285.8440    21.7780     5.3630    13.3940    14.2150    15.4350    -2.5700 
  189.3750   274.6450    21.7790     5.2460    13.6630    15.2000    13.7390    -2.5640 
  189.5000   265.3160    21.7800     5.3450    14.3560    16.2730    15.5160    -2.6010 
  189.6250   259.4550    21.7810     5.4040    15.4740    17.5600    18.6950    -2.7200 
  189.7500   264.0800    21.7810     5.3740    16.8260    18.5070    22.0480    -2.8750 
  189.8750   276.4770    21.7820     5.4000    17.7800    17.4030    23.1330    -2.4790 
  190.0000   298.2410    21.7830     5.3560    17.5370    15.0670    25.7880    -1.7400 
  190.1250   319.7940    21.7840     5.4410    14.9470    13.5840    20.1180    -1.0510 
  190.2500   349.8140    21.8390     5.4130    12.6850    10.1180    13.0940    -0.5020 
  190.3750   368.5760    21.9490     5.3090     9.1650     9.3430    12.0240    -0.0660 
  190.5000   385.7250    22.0830     5.3420     9.0050     7.3190    14.1710     0.2750 
  190.6250   412.4960    22.4430     5.2340     7.5040     5.6470     8.1770     0.4210 
  190.7500   427.9600    22.7590     5.0330     5.2740     5.0120     4.1650     0.3550 
  190.8750   424.1240    23.0750     4.8890     4.9350     4.9250     4.5810     0.2200 
  191.0000   423.8730    23.2550     4.8950     5.3140     4.9270     4.5830     0.0900 
  191.1250   426.3110    22.7910     4.9820     5.2620     4.9290     4.3840    -0.0200 
  191.2500   435.0050    22.3610     5.1630     4.9750     4.9150     4.1390    -0.0180 
  191.3750   411.5980    21.9650     5.3390     4.6730     4.8900     4.1590     0.0180 
  191.5000   398.0590    21.6510     5.4630     4.6760     6.3350     5.4780     0.2010 
  191.6250   353.3160    21.5430     5.4800     5.3140     7.2330     6.8790     0.5210 
  191.7500   353.4050    21.7630     5.5750     6.4880     6.4430     6.8930     0.5580 
  191.8750   367.9060    21.8260     5.5830     6.1740     5.7840     5.4850     0.4630 
  192.0000   387.0090    21.7580     5.5400     5.5490     5.1600     4.4850     0.2870 
  192.1250   391.8500    21.6470     5.5110     4.9780     4.9160     3.9630     0.1310 
  192.2500   359.8330    21.5980     5.6480     4.4790     5.1790     4.6970    -0.0660 
  192.3750   308.2810    21.8160     5.7070     4.2940     5.8660     6.6690    -0.1960 
  192.5000   290.9150    21.8020     5.4990     4.5110     6.3360     9.8230    -0.1740 
  192.6250   313.2840    21.6980     5.3130     5.2860     6.5520     9.1070    -0.0240 
