~V
VERS. 2.00: Ver 2.00
~W
STRT.M 24.0000:
STOP.M 215.0000:
STEP.M 0.1250:
NULL. -999.2500:
UWI. Z114:
~C
DEPT.M :
AC.US/MT :
CALI.CM :
GR.API :
RI. :
RML.OHMM :
RXO.OHMM :
SP.MV :
~A
# ...
   69.0000     0.0000     0.0000     0.0000     0.0000     0.0000     0.0000     0.0000 
   69.1250     0.0000     0.0000     0.0000     0.0000     0.0000     0.0000     0.0000 
   69.2500     0.0000     0.0000     0.0000     0.0000     0.0000     0.0000     0.0000 
   69.3750     0.0000     0.0000     0.0000     0.0000     0.0000     0.0000     0.0000 
   69.5000     0.0000     0.0000     0.0000     0.0000     0.0000     0.0000     0.0000 
   69.6250     0.0000     0.0000     0.0000     0.0000     0.0000     0.0000     0.0000 
   69.7500     0.0000     0.0000     0.0000     0.0000     0.0000     0.0000     0.0000 
   69.8750     0.0000     0.0000     0.0000     0.0000     0.0000     0.0000     0.0000 
   70.0000     0.0000     0.0000     0.0000     0.0000     0.0000     0.0000     0.0000 
   70.1250     0.0000     0.0000     0.0000     0.0000     0.0000     0.0000     0.0000 
   70.2500     0.0000     0.0000     0.0000     0.0000     0.0000     0.0000     0.0000 
   70.3750     0.0000     0.0000     0.0000     0.0000     0.0000     0.0000     0.0000 
   70.5000     0.0000     0.0000     0.0000     0.0000     0.0000     0.0000     0.0000 
   70.6250     0.0000     0.0000     0.0000     0.0000     0.0000     0.0000     0.0000 
   70.7500     0.0000     0.0000     0.0000     0.0000     0.0000     0.0000     0.0000 
   70.8750     0.0000     0.0000     0.0000     0.0000     0.0000     0.0000     0.0000 
   71.0000     0.0000     0.0000     0.0000     0.0000     0.0000     0.0000     0.0000 
   71.1250     0.0000     0.0000     0.0000     0.0000     0.0000     0.0000     0.0000 
   71.2500     0.0000     0.0000     0.0000     0.0000     0.0000     0.0000     0.0000 
   71.3750     0.0000     0.0000     0.0000     0.0000     0.0000     0.0000     0.0000 
   71.5000     0.0000     0.0000     0.0000     0.0000     0.0000     0.0000     0.0000 
   71.6250     0.0000     0.0000     0.0000     0.0000     0.0000     0.0000     0.0000 
   71.7500     0.0000     0.0000     0.0000     0.0000     0.0000     0.0000     0.0000 
   71.8750     0.0000     0.0000     0.0000     0.0000     0.0000     0.0000     0.0000 
   72.0000     0.0000     0.0000     0.0000     0.0000     0.0000     0.0000     0.0000 
   72.1250     0.0000     0.0000     0.0000     0.0000     0.0000     0.0000     0.0000 
   72.2500     0.0000     0.0000     0.0000     0.0000     0.0000     0.0000     0.0000 
   72.3750     0.0000     0.0000     0.0000     0.0000     0.0000     0.0000     0.0000 
   72.5000     0.0000     0.0000     0.0000     0.0000     0.0000     0.0000     0.0000 
   72.6250     0.0000     0.0000     0.0000     0.0000     0.0000     0.0000     0.0000 
   72.7500     0.0000     0.0000     0.0000     0.0000     0.0000     0.0000     0.0000 
   72.8750     0.0000     0.0000     0.0000     0.0000     0.0000     0.0000     0.0000 
   73.0000     0.0000     0.0000     0.0000     0.0000     0.0000     0.0000     0.0000 
   73.1250     0.0000     0.0000     0.0000     0.0000     0.0000     0.0000     0.0000 
   73.2500     0.0000     0.0000     0.0000     0.0000     0.0000     0.0000     0.0000 
   73.3750     0.0000     0.0000     0.0000     0.0000     0.0000     0.0000     0.0000 
   73.5000     0.0000     0.0000     0.0000     0.0000     0.0000     0.0000     0.0000 
   73.6250     0.0000     0.0000     0.0000     0.0000     0.0000     0.0000     0.0000 
   73.7500     0.0000     0.0000     0.0000     0.0000     0.0000     0.0000     0.0000 
   73.8750     0.0000     0.0000     0.0000     0.0000     0.0000     0.0000     0.0000 
   74.0000     0.0000     0.0000     0.0000     0.0000     0.0000     0.0000     0.0000 
   74.1250     0.0000     0.0000     0.0000     0.0000     0.0000     0.0000     0.0000 
   74.2500     0.0000     0.0000     0.0000     0.0000     0.0000     0.0000     0.0000 
   74.3750     0.0000     0.0000     0.0000     0.0000     0.0000     0.0000     0.0000 
   74.5000     0.0000     0.0000     0.0000     0.0000     0.0000     0.0000     0.0000 
   74.6250     0.0000     0.0000     0.0000     0.0000     0.0000     0.0000     0.0000 
   74.7500     0.0000     0.0000     0.0000     0.0000     0.0000     0.0000     0.0000 
   74.8750     0.0000     0.0000     0.0000     0.0000     0.0000     0.0000     0.0000 
   75.0000     0.0000     0.0000     0.0000     0.0000     0.0000     0.0000     0.0000 
   75.1250     0.0000     0.0000     0.0000     0.0000     0.0000     0.0000     0.0000 
   75.2500     0.0000     0.0000     0.0000     0.0000     0.0000     0.0000     0.0000 
   75.3750     0.0000     0.0000     0.0000     0.0000     0.0000     0.0000     0.0000 
   75.5000     0.0000     0.0000     0.0000     0.0000     0.0000     0.0000     0.0000 
   75.6250     0.0000     0.0000     0.0000     0.0000     0.0000     0.0000     0.0000 
   75.7500     0.0000     0.0000     0.0000     0.0000     0.0000     0.0000     0.0000 
   75.8750     0.0000     0.0000     0.0000     0.0000     0.0000     0.0000     0.0000 
   76.0000     0.0000     0.0000     0.0000     0.0000     0.0000     0.0000     0.0000 
   76.1250     0.0000     0.0000     0.0000     0.0000     0.0000     0.0000     0.0000 
   76.2500     0.0000     0.0000     0.0000     0.0000     0.0000     0.0000     0.0000 
   76.3750     0.0000     0.0000     0.0000     0.0000     0.0000     0.0000     0.0000 
   76.5000     0.0000     0.0000     0.0000     0.0000     0.0000     0.0000     0.0000 
   76.6250     0.0000     0.0000     0.0000     0.0000     0.0000     0.0000     0.0000 
   76.7500     0.0000     0.0000     0.0000     0.0000     0.0000     0.0000     0.0000 
   76.8750     0.0000     0.0000     0.0000     0.0000     0.0000     0.0000     0.0000 
   77.0000     0.0000     0.0000     0.0000     0.0000     0.0000     0.0000     0.0000 
   77.1250     0.0000     0.0000     0.0000     0.0000     0.0000     0.0000     0.0000 
   77.2500     0.0000     0.0000     0.0000     0.0000     0.0000     0.0000     0.0000 
   77.3750     0.0000     0.0000     0.0000     0.0000     0.0000     0.0000     0.0000 
   77.5000     0.0000     0.0000     0.0000     0.0000     0.0000     0.0000     0.0000 
   77.6250     0.0000     0.0000     0.0000     0.0000     0.0000     0.0000     0.0000 
   77.7500     0.0000     0.0000     0.0000     0.0000     0.0000     0.0000     0.0000 
   77.8750     0.0000     0.0000     0.0000     0.0000     0.0000     0.0000     0.0000 
   78.0000     0.0000     0.0000     0.0000     0.0000     0.0000     0.0000     0.0000 
   78.1250     0.0000     0.0000     0.0000     0.0000     0.0000     0.0000     0.0000 
   78.2500     0.0000     0.0000     0.0000     0.0000     0.0000     0.0000     0.0000 
   78.3750     0.0000     0.0000     0.0000     0.0000     0.0000     0.0000     0.0000 
   78.5000     0.0000     0.0000     0.0000     0.0000     0.0000     0.0000     0.0000 
   78.6250     0.0000     0.0000     0.0000     0.0000     0.0000     0.0000     0.0000 
   78.7500     0.0000     0.0000     0.0000     0.0000     0.0000     0.0000     0.0000 
   78.8750     0.0000     0.0000     0.0000     0.0000     0.0000     0.0000     0.0000 
   79.0000     0.0000     0.0000     0.0000     0.0000     0.0000     0.0000     0.0000 
   79.1250     0.0000     0.0000     0.0000     0.0000     0.0000     0.0000     0.0000 
   79.2500     0.0000     0.0000     0.0000     0.0000     0.0000     0.0000     0.0000 
   79.3750     0.0000     0.0000     0.0000     0.0000     0.0000     0.0000     0.0000 
   79.5000     0.0000     0.0000     0.0000     0.0000     0.0000     0.0000     0.0000 
   79.6250     0.0000     0.0000     0.0000     0.0000     0.0000     0.0000     0.0000 
   79.7500     0.0000     0.0000     0.0000     6.4210     0.0000     0.0000     0.0000 
   79.8750     0.0000     0.0000     0.0000     6.3240     0.0000     0.0000     0.0000 
   80.0000   480.4460    22.0600     7.1580     6.3270     6.2000     6.1620    -2.4330 
   80.1250   475.5330    22.0610     6.9650     7.2880     6.6300     6.0630    -2.2280 
