~V
VERS. 2.00: Ver 2.00
~W
STRT.M 24.0000:
STOP.M 215.0000:
STEP.M 0.1250:
NULL. -999.2500:
UWI. Z114:
~C
DEPT.M :
AC.US/MT :
CALI.CM :
GR.API :
RI. :
RML.OHMM :
RXO.OHMM :
SP.MV :
~A
# ...
  204.0000   395.9740    21.8600     4.6960     4.8720     6.1050     5.0790    -0.5490 
  204.1250   386.6470    21.6660     4.7480     4.9670     6.3100     5.2430    -0.7590 
  204.2500   384.0230    21.5670     4.6930     5.0700     6.4330     5.1800    -1.1400 
  204.3750   390.5510    21.4750     4.7950     5.3400     6.4350     5.9550    -1.4990 
  204.5000   396.3350    21.4330     4.7450     5.7780     6.3060     5.8040    -1.9060 
  204.6250   397.1450    21.4340     4.7090     5.6410     5.9510     5.2070    -2.2940 
  204.7500   388.4280    21.3800     4.9600     5.3660     6.3610     5.2650    -2.5560 
  204.8750   374.3140    21.2490     5.0850     5.0840     6.7020     7.4990    -2.2830 
  205.0000   343.2740    21.1350     5.1940     5.4740     7.5120     8.9140    -1.9150 
  205.1250   314.4990    21.0860     5.2400     7.9440     9.0640     9.9830    -1.5700 
  205.2500   312.3200    21.0870     5.1750     9.1070    10.1350    11.0820    -1.1240 
  205.3750   318.3040    21.0880     5.1540     9.9120    11.2500    11.2350    -0.7690 
  205.5000   324.1130    21.0890     5.0650     9.8090    11.0220    11.1280    -0.4330 
  205.6250   328.5920    21.1400     5.1250     9.6030    10.5450    10.2510    -0.2050 
  205.7500   314.2400    21.1410     5.0300     9.3860    10.1820    10.9500    -0.0610 
  205.8750   300.9220    21.1420     5.0030     9.1210    11.7460    12.5940     0.0250 
  206.0000   290.1570    21.1420     5.1270    10.8630    13.2210    14.8900     0.0280 
  206.1250   279.5020    21.1430     5.0400    12.6080    14.7660    17.2480    -0.0300 
  206.2500   279.9660    21.1940     4.8380    14.3030    15.6900    18.7190    -0.0680 
  206.3750   285.1990    21.1100     4.8980    14.9320    15.7490    17.1230    -0.0540 
  206.5000   285.7650    20.9820     5.0090    14.7480    15.5090    15.6930     0.3140 
  206.6250   285.7710    20.8960     5.0630    14.6560    15.4700    17.3000     0.6990 
  206.7500   280.7110    20.8970     5.0100    14.5590    15.4900    20.2120     0.8450 
  206.8750   274.0330    21.0630     4.9440    14.5780    16.0250    21.5340     0.8480 
  207.0000   268.3890    21.0990     4.9530    14.8020    16.8010    17.5210     0.8500 
  207.1250   266.4860    21.1000     5.0580    15.3560    17.9780    19.0950     0.8530 
  207.2500   266.6500    21.0670     4.9450    17.2790    17.8720    18.1420     0.8550 
  207.3750   268.4490    21.0450     4.9010    16.9220    17.6320    18.4610     0.8460 
  207.5000   274.0290    21.0020     4.8090    16.5830    17.0080    18.5110     0.7540 
  207.6250   279.2160    21.0030     4.8090    16.6660    16.2820    15.5700     0.7170 
  207.7500   284.1790    21.0540     4.9010    16.1350    15.2490    14.6320     0.6350 
  207.8750   289.1850    21.0550     4.8490    15.0220    14.2970    13.4660     0.5900 
  208.0000   294.3520    21.0150     4.9300    13.6420    13.3180    12.0780     0.5570 
  208.1250   300.4030    21.0070     4.9850    12.2330    12.4240    11.5830     0.5250 
  208.2500   300.5590    21.0080     4.7920    11.4240    12.1950    11.6410     0.4920 
  208.3750   296.0920    21.0090     4.5310    11.1850    12.5350    13.1580     0.4600 
  208.5000   291.4580    21.0090     4.3500    11.2430    12.8660    14.1560     0.4270 
  208.6250   335.0160    21.0610     4.3770    12.1450    12.4230    13.5220     0.3940 
  208.7500   381.9390    21.0540     4.3260    10.6920    10.9250    11.4860     0.3840 
  208.8750   406.6020    20.8990     4.2390     8.3930     9.1520     9.1240     0.3860 
  209.0000   418.8770    20.8130     4.1440     5.7270     7.2240     6.7590     0.3890 
  209.1250   423.3540    20.7470     4.1540     4.6810     5.3280     4.4110     0.3910 
  209.2500   427.6730    20.7130     4.2480     4.6830     5.2110     4.3330     0.3940 
  209.3750   431.6700    20.7140     4.4800     4.6860     5.2130     4.3350     0.3960 
  209.5000   435.9490    20.8670     4.7220     4.2780     4.9660     4.1350     0.3990 
  209.6250   424.4910    20.9670     4.9320     4.2400     4.8280     4.5820     0.4010 
  209.7500   412.6950    20.9680     5.1240     4.4790     5.2650     5.0120     0.4040 
  209.8750   396.9560    21.0290     5.0960     4.8430     5.6210     4.9510     0.4060 
  210.0000   396.3150    21.1210     5.0380     5.1110     5.6220     4.9530     0.4090 
  210.1250   399.2990    21.1720     5.2080     5.3060     5.6100     5.0570     0.4120 
  210.2500   402.1670    21.1720     5.2340     5.2190     5.4260     5.0590     0.4140 
  210.3750   400.3980    21.0930     5.1700     5.1110     5.4280     4.8300     0.4160 
  210.5000   393.2800    20.9460     5.3720     5.0130     5.4300     4.5590     0.4190 
  210.6250   386.1100    20.8740     5.4470     5.0160     6.2530     5.0580    -0.0910 
  210.7500   380.7120    21.0020     5.6190     5.1300     6.5160     5.3720    -0.0480 
  210.8750   380.4580    21.1770     5.7480     5.3230     6.5360     4.9760    -0.0930 
  211.0000   388.5380    21.2640     5.8370     5.1960     6.2900     4.6570    -0.0750 
  211.1250   390.9480    21.2790     5.9290     4.9270     6.2400     4.7090     0.0450 
  211.2500   387.8450    21.2800     6.0340     4.8300     6.4650     5.3420     0.3110 
  211.3750   385.4850    21.2810     6.0630     5.3150     6.6260     5.3840     0.6930 
  211.5000   387.1180    21.2820     5.9650     5.3220     6.3980     5.3410     0.9220 
  211.6250   390.8930    21.2830     6.1320     5.0390     6.2480     6.0120     0.9700 
  211.7500   387.7700    21.2940     6.3820     5.1080     6.0500     7.0940     0.9720 
  211.8750   377.1670    21.3340     6.5770     5.3410     6.4710     8.3630     0.9380 
  212.0000   363.1700    21.3360     6.7780     5.5060     7.6480     9.8450     0.9250 
  212.1250   355.9980    21.3420     6.7980     6.1680     7.8960     9.5710     0.8760 
  212.2500   351.6890    21.3650     6.5300     6.8070     7.5120     8.0730     0.8470 
  212.3750   344.9870    21.3880     6.3600     6.4710     7.0240     7.1390     0.7880 
  212.5000   336.5250    21.4130     6.1890     5.9560     6.6650     6.3070     0.7370 
  212.6250   403.6760    21.4390     6.0630     5.5250     6.2050     5.1370     0.6880 
  212.7500   407.1070    21.4410     6.2560     5.1440     5.8000     4.9250     0.6070 
  212.8750   427.9350    21.4420     6.4800     4.8040     5.4670     5.3120     0.5600 
  213.0000   453.4520    21.4580     6.7070     4.4690     5.7350     5.6180     0.5230 
  213.1250   421.5690    21.4820     6.8760     5.1120     6.3160     6.0570     0.4700 
  213.2500   347.3530    21.5040     6.9870     6.0420     7.2730     6.9190     0.4020 
  213.3750   340.1790    21.5250     7.1760     6.5130     6.8310     7.7460     0.3400 
  213.5000   337.5590    21.5450     7.1410     5.4270     5.4770     7.8510     0.3360 
  213.6250   337.5640    21.5660     7.0890     5.1860     5.6150     7.9530     0.2930 
  213.7500   337.5690    21.5860     7.0350     5.3090     6.1300     7.9550     0.2950 
  213.8750   338.0440    21.6120     6.7790     5.3920     6.2830     7.9580     0.3700 
  214.0000   338.5700    21.6500     6.5260     5.5370     6.2840     7.9600     0.5490 
  214.1250   338.9540    21.6880     6.3010     5.5980     6.2860     7.9630     0.6010 
  214.2500   339.0770    21.7230     6.0730     5.6010     6.2880     7.9650     0.5020 
  214.3750   339.0820    21.7550     5.8810     5.7040     6.2900     7.8910     0.4540 
  214.5000   339.0890    21.7870     5.7710     5.7070     6.2920     7.8690     0.4560 
  214.6250   339.0940    21.8140     5.6600     5.7100     6.2940     7.8710     0.4570 
  214.7500   339.2730    21.8320     5.5290     5.7130     6.2960     7.8740     0.4590 
  214.8750   339.5890    21.8510     5.5860     5.7160     6.2980     7.7750     0.4600 
  215.0000   268.3890    21.0990     4.9530    14.8020    16.8010    17.5210     0.8500 
