~V
VERS. 2.00: Ver 2.00
~W
STRT.M 20.0000:
STOP.M 211.0000:
STEP.M 0.1250:
NULL. -999.2500:
UWI. Z115:
~C
DEPT.M :
AC.US/MT :
CALI.CM :
GR.API :
RI. :
RML.OHMM :
RXO.OHMM :
SP.MV :
~A
# ...
  121.2500   277.1650    23.8780     5.5640    18.3320    22.1580    20.6530    -1.3870 
  121.3750   286.5690    23.8980     5.5200    16.8610    22.9220    22.6680    -1.3640 
  121.5000   262.9530    23.9270     5.6810    15.2180    22.2260    21.7310    -1.3400 
  121.6250   245.0710    24.0020     5.8580    16.3220    21.1540    19.7960    -1.3160 
  121.7500   234.6760    24.1110     5.9770    18.1990    22.3470    29.4220    -1.2930 
  121.8750   252.0750    24.1770     6.1320    18.1710    23.5750    23.6230    -1.2690 
  122.0000   266.3530    24.2190     6.2870    14.9240    24.8450    18.4540    -1.2540 
  122.1250   278.3070    24.2880     6.4760    12.4140    19.5930    13.5920    -1.2410 
  122.2500   288.7290    24.3390     6.5360    11.4150    15.8700    14.0030    -1.2280 
  122.3750   300.1370    24.1360     6.4100    11.3470    15.0050    14.5550    -1.2160 
  122.5000   308.8090    24.3220     6.2640    11.1460    15.2030    14.3210    -1.2040 
  122.6250   317.8220    24.5400     6.0590    10.8620    14.9230    13.0630    -1.1930 
  122.7500   324.9410    24.7150     5.7870    10.3600    13.7960    11.5310    -1.1810 
  122.8750   308.3020    24.8910     5.5970     8.6100    12.3440     9.3860    -1.1750 
  123.0000   297.8590    25.0490     5.7380     8.1110    11.5180     8.7130    -1.1760 
  123.1250   290.6590    25.1980     5.9270     8.1080    10.4790     8.9810    -1.1780 
  123.2500   286.0440    25.3470     6.0300     8.1100    10.8970     9.7680    -1.1900 
  123.3750   291.3000    25.4640     6.1010     8.1120    11.4700    10.7690    -1.2220 
  123.5000   300.3380    25.5620     6.1670     8.1560    11.9990    11.5950    -1.2540 
  123.6250   309.7910    25.5790     6.2440     8.2170    12.5090    12.3260    -1.2860 
  123.7500   317.8830    25.6310     6.3020     8.2190    12.9800    12.3330    -1.3370 
  123.8750   326.8330    25.7040     6.3750     8.2210    12.9790    11.4970    -1.3890 
  124.0000   335.5320    25.7850     6.4480     8.2240    11.0360    10.3860    -1.4410 
  124.1250   342.7200    25.9120     6.5290     8.1180     9.6240     9.8320    -1.4940 
  124.2500   351.0510    26.0390     6.6210     7.9100     8.1770     8.4510    -1.5470 
  124.3750   342.6870    26.1190     6.6970     6.8290     7.7420     7.3290    -1.6010 
  124.5000   332.6950    26.1240     6.6950     6.1130     8.0000     6.3290    -1.6540 
  124.6250   326.1150    26.0730     6.5730     5.9400     8.2780     6.5110    -1.7070 
  124.7500   322.6610    25.9120     6.4370     6.4570     8.7050     7.5920    -1.7510 
  124.8750   323.8130    25.7130     6.6670     6.8790     9.1640     8.1110    -1.7940 
  125.0000   325.0930    25.5280     6.7820     7.2620     9.5690     8.4520    -1.8370 
  125.1250   325.2200    25.3730     6.8610     7.6000    10.2820     9.4790    -1.8770 
  125.2500   320.6690    25.2460     6.9530     8.3190    11.3060    11.3860    -1.9050 
  125.3750   307.2080    25.1670     7.0310     9.2680    13.1830    13.4050    -1.9330 
  125.5000   289.5560    25.1030     7.1080    10.2570    14.7220    15.6350    -1.9610 
  125.6250   276.3370    25.0720     7.1820    11.3370    16.8170    20.6290    -1.9880 
  125.7500   291.5470    25.0860     7.2600    13.5990    19.2610    29.6330    -2.0130 
  125.8750   303.9660    25.1140     7.2300    16.8180    21.4440    32.5750    -2.0370 
  126.0000   314.7640    25.1150     6.7540    19.9960    25.1690    31.3730    -2.0610 
  126.1250   322.5570    25.1150     6.8920    20.1560    22.9190    26.9160    -2.0860 
  126.2500   329.7620    25.1160     7.0770    17.4390    20.5670    18.2770    -2.1260 
  126.3750   333.4290    25.1400     7.2350    15.2200    16.4440    14.9670    -2.1680 
  126.5000   255.4090    25.1820     7.3460    12.7400    11.9230    12.7720    -2.2090 
  126.6250   245.2680    25.2880     7.4370     9.9420    12.2750    17.4480    -2.2500 
  126.7500   248.9090    25.4180     7.4830    10.1080    14.8840    27.7760    -2.2860 
  126.8750   256.1490    25.5400     7.3570    14.8490    18.4470    31.6870    -2.3210 
  127.0000   270.3010    25.6040     7.5520    20.6150    22.1660    33.0150    -2.3540 
  127.1250   283.0040    25.6720     7.6260    21.9870    24.7590    30.8860    -2.3300 
  127.2500   296.8160    25.7440     7.5390    20.0130    26.8540    28.6230    -2.2940 
  127.3750   314.5250    25.8240     7.6960    18.4510    24.7860    27.6410    -2.1630 
  127.5000   330.6950    25.8890     7.7820    18.4990    23.4710    25.5270    -2.0310 
  127.6250   344.0770    25.9600     7.8390    14.5590    24.5170    15.4340    -1.9010 
  127.7500   362.4480    26.0460     7.9390    11.7770    14.9260     9.4830    -1.8200 
  127.8750   384.8190    26.1260     7.9040     7.3740     9.9490     7.8030    -1.7380 
  128.0000   417.0290    26.1990     7.8820     5.5100     7.5560     6.5460    -1.6560 
  128.1250   447.7830    26.2730     8.0980     4.6780     5.6110     5.1480    -1.7050 
  128.2500   455.8020    26.3460     8.1970     3.6710     4.6580     3.7790    -1.7560 
  128.3750   442.8340    26.4200     8.2800     3.1840     4.6590     3.6800    -1.8900 
  128.5000   435.8880    26.4930     8.1350     3.3350     4.8740     3.7670    -2.0340 
  128.6250   431.8540    26.5600     8.3110     3.5470     5.2060     4.2970    -2.1760 
  128.7500   428.7110    26.6090     8.5210     3.8200     5.5570     4.8610    -2.2800 
  128.8750   425.6830    26.6580     8.6890     4.1720     5.8890     5.2880    -2.3830 
  129.0000   427.8320    26.7070     8.8050     4.2770     6.1690     5.6490    -2.4860 
  129.1250   431.2630    26.7610     8.8570     4.2650     6.2320     5.8080    -2.5840 
  129.2500   434.7480    26.8570     8.6410     4.2340     6.2620     5.8990    -2.6770 
  129.3750   439.0240    26.9190     8.0780     4.2030     6.3710     5.8730    -2.7700 
  129.5000   443.9780    26.9480     7.8400     4.1840     6.8010     5.6960    -2.8490 
  129.6250   448.2960    26.9570     7.7420     4.1530     7.0640     5.5180    -2.8510 
  129.7500   452.9550    26.9570     8.0160     4.0150     7.0640     5.5200    -2.8530 
  129.8750   457.4960    26.9320     8.1720     3.8210     6.3950     5.6070    -2.8550 
  130.0000   461.9890    26.9060     8.1970     3.6120     5.4600     5.6800    -2.8560 
  130.1250   458.9400    26.8850     8.1370     3.4890     5.1420     5.4420    -2.8190 
  130.2500   454.2010    26.8650     8.0640     3.4910     5.6420     5.0680    -2.7790 
  130.3750   457.4300    26.8240     7.9600     3.5660     6.1750     4.9560    -2.7400 
  130.5000   461.2950    26.7710     7.7990     3.6390     6.1020     4.9150    -2.7010 
  130.6250   465.9840    26.7340     7.5640     3.7080     5.5230     5.0660    -2.6620 
  130.7500   469.8840    26.6930     7.2850     3.8020     5.5390     5.2440    -2.6630 
  130.8750   437.2440    26.5880     7.0200     3.8210     5.7870     6.0170    -2.6650 
  131.0000   396.5020    26.4080     6.8280     4.1960     5.9350     9.1460    -2.6660 
  131.1250   355.7600    26.2360     6.6130     6.3750     6.8030    12.7840    -2.7820 
  131.2500   315.0190    26.0350     6.4460    10.3000     9.1080    19.3870    -2.9660 
  131.3750   304.3970    25.8970     6.3040    15.2880    12.7240    29.5190    -3.1490 
  131.5000   347.3540    26.0020     6.1670    18.2980    15.9430    30.0570    -3.3300 
  131.6250   390.3100    26.2230     6.0540    23.2670    21.1400    23.9960    -3.5120 
  131.7500   416.3900    26.4340     6.0020    29.1470    28.4320    30.7330    -3.5770 
  131.8750   418.1220    26.6310     6.0010    32.7940    38.8260    41.7980    -3.6190 
  132.0000   420.0240    26.7500     6.0350    35.2020    44.6080    47.9580    -3.6500 
  132.1250   421.9820    26.8510     6.0800    32.1160    49.4010    44.3820    -3.6520 
  132.2500   421.9800    26.9440     6.1040    29.6180    45.4920    38.9940    -3.6530 
  132.3750   420.5730    27.0370     6.0170    26.9450    42.0540    34.2170    -3.7840 
