~V
VERS. 2.00: Ver 2.00
~W
STRT.M 20.0000:
STOP.M 211.0000:
STEP.M 0.1250:
NULL. -999.2500:
UWI. Z115:
~C
DEPT.M :
AC.US/MT :
CALI.CM :
GR.API :
RI. :
RML.OHMM :
RXO.OHMM :
SP.MV :
~A
# ...
   87.5000     0.0000     0.0000     0.0000     0.0000     0.0000     0.0000     0.0000 
   87.6250     0.0000     0.0000     0.0000     0.0000     0.0000     0.0000     0.0000 
   87.7500     0.0000     0.0000     0.0000     0.0000     0.0000     0.0000     0.0000 
   87.8750     0.0000     0.0000     0.0000     0.0000     0.0000     0.0000     0.0000 
   88.0000     0.0000     0.0000     0.0000     0.0000     0.0000     0.0000     0.0000 
   88.1250     0.0000     0.0000     0.0000     0.0000     0.0000     0.0000     0.0000 
   88.2500     0.0000     0.0000     0.0000     0.0000     0.0000     0.0000     0.0000 
   88.3750     0.0000     0.0000     0.0000     0.0000     0.0000     0.0000     0.0000 
   88.5000     0.0000     0.0000     0.0000     0.0000     0.0000     0.0000     0.0000 
   88.6250     0.0000     0.0000     0.0000     0.0000     0.0000     0.0000     0.0000 
   88.7500     0.0000     0.0000     0.0000     0.0000     0.0000     0.0000     0.0000 
   88.8750     0.0000     0.0000     0.0000     0.0000     0.0000     0.0000     0.0000 
   89.0000     0.0000     0.0000     0.0000     0.0000     0.0000     0.0000     0.0000 
   89.1250     0.0000     0.0000     0.0000     0.0000     0.0000     0.0000     0.0000 
   89.2500     0.0000     0.0000     0.0000     0.0000     0.0000     0.0000     0.0000 
   89.3750     0.0000     0.0000     0.0000     0.0000     0.0000     0.0000     0.0000 
   89.5000     0.0000     0.0000     0.0000     0.0000     0.0000     0.0000     0.0000 
   89.6250     0.0000     0.0000     0.0000     0.0000     0.0000     0.0000     0.0000 
   89.7500     0.0000     0.0000     0.0000     0.0000     0.0000     0.0000     0.0000 
   89.8750     0.0000     0.0000     0.0000     0.0000     0.0000     0.0000     0.0000 
   90.0000   451.0080    25.9900     9.0000     4.9160     6.8670     5.6910    -0.1360 
   90.1250   452.0860    25.9900     8.9390     4.7370     6.5910     6.0810    -0.1800 
   90.2500   454.9670    26.0150     9.0070     4.7820     6.3890     5.8830    -0.2260 
   90.3750   458.7630    26.0400     9.1250     4.9720     6.3370     4.9850    -0.2600 
   90.5000   462.0360    26.0420     9.1940     4.9080     6.3020     4.9200    -0.2610 
   90.6250   464.5350    26.0430     9.2480     4.3090     6.3030     4.4130    -0.2630 
   90.7500   453.7130    26.0430     9.2930     4.2440     6.1460     4.2220    -0.2860 
   90.8750   424.5790    26.0440     9.2350     4.2460     5.7710     4.2230    -0.3430 
   91.0000   412.8070    26.0440     9.1420     3.8990     5.2150     4.4440    -0.4030 
   91.1250   404.2830    26.0450     9.1340     3.9280     5.4170     4.7890    -0.4230 
   91.2500   395.0110    26.0450     9.1910     4.1590     6.0410     5.5070    -0.4250 
   91.3750   404.8100    26.0460     8.7530     4.5020     6.4790     6.3760    -0.4270 
   91.5000   424.2090    26.0460     8.7060     4.4640     6.7010     5.8370    -0.4280 
   91.6250   443.0050    26.0470     8.6410     4.3690     6.8070     5.9070    -0.4300 
   91.7500   451.1880    26.0470     8.5980     4.6860     6.8070     5.6780    -0.4040 
   91.8750   456.0210    26.0480     8.5560     4.9690     6.8080     5.3410    -0.3560 
   92.0000   458.8250    26.0610     8.4510     4.8160     6.8080     5.0780    -0.2940 
   92.1250   460.6490    26.0900     8.4720     4.4980     6.6280     4.5430    -0.2150 
   92.2500   461.7080    26.1100     8.5040     4.5840     6.1900     4.8150    -0.1320 
   92.3750   457.5160    26.1260     8.5400     4.6700     5.7100     5.5750    -0.0450 
   92.5000   437.4220    26.1410     8.5700     4.8000     5.7650     5.3510     0.0480 
   92.6250   417.3280    26.1520     8.4910     4.3080     6.2090     5.6700     0.1350 
   92.7500   397.2340    26.1530     8.2270     4.1770     6.7250     6.5930     0.2190 
   92.8750   408.5830    26.1720     8.0510     4.4920     7.0780     6.5590     0.2970 
   93.0000   428.3480    26.1990     7.9420     4.9250     7.7800     6.5610     0.3690 
   93.1250   445.6090    26.2050     7.8780     5.6300     8.3040     8.9460     0.3880 
   93.2500   445.8830    26.2050     7.8040     6.4470     9.0710    11.3870     0.4080 
   93.3750   447.1900    26.2270     7.6910     7.5480     9.8880    12.0150     0.4420 
   93.5000   448.5520    26.2520     7.4560     8.8040    10.6970    11.7810     0.4820 
   93.6250   449.2550    26.2780     7.2900     8.8260    10.6560    15.0480     0.5170 
   93.7500   449.6800    26.3050     7.2490    10.9220    14.9360    19.1420     0.5350 
   93.8750   445.0010    26.3430     7.2730    21.3650    20.5930    23.2370     0.5530 
   94.0000   400.3450    26.3610     7.2890    27.7090    26.2490    27.3310     0.5570 
   94.1250   355.6900    26.3850     7.3290    29.4200    31.9060    31.4250     0.5550 
   94.2500   314.7480    26.4380     7.4630    28.9160    36.5770    35.5200     0.4020 
   94.3750   349.0180    25.9250     7.7370    26.7070    30.5700    39.6140     0.2410 
   94.5000   385.9780    25.6520     8.0210    21.1800    24.5620    43.7080     0.0720 
   94.6250   422.9380    25.6770     8.2030    10.1370    18.5550    44.3510    -0.1880 
   94.7500   451.2470    25.7300     8.3780     5.7900    12.5470    10.5320    -0.3380 
   94.8750   451.5660    25.7970     8.4930     5.8030     7.7270     8.4980    -0.3920 
   95.0000   453.1310    25.8810     8.6510     6.8540     8.0680    10.4070    -0.4270 
   95.1250   454.2950    25.9760     8.6820     7.8200     8.7590    10.9970    -0.4280 
   95.2500   451.3050    26.0510     8.7110     6.8950     9.7850     8.7860    -0.4300 
   95.3750   451.7140    26.1140     8.7590     5.5760    10.0880     6.5750    -0.4320 
   95.5000   451.6690    26.1630     8.7940     4.8330     7.4420     4.6930    -0.4340 
   95.6250   452.5380    26.2130     8.7290     4.4150     7.4230     5.1050    -0.4250 
   95.7500   453.9030    26.2320     8.7390     4.1960     7.1360     5.4300    -0.3870 
   95.8750   454.5190    26.2500     8.9200     3.9680     6.7240     5.7020    -0.2650 
   96.0000   452.8240    26.2670     9.0080     3.8280     6.7520     5.7030    -0.1190 
   96.1250   453.7540    26.2670     8.5950     3.8300     6.7920     4.8650     0.0640 
   96.2500   454.8580    26.2680     8.6260     3.8320     6.4360     4.8960     0.2460 
   96.3750   454.8630    26.2680     8.6670     3.8340     6.0950     4.9070     0.4250 
   96.5000   454.4750    26.2690     8.7010     3.8360     5.8050     4.5850     0.6090 
   96.6250   452.9180    26.2730     8.6430     4.0790     5.7530     4.4100     0.8180 
   96.7500   450.4900    26.3110     8.5190     4.3750     5.9760     4.8560     1.0180 
   96.8750   447.0090    26.3490     8.3930     4.6920     6.4430     7.0370     1.1870 
   97.0000   442.5150    26.4040     8.0190     5.3660     6.7910     9.3170     1.3580 
   97.1250   442.9350    26.4890     7.7980     6.0450     7.0620    12.2380     1.5410 
   97.2500   446.5500    26.5740     7.6720     6.9010     8.2180    14.0260     1.7180 
   97.3750   447.6450    26.6380     7.5080     8.2360    12.7170    15.3980     1.8750 
   97.5000   444.3640    26.7020     7.4320     9.9000    16.4670    17.4750     2.0400 
   97.6250   439.9420    26.7520     7.4770    11.4910    19.7750    19.6330     2.2280 
   97.7500   439.7810    26.7920     7.5200    13.5580    22.8430    22.4390     2.4250 
   97.8750   438.3810    26.8320     7.4520    15.9360    25.9840    23.9730     2.6270 
   98.0000   436.0990    26.8820     7.3330    18.7760    28.8690    25.0880     2.8150 
   98.1250   432.2230    26.9310     7.2720    21.0600    30.4080    26.3520     2.9820 
   98.2500   433.1160    26.9360     7.2470    22.7650    31.4400    24.6320     3.1490 
   98.3750   434.6950    26.9360     7.2560    24.2490    32.2000    25.7480     3.2830 
   98.5000   436.7130    26.9460     7.3240    24.7930    32.9280    27.1320     3.4180 
   98.6250   438.9870    26.9650     7.3540    25.2260    33.6680    28.4520     3.5360 
