~V
VERS. 2.00: Ver 2.00
~W
STRT.M 20.0000:
STOP.M 211.0000:
STEP.M 0.1250:
NULL. -999.2500:
UWI. Z115:
~C
DEPT.M :
AC.US/MT :
CALI.CM :
GR.API :
RI. :
RML.OHMM :
RXO.OHMM :
SP.MV :
~A
# ...
  143.7500   419.8550    30.1590     5.9860    26.4190    47.5840    48.9340    -5.2480 
  143.8750   417.0210    30.1590     5.9000    26.5960    47.2230    51.5070    -5.2220 
  144.0000   421.0460    30.0410     5.9830    27.9210    51.0270    54.4430    -5.1970 
  144.1250   424.8250    29.9280     6.1210    30.5570    58.3850    67.7350    -5.1710 
  144.2500   427.9880    29.8410     6.2880    32.2900    65.6380    48.9130    -5.1460 
  144.3750   426.7310    29.7500     6.3370    28.8100    66.5060    45.2160    -5.1250 
  144.5000   421.3240    29.6550     6.1950    26.6620    50.2650    44.1100    -5.1040 
  144.6250   414.4890    29.4800     5.9520    26.4970    48.7640    43.5560    -5.0830 
  144.7500   411.3270    29.3530     5.9780    27.2570    49.9680    49.1950    -5.0620 
  144.8750   411.8330    29.2670     6.1170    28.3050    51.7850    54.1200    -5.0640 
  145.0000   414.0510    29.1810     6.2330    29.3430    53.8580    55.2710    -5.0810 
  145.1250   416.5040    29.0940     6.3110    28.6220    55.8280    45.6390    -5.0980 
  145.2500   419.0950    28.9890     6.3810    27.7520    52.0720    45.3210    -5.1490 
  145.3750   416.4520    28.9040     6.4480    27.0220    49.4060    44.1670    -5.3100 
  145.5000   412.0550    28.8340     6.5110    26.2810    48.6510    42.7460    -5.4720 
  145.6250   415.3400    28.7640     6.5600    25.4080    46.9250    41.3740    -5.6220 
  145.7500   420.9580    28.6880     6.6170    24.3860    44.1050    40.1300    -5.7510 
  145.8750   426.6760    28.6090     6.6100    23.1450    40.4170    39.8600    -5.8800 
  146.0000   419.2080    28.5150     6.5220    21.8530    37.8090    36.6730    -5.8870 
  146.1250   410.2870    28.4180     6.4630    22.5430    36.4910    36.0170    -5.8890 
  146.2500   401.6370    28.3340     6.4860    23.9730    37.7070    37.9660    -5.8350 
  146.3750   397.8950    28.2550     6.6080    25.2290    39.9380    33.8730    -5.6960 
  146.5000   399.4780    28.1820     6.4750    24.4870    38.8860    33.6580    -5.5570 
  146.6250   402.1440    28.1370     6.3720    24.3270    38.6920    34.9060    -5.4620 
  146.7500   404.5920    28.0920     6.3300    25.0830    40.3010    36.7040    -5.4100 
  146.8750   405.3720    28.0470     6.4370    25.9550    40.6220    39.0470    -5.3590 
  147.0000   405.3780    28.0030     6.5420    25.4400    38.1050    41.2940    -5.4220 
  147.1250   404.7790    27.9890     6.4760    24.0840    36.2180    35.6280    -5.5610 
  147.2500   402.6280    27.9900     6.4450    25.4410    36.3290    33.1380    -5.6940 
  147.3750   400.3040    27.9900     6.4310    27.0590    38.7200    35.4470    -5.8190 
  147.5000   404.5910    27.9910     6.2940    28.6560    40.9320    41.1980    -5.9080 
  147.6250   409.9760    27.9910     6.1560    30.1070    43.2610    45.5720    -5.7770 
  147.7500   410.6560    27.9920     6.0330    31.4040    45.3860    48.7210    -5.5020 
  147.8750   406.5800    27.9920     6.1260    32.4830    47.3760    48.9480    -5.2250 
  148.0000   405.9330    27.9800     6.2580    33.2780    48.7950    50.1930    -4.9480 
  148.1250   405.9400    27.9600     6.3820    34.0840    50.0420    50.0720    -4.7040 
  148.2500   403.5140    27.9280     6.4440    34.7930    50.6970    51.5510    -4.5010 
  148.3750   377.0530    27.7560     6.2030    35.5020    52.1230    51.2000    -4.2990 
  148.5000   350.5920    27.5840     6.0270    36.4500    53.0300    51.1120    -4.0970 
  148.6250   324.1300    27.4120     6.0160    36.8230    53.4460    53.6080    -3.8940 
  148.7500   297.6690    27.2200     6.0120    35.1460    52.2920    57.5890    -3.7080 
  148.8750   271.2080    26.9720     6.1990    34.2640    50.8210    50.2580    -3.5420 
  149.0000   244.7470    26.7860     6.4370    35.9260    51.0660    48.3290    -3.3760 
  149.1250   230.6750    26.6170     6.6860    37.8580    54.2540    50.5330    -3.2840 
  149.2500   264.1850    26.4980     6.8890    36.8860    56.9580    51.7100    -3.2220 
  149.3750   297.6940    26.4750     7.1110    31.9470    51.0110    49.3030    -3.1790 
  149.5000   331.2040    26.4760     7.3660    17.6090    41.9860    45.0920    -3.1810 
  149.6250   364.7140    26.4760     7.6370     7.0220    32.9620    46.5890    -3.2040 
  149.7500   398.2230    26.4770     7.9840     3.7860    23.9370    29.1770    -3.2640 
  149.8750   431.7330    26.5000     8.1950     3.4150    14.9130     6.6760    -3.3270 
  150.0000   442.3020    26.5250     8.2430     3.5170     5.8880     4.2980    -3.3930 
  150.1250   434.8810    26.6540     8.2780     3.6210     4.9590     4.7690    -3.4520 
  150.2500   432.8140    26.7940     8.3290     3.6070     4.7490     4.9630    -3.4890 
  150.3750   432.8210    26.9000     8.4080     3.5240     4.7490     5.0520    -3.5270 
  150.5000   434.0560    26.9780     8.4870     3.5260     4.7500     5.2770    -3.5720 
  150.6250   437.2510    27.0430     8.5720     3.3210     4.7500     4.7410    -3.6340 
  150.7500   441.9910    27.1280     8.7050     3.2280     4.7510     5.0720    -3.6970 
  150.8750   442.0910    27.2120     8.8420     3.1270     5.0120     5.2880    -3.7590 
  151.0000   433.7310    27.2810     8.9460     2.9160     5.0140     5.2630    -3.8310 
  151.1250   426.2500    27.3410     9.0520     2.8280     4.7650     5.4530    -3.9040 
  151.2500   420.8690    27.4040     9.1550     2.7520     4.7040     5.2390    -3.9790 
  151.3750   415.0730    27.5030     9.2750     2.8420     4.6630     4.7840    -4.0870 
  151.5000   412.6750    27.6020     9.4090     2.9720     5.0200     5.3280    -4.1950 
  151.6250   412.6810    27.6910     9.5070     3.1720     5.4070     6.0200    -4.3030 
  151.7500   412.6880    27.7710     9.2080     3.4970     5.5550     6.7130    -4.4110 
  151.8750   412.6940    27.8500     9.0330     3.5750     5.5720     5.9750    -4.5170 
  152.0000   413.0240    27.9110     9.0030     3.7910     5.6200     5.6650    -4.6180 
  152.1250   414.0230    27.9710     8.8960     4.0290     5.6710     6.0840    -4.7200 
  152.2500   415.2390    28.0160     8.6560     4.1390     5.7280     6.4670    -4.8510 
  152.3750   414.0920    28.0340     8.3080     4.2420     5.9320     6.6390    -4.9950 
  152.5000   404.9280    28.0520     7.9700     4.5010     6.2350     6.9870    -5.1380 
  152.6250   395.9490    28.0700     7.7120     5.0230     6.1060     7.7130    -5.2700 
  152.7500   385.8580    28.0870     7.4830     5.6890     7.2120    11.7260    -5.3990 
  152.8750   381.0080    28.1040     7.2340     7.0780     9.3590    18.1380    -5.5290 
  153.0000   380.4260    28.1310     6.9970     9.7570    13.0020    24.5510    -5.6780 
  153.1250   380.9960    28.1710     6.8760    13.0030    17.1650    30.9630    -5.8390 
  153.2500   381.9560    28.2110     6.7250    13.9190    20.9710    29.9180    -6.0010 
  153.3750   381.9620    28.2530     6.5750    15.0270    20.6200    25.3470    -6.1690 
  153.5000   381.4920    28.2960     6.4480    18.2520    23.3450    42.5230    -6.3400 
  153.6250   382.1470    28.3340     6.3010    25.5120    29.8500    64.5400    -6.5120 
  153.7500   378.5070    28.3680     6.2970    30.5130    43.3810    62.4660    -6.7270 
  153.8750   372.0540    28.4010     6.4260    34.6830    50.9220    62.4070    -6.9420 
  154.0000   366.4460    28.4340     6.3730    31.3720    49.3830    59.1940    -7.1370 
  154.1250   367.1340    28.4670     6.3250    26.7130    46.7440    46.4920    -7.3210 
  154.2500   369.8630    28.4880     6.2820    26.5810    41.8600    34.9590    -7.5070 
  154.3750   374.0340    28.5060     6.2950    31.9770    32.5980    55.1640    -7.6950 
  154.5000   378.6530    28.5240     6.3470    36.3280    36.2180    75.3700    -7.9170 
  154.6250   383.1290    28.5260     6.3080    39.8120    40.3290    95.5760    -8.1750 
  154.7500   385.7030    28.5270     6.2350    38.4940    44.8470    86.2610    -8.3470 
  154.8750   379.8320    28.5260     6.2400    39.1570    52.8480    68.0930    -8.4960 
