~V
VERS. 2.00: Ver 2.00
~W
STRT.M 20.0000:
STOP.M 211.0000:
STEP.M 0.1250:
NULL. -999.2500:
UWI. Z115:
~C
DEPT.M :
AC.US/MT :
CALI.CM :
GR.API :
RI. :
RML.OHMM :
RXO.OHMM :
SP.MV :
~A
# ...
   98.7500   441.0210    26.9840     7.5270    25.7650    32.6020    29.8140     3.6500 
   98.8750   429.7130    26.9890     7.4560    25.7730    31.7050    29.6090     3.6520 
   99.0000   421.1570    26.9890     7.4390    24.7470    30.9330    27.9280     3.6210 
   99.1250   425.3180    26.9900     7.5380    24.0340    30.2110    26.3670     3.5770 
   99.2500   431.4720    27.0040     7.6310    24.0440    29.5750    25.8920     3.5290 
   99.3750   435.9650    27.0210     7.5620    24.6740    29.1390    27.1200     3.4710 
   99.5000   440.3540    27.0370     7.4450    24.2600    29.3630    26.6250     3.4130 
   99.6250   443.6910    27.0420     7.3440    23.4490    30.5470    27.1400     3.3220 
   99.7500   441.3960    27.0430     7.4430    22.8320    32.8210    29.2350     3.2040 
   99.8750   441.8150    27.0430     7.6600    25.0360    35.1310    31.5400     3.0880 
  100.0000   443.3700    27.0440     7.5560    26.9900    38.2420    33.5180     2.9720 
  100.1250   441.4930    27.0440     7.2370    28.3110    41.4310    35.5730     2.8310 
  100.2500   442.8620    27.0450     7.2000    29.5020    44.0080    36.6780     2.6700 
  100.3750   444.9000    27.0450     7.3350    30.2330    45.5490    36.4300     2.5090 
  100.5000   446.8370    27.0460     7.4160    30.7770    46.3930    37.8310     2.3540 
  100.6250   448.4240    27.0460     7.3450    31.2460    47.0550    39.2400     2.2020 
  100.7500   450.0100    27.0470     7.2510    31.7150    47.6120    38.2920     2.0500 
  100.8750   452.1160    27.0470     7.1530    31.8180    48.2430    39.3170     1.8010 
  101.0000   454.1930    27.0480     7.1830    31.5620    48.4640    40.8150     1.5480 
  101.1250   455.7800    27.0480     7.3720    30.7550    47.4350    41.7830     1.2740 
  101.2500   453.3680    27.0490     7.5330    28.8770    45.7720    40.9270     0.9650 
  101.3750   451.3840    26.9960     7.6940    20.1640    34.5510    39.3010     0.9840 
  101.5000   452.9710    26.8900     7.9890    14.8880    28.8810    35.9420     1.0040 
  101.6250   453.6670    26.7170     8.1010     9.4930    19.6480    20.1420     1.0410 
  101.7500   449.9850    26.5760     8.0210     5.2090    10.4570     7.8330     1.0920 
  101.8750   449.5780    26.4550     7.9030     4.3930     9.2230     5.7480     1.1440 
  102.0000   450.5330    26.3400     7.8710     4.5160     7.5790     5.4920     1.1950 
  102.1250   451.8660    26.2340     7.7680     5.1280     7.5710     6.5620     1.2460 
  102.2500   451.5040    26.1350     7.6970     5.8210     8.6870     8.2530     1.3170 
  102.3750   449.9510    26.0900     7.6200     6.6350    10.1680     9.5940     1.3940 
  102.5000   451.5380    26.0450     7.5770     7.4610    11.8160    11.1220     1.4720 
  102.6250   452.8570    26.0390     7.5200     8.3000    13.1310    12.6330     1.5500 
  102.7500   454.0130    26.0390     7.4520     9.1780    14.3780    13.9820     1.6040 
  102.8750   450.1680    26.0400     7.4160    10.0890    15.6260    15.0270     1.6550 
  103.0000   447.2460    26.0400     7.3010    11.0680    16.9640    15.2170     1.6700 
  103.1250   445.4170    26.0410     7.0590    12.0460    18.4600    14.3810     1.6830 
  103.2500   442.7600    26.0410     6.7860    13.1130    19.8700    15.8790     1.6970 
  103.3750   440.6770    26.0420     6.8620    14.3000    20.9400    17.4290     1.7010 
  103.5000   442.0370    26.0420     6.9530    15.3260    22.0290    18.6680     1.6990 
  103.6250   444.0050    26.0430     7.0170    16.2940    22.8550    19.3400     1.6970 
  103.7500   446.2000    26.0430     7.0930    17.1000    23.6350    19.9660     1.6960 
  103.8750   448.0510    26.0440     6.7970    17.8130    24.4150    20.3750     1.6880 
  104.0000   449.6380    26.0100     6.6330    18.5290    25.1650    20.5600     1.6730 
  104.1250   441.1390    25.9580     6.4790    19.0760    25.8940    20.3170     1.6580 
  104.2500   439.7470    25.8670     6.5200    19.0780    26.4900    19.4900     1.6430 
  104.3750   440.3920    25.7670     6.6860    19.1280    26.8390    18.7420     1.5580 
  104.5000   442.6290    25.6810     6.8940    19.1830    26.3880    17.9050     1.4200 
  104.6250   444.8660    25.5480     7.0690    18.9940    26.3350    17.2130     1.2700 
  104.7500   446.9960    25.3750     7.2160    18.5550    26.6130    16.8620     1.0980 
  104.8750   443.1690    25.2020     7.3750    18.3830    26.6610    16.8630     0.9260 
  105.0000   444.9170    25.0270     7.5240    18.4440    26.6020    16.8650     0.7140 
  105.1250   446.7160    24.7880     7.6300    18.5550    26.3000    16.6700     0.4990 
  105.2500   421.5070    24.6790     7.4580    18.6830    25.2670    16.3680     0.2960 
  105.3750   396.6460    24.6850     7.5360    18.7780    23.6960    16.3700     0.1030 
  105.5000   371.7850    24.7220     7.6580    17.3570    22.6640    16.1840    -0.0910 
  105.6250   346.9240    24.7600     7.7470    15.3930    20.5930    25.8790    -0.2840 
  105.7500   322.0630    24.8130     7.7000    15.9440    22.0670    38.1780    -0.4780 
  105.8750   345.3910    24.8870     7.6240    16.5750    23.7520    45.1490    -0.6750 
  106.0000   392.1890    24.2310     7.6810     9.1860    20.4540    30.9350    -0.8730 
  106.1250   438.9870    24.3710     7.7770     5.2720    10.3810    16.1420    -1.0310 
  106.2500   440.5070    24.5740     8.2090     3.4980     7.5490     4.9540    -1.1700 
  106.3750   428.2570    24.7970     8.3390     3.5580     6.6290     5.2740    -1.2920 
  106.5000   433.8160    24.8830     8.4260     3.9140     6.0680     5.8600    -1.3940 
  106.6250   439.3740    24.9520     8.4360     4.4820     6.4700     6.4870    -1.4950 
  106.7500   444.9330    24.9790     8.3350     5.0500     7.0220     7.0140    -1.5370 
  106.8750   443.3660    24.8740     8.2340     5.5390     7.0940     6.1540    -1.5710 
  107.0000   425.1980    24.7750     8.0870     3.7870     6.9790     4.9650    -1.6050 
  107.1250   407.0300    24.7080     7.8950     4.0230     7.7320     5.8580    -1.6250 
  107.2500   388.8610    24.6400     7.6040     4.9670     8.7650     7.4690    -1.6390 
  107.3750   370.6930    24.6360     7.1930     5.8740     9.8670     9.0850    -1.6530 
  107.5000   354.1330    24.6370     7.0410     7.2270    10.9230    11.2510    -1.6670 
  107.6250   306.7210    24.6370     6.9220     7.7160    10.9110    13.9090    -1.6750 
  107.7500   282.0920    24.6380     6.7560     8.4150    10.9850    16.2800    -1.6770 
  107.8750   267.7620    24.6380     6.6000    10.8040    12.8960    35.0600    -1.6790 
  108.0000   270.3400    24.6390     6.4830    13.4370    17.1050    32.0880    -1.6800 
  108.1250   271.7460    24.6390     6.3810    17.5200    20.8720    27.7020    -1.6820 
  108.2500   256.6160    24.6220     6.2620    22.0550    25.0800    35.2160    -1.6840 
  108.3750   255.8960    24.5980     6.1410    25.6280    29.4010    48.9140    -1.6860 
  108.5000   267.7930    24.4380     6.1640    28.5880    33.9870    56.2360    -1.6870 
  108.6250   278.7890    24.4910     6.2620    30.5370    38.3930    46.2680    -1.6890 
  108.7500   292.5870    24.6330     6.3480    31.7000    38.2020    36.3000    -1.6910 
  108.8750   295.8100    24.7760     6.2770    28.2620    37.5220    36.6980    -1.6930 
  109.0000   284.8930    24.9040     6.1470    29.8820    38.9190    42.5560    -1.6940 
  109.1250   278.9260    24.9580     6.0170    32.0250    40.3980    44.1690    -1.6960 
  109.2500   272.0950    25.0110     5.9700    34.0320    42.0610    44.6560    -1.6980 
  109.3750   269.4610    25.0080     5.9880    35.9710    43.6550    49.7720    -1.7000 
  109.5000   274.7330    24.7830     5.6950    37.9230    45.0590    53.7340    -1.7010 
  109.6250   283.3360    24.4920     5.5960    39.3360    46.7480    49.9440    -1.7030 
  109.7500   289.8850    24.3470     5.6020    37.5200    47.3920    46.1550    -1.7050 
  109.8750   270.5340    24.2430     5.6830    36.0590    44.3730    42.3650    -1.7070 
