~V
VERS. 2.00: Ver 2.00
~W
STRT.M 20.0000:
STOP.M 211.0000:
STEP.M 0.1250:
NULL. -999.2500:
UWI. Z115:
~C
DEPT.M :
AC.US/MT :
CALI.CM :
GR.API :
RI. :
RML.OHMM :
RXO.OHMM :
SP.MV :
~A
# ...
  200.0000   433.2850    23.8410     5.6520     3.7010     4.0020     4.1240    -0.6100 
  200.1250   433.2920    23.6320     5.5710     3.7330     4.0610     4.2060    -0.5980 
  200.2500   433.1220    24.0730     5.6200     3.7810     4.1440     4.0820    -0.5860 
  200.3750   430.8820    24.8210     5.7370     3.8430     4.2280     3.9590    -0.5840 
  200.5000   427.7020    25.1770     5.8730     3.9050     4.1880     3.7720    -0.6020 
  200.6250   422.9500    25.2400     6.0260     3.9630     4.0840     3.5800    -0.6190 
  200.7500   422.3170    25.2550     5.9660     4.0000     3.9810     4.0080    -0.6300 
  200.8750   426.6300    24.9660     5.9030     4.0370     3.9310     4.7190    -0.5960 
  201.0000   430.2440    24.5700     5.8270     4.0650     3.8970     4.6980    -0.5620 
  201.1250   427.2550    24.3360     5.8000     4.0670     3.8630     4.5790    -0.5130 
  201.2500   424.4250    24.2090     5.8740     4.0690     3.8600     4.4100    -0.4170 
  201.3750   418.9960    24.1460     5.8530     4.0710     3.8600     4.3680    -0.3330 
  201.5000   412.4730    24.1410     5.7630     4.0730     3.8610     4.3700    -0.3110 
  201.6250   413.9630    24.0280     5.6730     4.0750     3.8320     4.3550    -0.3010 
  201.7500   420.2580    23.9060     5.7110     4.0780     3.7980     4.2670    -0.4420 
  201.8750   427.5990    23.8430     5.8020     4.1050     3.7640     4.1800    -0.5840 
  202.0000   437.9730    23.8380     5.7750     4.1350     3.6590     4.1770    -0.7570 
  202.1250   436.8910    24.0020     5.8450     4.1660     3.5510     4.2280    -0.9580 
  202.2500   421.2870    24.0370     6.1550     4.1740     3.4430     4.5010    -1.1590 
  202.3750   405.5470    23.7820     6.3120     4.1410     3.3960     4.8160    -1.3410 
  202.5000   388.8880    24.0570     6.4580     4.1080     3.5160     5.0620    -1.5230 
  202.6250   380.1600    24.1390     6.5960     4.0920     3.6350     4.8970    -1.7070 
  202.7500   386.9160    23.9370     6.7400     4.0940     3.7540     4.7320    -1.8950 
  202.8750   403.2170    23.6170     6.8780     4.0960     4.0830     4.9240    -2.0520 
  203.0000   393.6800    23.3630     7.0010     4.1250     4.4340     5.2510    -2.1760 
  203.1250   383.5080    23.1060     7.1510     4.1720     4.6810     5.6510    -2.2830 
  203.2500   376.2210    22.8410     7.3120     4.2380     4.7230     5.7200    -2.3640 
  203.3750   370.1000    22.6660     7.4390     4.3370     4.7660     5.2510    -2.4450 
  203.5000   366.0290    22.7030     7.3530     4.3950     4.6320     4.7820    -2.5230 
  203.6250   363.6210    22.7780     7.2100     4.3490     4.4860     4.5480    -2.6000 
  203.7500   364.7720    22.6990     7.3340     4.2950     4.3620     5.8100    -2.6670 
  203.8750   367.8140    22.6490     7.5190     4.2130     4.3230     6.5710    -2.6680 
  204.0000   371.1960    22.6060     7.4660     4.1310     4.2850     6.6770    -2.6700 
  204.1250   374.0310    22.5580     7.4690     4.1170     4.4110     6.9210    -2.6670 
  204.2500   374.4900    22.5270     7.3700     4.1190     4.6300     7.2360    -2.6110 
  204.3750   371.6590    22.5280     7.2740     4.1210     4.8490     7.2950    -2.5550 
  204.5000   369.0480    22.5330     7.1840     4.2790     5.0330     6.9970    -2.4990 
  204.6250   368.5340    22.5680     7.0420     4.4490     5.1720     6.6990    -2.4510 
  204.7500   369.4920    22.5490     6.6890     4.5540     5.3110     6.4000    -2.4100 
  204.8750   370.9090    22.3950     6.4780     4.6010     5.3530     5.9860    -2.3680 
  205.0000   372.2720    22.1640     6.2970     4.6350     5.3150     5.5310    -2.3260 
  205.1250   373.4610    21.9430     6.1540     4.6370     5.2760     5.3020    -2.2750 
  205.2500   377.5870    21.9480     6.0500     4.6400     5.1320     5.2220    -2.2240 
  205.3750   383.0770    22.2960     5.9790     4.6420     4.9860     5.6630    -2.1730 
  205.5000   388.4180    22.6190     6.0250     4.6520     4.8770     5.8360    -2.1340 
  205.6250   389.6280    22.6600     5.9960     4.7170     4.8780     5.6270    -2.1610 
  205.7500   389.6340    22.5650     6.0300     4.7490     4.8780     5.3680    -2.1880 
  205.8750   389.6410    22.3730     5.8200     4.7510     4.8790     5.1120    -2.2160 
  206.0000   389.9550    22.6570     5.6560     4.7530     4.8790     4.8860    -2.2500 
  206.1250   391.0860    22.8160     5.5260     4.7550     4.8800     4.7170    -2.3280 
  206.2500   392.0190    22.8810     5.4480     4.7570     4.8800     4.6560    -2.4050 
  206.3750   388.1140    22.7800     5.6160     4.7590     4.8810     4.6430    -2.4830 
  206.5000   360.4260    22.5130     5.5110     4.7610     4.8980     4.6170    -2.5310 
  206.6250   341.0690    22.2830     5.4000     4.7630     4.9680     4.5460    -2.5700 
  206.7500   315.4430    22.5450     5.3650     5.5550     5.1760     4.6450    -2.6080 
  206.8750   321.3780    22.8280     5.5020     6.7260     6.4240     5.3090    -2.6280 
  207.0000   333.2580    22.9440     5.6960     7.9810     8.1300     6.9140    -2.6490 
  207.1250   347.6710    22.4700     5.8700     8.6990     9.9870    11.4710    -2.6400 
  207.2500   341.8570    22.1570     5.9840     8.1480     9.5950    11.0430    -2.5710 
  207.3750   336.2490    22.0070     5.9150     7.4750     8.8220    10.3710    -2.5020 
  207.5000   328.7980    22.1900     5.8460     7.1000     8.0610     9.2400    -2.4330 
  207.6250   324.5780    22.3770     5.8000     7.7020     7.4240     8.1240    -2.3640 
  207.7500   324.5830    22.5540     5.8590     7.7140     7.5410     6.9900    -2.2960 
  207.8750   312.8280    22.6110     5.7640     7.9040     8.7580     7.2930    -2.2650 
  208.0000   297.0790    22.4850     5.7180     8.1870     9.1760     8.7380    -2.2670 
  208.1250   279.4720    22.3600     5.8780     8.6440     8.9310     9.1760    -2.2690 
  208.2500   258.8490    22.3380     5.9780     9.3080     9.9450     8.9170    -2.2810 
  208.3750   254.1040    22.3170     5.9200    10.5910    11.5060     8.8240    -2.2990 
  208.5000   258.2500    22.3190     5.9200    12.8120    13.8870    10.0880    -2.3160 
  208.6250   263.3460    22.3320     6.0510    14.8560    16.0900    16.3400    -2.3200 
  208.7500   268.0190    22.3720     5.9880    15.5880    15.8020    16.4610    -2.3080 
  208.8750   272.7740    22.2370     5.8980    15.9500    15.3230    16.1570    -2.2950 
  209.0000   271.2840    22.1380     5.7960    16.0680    14.6880    15.8100    -2.2820 
  209.1250   270.1400    22.2270     5.6770    16.0070    16.6080    17.7720    -2.2540 
  209.2500   271.2640    22.3950     5.5600    15.6440    16.3850    24.6400    -2.2240 
  209.3750   272.0610    22.6400     5.7390    15.0940    15.8650    31.6400    -2.1940 
  209.5000   272.1470    22.7470     5.8570    14.2620    15.2770    19.5530    -2.1640 
  209.6250   272.0730    22.8870     5.9730    13.4790    14.6530    14.6560    -2.1340 
  209.7500   271.8160    22.9220     5.8760    13.1780    14.0300    14.0930    -2.1040 
  209.8750   271.4720    22.8680     5.6500    13.8020    13.4070    14.2450    -2.0890 
  210.0000   270.9910    22.7590     5.6570    14.4110    14.5040    15.5550    -2.0910 
  210.1250   270.5720    22.7220     5.7430    14.6950    15.0610    19.6930     0.0000 
  210.2500   270.2910    22.7020     5.8450    14.1400    14.4210    18.5470     0.0000 
  210.3750   270.1690    22.6920     5.8480    12.6760    13.6190    19.3650     0.0000 
  210.5000   270.9750    22.6940     5.8540     9.3330    12.3790    21.6670     0.0000 
  210.6250   272.2050    22.5550     5.7680     8.0090    10.6320    25.6920     0.0000 
  210.7500   273.5660    22.3440     5.7010     8.0090     8.8380    25.1010     0.0000 
  210.8750   274.0800    22.0870     5.7980     8.1510     8.9090    24.5090     0.0000 
  211.0000   393.6800    23.3630     7.0010     4.1250     4.4340     5.2510    -2.1760 
