~V
VERS. 2.00: Ver 2.00
~W
STRT.M 20.0000:
STOP.M 211.0000:
STEP.M 0.1250:
NULL. -999.2500:
UWI. Z115:
~C
DEPT.M :
AC.US/MT :
CALI.CM :
GR.API :
RI. :
RML.OHMM :
RXO.OHMM :
SP.MV :
~A
# ...
  188.7500   428.4550    22.1250     5.3550     3.5590     4.0050     3.9310    -1.0580 
  188.8750   429.9770    22.0650     5.2840     3.5610     3.7820     3.9020    -1.0290 
  189.0000   432.5930    22.0610     5.2260     3.5770     3.6090     3.8220    -1.0310 
  189.1250   433.2550    22.0620     5.1880     3.6450     3.6100     3.6150    -1.0720 
  189.2500   430.0910    22.0630     5.2290     3.7130     3.6300     3.4080    -1.1450 
  189.3750   426.9290    22.0630     5.2960     3.7820     3.6750     3.2010    -1.2260 
  189.5000   426.2240    22.1120     5.2860     3.8500     3.7110     3.1050    -1.3020 
  189.6250   430.1590    22.1770     5.2220     3.9190     3.7120     3.0170    -1.3540 
  189.7500   432.7930    22.2470     5.1780     3.9900     3.7120     3.2620    -1.4060 
  189.8750   428.4300    22.3180     5.2410     4.0820     3.6680     3.5590    -1.4530 
  190.0000   423.6120    22.3790     5.2980     4.1740     3.5990     3.7170    -1.4690 
  190.1250   417.6650    22.4150     5.2430     4.2660     3.5300     3.8760    -1.4850 
  190.2500   419.8730    22.4220     5.1730     4.3140     3.5140     4.0340    -1.5000 
  190.3750   421.6930    22.4220     5.1080     4.3500     3.5150     4.0170    -1.5100 
  190.5000   421.2000    22.4230     5.0740     4.3850     3.5150     3.8670    -1.5110 
  190.6250   420.2610    22.4230     5.0330     4.3330     3.5280     3.7170    -1.5130 
  190.7500   419.6910    22.4240     5.0010     4.2490     3.5600     3.5660    -1.5090 
  190.8750   422.8760    22.4090     5.0210     4.1650     3.5910     3.4160    -1.4940 
  191.0000   429.7660    22.3650     5.0630     4.0730     3.6120     3.3110    -1.4800 
  191.1250   439.1960    22.2750     5.1090     3.9490     3.5870     3.3130    -1.4690 
  191.2500   445.2410    22.0580     5.1000     3.8250     3.5620     3.3150    -1.4710 
  191.3750   435.6540    21.7170     5.0590     3.7030     3.5360     3.3740    -1.4730 
  191.5000   428.1620    21.3760     5.0340     3.6770     3.5030     3.4770    -1.4740 
  191.6250   423.3360    21.0150     5.0500     3.6520     3.4560     3.5800    -1.4760 
  191.7500   420.9230    20.6510     5.0670     3.6270     3.4080     3.6830    -1.4780 
  191.8750   423.1430    20.9630     5.0360     3.6340     3.3610     3.7860    -1.4800 
  192.0000   426.7470    21.3810     5.1030     3.7070     3.3220     3.7690    -1.4810 
  192.1250   431.0420    21.7710     5.3060     3.7790     3.3220     3.6770    -1.4830 
  192.2500   428.2770    22.0870     5.4770     3.8830     3.3220     3.5850    -1.4850 
  192.3750   424.0560    22.3160     5.5360     4.0250     3.3230     3.5050    -1.4870 
  192.5000   421.6760    22.4940     5.4810     4.1670     3.3230     3.4420    -1.4880 
  192.6250   419.2410    22.6520     5.3840     4.2690     3.3240     3.3790    -1.5500 
  192.7500   417.3400    22.6850     5.2660     4.3410     3.3250     3.3160    -1.6450 
  192.8750   417.2580    22.6450     5.1540     4.4130     3.3250     3.2530    -1.7410 
  193.0000   421.4980    22.5300     5.0630     4.3860     3.3500     3.4490    -1.8050 
  193.1250   427.5880    22.3780     5.0290     4.3180     3.4160     3.7190    -1.8670 
  193.2500   436.3150    22.2020     5.1560     4.2500     3.0520     3.9890    -1.9070 
  193.3750   442.2350    22.0250     5.2470     4.1880     2.7070     4.0800    -1.9090 
  193.5000   436.7860    21.9450     5.3140     4.1270     2.5160     3.9150    -1.9110 
  193.6250   430.8990    21.9270     5.3770     4.0660     2.3330     3.7510    -1.9120 
  193.7500   426.0590    21.9280     5.4400     3.9460     2.5830     3.5870    -1.9140 
  193.8750   422.8770    21.9280     5.3710     3.7900     3.0670     3.4230    -1.8720 
  194.0000   424.5650    21.9290     5.1620     3.6350     3.8780     3.2590    -1.8100 
  194.1250   428.3310    22.0270     5.1410     3.5230     4.2330     3.4610    -1.7560 
  194.2500   429.0390    22.1940     5.2160     3.4670     4.3650     3.6720    -1.7230 
  194.3750   425.3400    22.3640     5.3070     3.4120     4.0540     3.7720    -1.6890 
  194.5000   420.6490    22.3130     5.4100     3.3570     3.7430     3.7910    -1.6630 
  194.6250   416.7370    22.2210     5.3820     3.3540     3.5320     3.8090    -1.6470 
  194.7500   415.3460    22.0890     5.3140     3.3560     3.3240     3.8280    -1.6310 
  194.8750   419.4750    21.9830     5.3140     3.3590     3.1370     3.8470    -1.6170 
  195.0000   424.2820    21.9830     5.3100     3.3870     3.1820     3.8660    -1.6050 
  195.1250   430.5330    22.1070     5.2610     3.4190     3.2270     3.8480    -1.5930 
  195.2500   436.7500    22.1920     5.3110     3.4510     3.4350     3.8100    -1.5810 
  195.3750   442.4700    22.2280     5.3950     3.4850     3.6750     3.7790    -1.5800 
  195.5000   435.8110    22.1970     5.5030     3.5200     3.7110     3.8070    -1.5820 
  195.6250   427.9580    22.1300     5.5120     3.5550     3.6790     3.8350    -1.5830 
  195.7500   418.1650    22.0510     5.4270     3.5750     3.6470     3.8640    -1.5940 
  195.8750   410.8570    21.9500     5.3440     3.5770     3.5750     3.8680    -1.6100 
  196.0000   411.1780    21.8450     5.2630     3.5790     3.4860     3.8040    -1.6260 
  196.1250   413.4460    21.8120     5.2240     3.5810     3.3290     3.7400    -1.6380 
  196.2500   420.4770    21.7860     5.2300     3.5830     3.0890     3.6750    -1.6000 
  196.3750   432.5720    21.7860     5.2460     3.5850     2.8760     3.6110    -1.5620 
  196.5000   445.8310    21.7860     5.3500     3.5870     2.7060     3.5470    -1.5240 
  196.6250   444.7870    21.8130     5.2860     3.5890     2.7170     3.5090    -1.4880 
  196.7500   437.1380    22.0680     5.2080     3.5910     2.8430     3.5870    -1.4560 
  196.8750   422.8330    22.2600     5.1340     3.5930     3.1310     3.6640    -1.4240 
  197.0000   400.7930    22.3100     5.0680     3.5670     3.4200     3.7420    -1.3930 
  197.1250   384.5860    22.3570     5.0940     3.4970     3.4070     3.8200    -1.3610 
  197.2500   433.1480    22.3970     5.3020     3.4990     3.3680     3.8980    -1.3290 
  197.3750   434.4350    22.3990     5.4640     3.5010     3.2600     3.9070    -1.2980 
  197.5000   435.8040    22.4170     5.4190     3.5030     3.0270     3.9090    -1.2660 
  197.6250   435.0110    22.4590     5.3480     3.5050     2.7940     3.8230    -1.2340 
  197.7500   430.4650    22.5780     5.3330     3.5070     2.7450     3.7350    -1.2050 
  197.8750   424.7530    22.6940     5.4850     3.5090     2.7460     3.5870    -1.2070 
  198.0000   419.1980    22.8070     5.6000     3.5110     2.7460     3.4180    -1.2080 
  198.1250   413.7120    22.8080     5.5090     3.5130     2.9090     4.0700    -1.2100 
  198.2500   414.2670    22.8080     5.3870     3.5150     3.1860     4.3580    -1.1790 
  198.3750   418.7290    22.8090     5.2630     3.5170     3.4640     4.4120    -1.1200 
  198.5000   425.1690    22.8090     5.1480     3.5190     3.6870     4.2500    -1.0620 
  198.6250   433.8920    22.7560     5.0850     3.5220     3.8860     4.0280    -1.0010 
  198.7500   447.7950    22.7070     5.0320     3.5240     4.0850     3.7730    -0.9270 
  198.8750   454.8430    22.6840     4.9970     3.5260     4.2550     3.4890    -0.8530 
  199.0000   447.7920    22.6620     5.0020     3.5280     4.2890     3.7200    -0.7790 
  199.1250   437.8560    22.6590     5.0510     3.5300     4.3220     4.1340    -0.7270 
  199.2500   430.0070    22.6600     5.0810     3.5320     4.3340     4.1350    -0.6810 
  199.3750   435.5420    22.6970     5.1620     3.5360     4.1930     3.9910    -0.6360 
  199.5000   436.0160    22.8810     5.2680     3.5700     4.0510     3.7420    -0.6170 
  199.6250   430.6540    23.1790     5.4140     3.6030     3.9100     3.5250    -0.6190 
  199.7500   425.1920    23.5890     5.5760     3.6370     3.8870     3.4490    -0.6210 
  199.8750   429.9870    24.0840     5.7310     3.6690     3.9440     3.9150    -0.6220 
