~V
VERS. 2.00: Ver 2.00
~W
STRT.M 20.0000:
STOP.M 211.0000:
STEP.M 0.1250:
NULL. -999.2500:
UWI. Z115:
~C
DEPT.M :
AC.US/MT :
CALI.CM :
GR.API :
RI. :
RML.OHMM :
RXO.OHMM :
SP.MV :
~A
# ...
  132.5000   418.9620    27.1660     5.9810    27.3150    38.3700    42.5430    -3.9360 
  132.6250   417.2080    27.3120     5.9870    30.5870    38.2470    50.0040    -4.0900 
  132.7500   413.9070    27.4400     6.0050    34.0970    42.0750    52.1520    -4.2580 
  132.8750   410.9060    27.5560     5.9560    36.4840    46.2700    53.6340    -4.4270 
  133.0000   412.3840    27.6740     5.9210    38.4030    50.9620    54.8780    -4.5950 
  133.1250   415.2620    27.7550     5.9580    37.4690    55.9440    55.9640    -4.7180 
  133.2500   417.7690    27.7830     6.0610    36.6020    56.6790    48.2800    -4.7880 
  133.3750   419.3560    27.7870     6.2270    37.8580    59.2250    52.8380    -4.8580 
  133.5000   421.2930    27.8160     6.3740    38.9100    61.3120    58.4310    -4.9280 
  133.6250   423.0110    27.8520     6.4840    37.6020    63.4070    62.2350    -4.9980 
  133.7500   417.4880    27.9010     6.4330    36.7580    63.8800    64.3280    -5.0110 
  133.8750   412.5890    27.9600     6.3530    37.7250    62.6960    65.6140    -5.0220 
  134.0000   412.9900    28.0470     6.2420    38.9250    63.7880    69.8940    -5.0340 
  134.1250   417.1760    28.1050     6.1240    40.4620    67.2400    67.5760    -5.0460 
  134.2500   434.7340    28.1340     6.0400    40.8390    70.6330    57.2400    -5.0580 
  134.3750   453.2400    28.1760     6.1310    39.3420    72.8530    56.6320    -5.0880 
  134.5000   471.7470    28.1940     6.2490    39.8880    71.3780    58.3810    -5.1210 
  134.6250   441.4760    28.1940     6.1620    39.8920    71.0310    61.2730    -5.1550 
  134.7500   384.5880    28.1780     6.0570    38.6120    71.2950    51.7130    -5.1880 
  134.8750   411.5620    28.1450     6.1320    37.1010    69.3080    49.3650    -5.2210 
  135.0000   450.7560    28.1450     6.2910    36.0040    67.8350    51.6480    -5.2340 
  135.1250   489.9500    28.1450     6.1860    36.4280    65.8040    54.4080    -5.2480 
  135.2500   529.1450    28.2090     6.0960    37.3950    63.2510    56.5770    -5.2610 
  135.3750   568.3390    28.4540     6.0180    34.9580    64.7540    46.5920    -5.2740 
  135.5000   595.2060    28.5700     5.9570    31.0620    56.5600    48.4550    -5.2750 
  135.6250   519.6270    28.6920     5.9020    31.9950    53.5470    51.5540    -5.2670 
  135.7500   443.7080    28.8230     5.8610    33.1190    55.6370    54.2810    -5.2590 
  135.8750   459.4010    28.9100     5.9770    34.3660    59.0920    51.1410    -5.2510 
  136.0000   461.7510    29.0190     6.1020    35.9150    62.6290    54.7430    -5.2430 
  136.1250   419.3040    29.1590     6.2230    36.6550    66.9710    58.3120    -5.2130 
  136.2500   421.9940    29.2660     6.3220    34.7400    70.2490    53.2720    -5.1510 
  136.3750   424.9180    29.3850     6.4180    32.8720    67.0490    51.4130    -5.0890 
  136.5000   427.9040    29.4950     6.5320    31.7370    64.3880    52.8590    -5.0270 
  136.6250   431.0670    29.5730     6.6240    30.8950    62.6810    52.9280    -4.9660 
  136.7500   431.2350    29.5730     6.5990    31.4570    60.9970    56.2410    -4.8820 
  136.8750   424.2590    29.5360     6.4630    32.1700    62.3460    60.5710    -4.7830 
  137.0000   423.6130    29.4240     6.2560    32.8010    64.2650    65.3060    -4.6830 
  137.1250   425.3770    29.3070     6.1210    32.1080    61.8410    54.7010    -4.5850 
  137.2500   425.5980    29.2540     6.1380    30.9250    58.9140    46.1840    -4.5020 
  137.3750   427.1170    29.1800     6.3050    30.2000    59.2420    47.8430    -4.4190 
  137.5000   409.5460    29.0650     6.4200    29.3380    57.0750    43.0540    -4.3260 
  137.6250   392.0020    28.9840     6.2300    27.7610    51.3710    38.2640    -4.2280 
  137.7500   381.4200    28.9270     6.0940    25.4310    50.6720    42.9170    -4.1300 
  137.8750   383.5280    28.8420     5.9700    26.1250    52.8650    51.2470    -4.0800 
  138.0000   406.0090    28.7410     5.8550    27.3120    56.9540    59.5770    -4.0660 
  138.1250   425.3720    28.8720     5.7980    28.6050    61.0430    63.3310    -4.0520 
  138.2500   438.0820    29.1790     5.8170    30.1660    65.1320    57.6950    -4.0920 
  138.3750   433.4440    29.3690     5.8560    31.9200    67.8100    59.6490    -4.2250 
  138.5000   426.4700    29.5640     5.9220    30.4260    66.2520    63.3790    -4.3590 
  138.6250   421.6310    29.7300     6.0220    28.3450    63.5810    56.7910    -4.5160 
  138.7500   417.0080    29.8480     6.1240    26.5040    59.9080    55.9720    -4.6850 
  138.8750   419.2450    29.9630     6.2340    25.1120    57.4840    56.9150    -4.8550 
  139.0000   424.0130    30.0570     6.3420    24.0190    55.7440    54.1050    -5.0320 
  139.1250   428.9460    30.1100     6.4460    23.2510    54.4800    49.2250    -5.2130 
  139.2500   433.8590    30.1530     6.5360    22.6220    53.7820    46.1330    -5.3920 
  139.3750   432.1190    30.1830     6.6090    22.0910    53.1590    47.0540    -5.5160 
  139.5000   429.6250    30.1930     6.5580    21.7710    51.2090    39.3190    -5.6400 
  139.6250   428.8420    30.1940     6.4680    21.3220    45.6690    37.4550    -5.6450 
  139.7500   428.7540    30.1940     6.3950    20.9550    42.6730    37.5910    -5.6340 
  139.8750   428.9190    30.1940     6.3090    20.6940    43.5740    38.0400    -5.5780 
  140.0000   429.1890    30.1990     6.2520    20.5800    44.9320    36.7410    -5.4930 
  140.1250   429.4220    30.2240     6.3850    20.9180    46.1880    38.3520    -5.3710 
  140.2500   429.6390    30.2480     6.5650    21.3920    47.2860    43.8300    -5.2500 
  140.3750   429.9360    30.2660     6.7100    21.8650    48.3850    41.9950    -5.1120 
  140.5000   430.4300    30.2830     6.5920    22.2370    49.4830    42.7930    -4.9610 
  140.6250   431.0810    30.3010     6.4380    22.5060    50.4460    44.9740    -4.8110 
  140.7500   432.3030    30.3190     6.3110    22.7700    51.3250    46.8070    -4.6600 
  140.8750   433.5210    30.3360     6.4120    23.0590    52.2030    48.6040    -4.5250 
  141.0000   434.7120    30.3510     6.5320    23.3760    53.0810    46.8590    -4.4520 
  141.1250   435.2240    30.3520     6.6520    23.6930    53.9090    45.8590    -4.3790 
  141.2500   434.0460    30.3520     6.6390    24.0090    54.6120    50.0540    -4.3410 
  141.3750   431.7480    30.3530     6.5320    24.3260    53.4410    53.1730    -4.3430 
  141.5000   424.7620    30.3530     6.3860    24.5960    53.6090    49.9810    -4.3650 
  141.6250   415.6650    30.3540     6.3800    24.7380    54.2130    53.1660    -4.4580 
  141.7500   403.2680    30.3540     5.9690    24.6260    53.2980    47.9400    -4.5500 
  141.8750   406.5720    30.3240     6.0370    24.3850    52.5360    48.9860    -4.6710 
  142.0000   412.4350    30.2540     6.1280    24.2410    51.6830    53.2600    -4.7930 
  142.1250   418.5720    30.2220     6.2250    24.2490    51.0410    46.5390    -4.8970 
  142.2500   424.9750    30.1940     6.3360    24.3410    49.7380    44.3990    -4.9780 
  142.3750   413.3020    30.1700     6.3710    24.8780    50.0000    46.6520    -5.0600 
  142.5000   417.5220    30.1540     6.2260    25.3150    51.0140    48.8390    -5.1290 
  142.6250   423.2650    30.1540     6.1340    25.5720    51.9570    50.7450    -5.1570 
  142.7500   428.8560    30.1550     6.0860    25.6230    51.3340    56.2870    -5.1840 
  142.8750   432.9500    30.1550     6.1270    25.6660    51.0490    53.0760    -5.2110 
  143.0000   432.9560    30.1560     6.2250    25.6680    50.8090    49.3190    -5.2350 
  143.1250   432.9620    30.1560     6.2440    25.8680    50.5830    46.8070    -5.2480 
  143.2500   432.5450    30.1570     6.1700    26.1380    50.1260    48.2430    -5.2610 
  143.3750   431.8730    30.1570     6.1050    26.3760    49.4690    49.9630    -5.2750 
  143.5000   430.2310    30.1580     6.0940    26.4440    48.9820    49.5350    -5.2880 
  143.6250   425.3590    30.1580     6.1640    26.4850    48.0820    46.2560    -5.2730 
