~V
VERS. 2.00: Ver 2.00
~W
STRT.M 20.0000:
STOP.M 211.0000:
STEP.M 0.1250:
NULL. -999.2500:
UWI. Z115:
~C
DEPT.M :
AC.US/MT :
CALI.CM :
GR.API :
RI. :
RML.OHMM :
RXO.OHMM :
SP.MV :
~A
# ...
  155.0000   377.9970    28.5080     6.3320    43.7660    60.1680    88.1400    -8.6170 
  155.1250   380.7950    28.4900     6.4410    50.2280    91.0930   108.1880    -8.6680 
  155.2500   384.2400    28.4510     6.3980    49.0950    91.6200   128.2360    -8.6260 
  155.3750   387.8810    28.3680     6.3210    44.2170    89.7500   125.1820    -8.4520 
  155.5000   390.6960    28.2850     6.2490    42.0480    87.2820   114.2520    -8.2850 
  155.6250   393.6890    28.2080     6.1900    40.5930    83.3420   103.3220    -8.1200 
  155.7500   391.4260    28.1490     6.2540    38.9400    73.8380    92.3920    -7.9550 
  155.8750   386.6320    28.0900     6.3490    37.6570    62.2750    81.4620    -7.7770 
  156.0000   384.2770    27.9780     6.4220    36.2370    49.2990    70.5320    -7.5940 
  156.1250   382.0990    27.8460     6.4610    35.3890    45.6060    59.6020    -7.4110 
  156.2500   385.0760    27.7130     6.4820    40.3280    46.0420    54.9890    -7.2280 
  156.3750   390.0360    27.5800     6.7630    47.1370    55.1490    66.0310    -7.0890 
  156.5000   362.5680    27.4470     6.7230    53.9270    64.2560    77.0740    -6.9560 
  156.6250   317.8540    27.3140     6.6540    55.8520    73.3620    81.4170    -6.8230 
  156.7500   273.1400    27.1810     6.7300    55.1860    82.4690   104.4070    -6.6910 
  156.8750   262.2660    27.0330     6.8410    51.4790    85.8760   110.3120    -6.5580 
  157.0000   307.4120    26.8830     6.9400    32.2820    72.4140   115.7930    -6.4310 
  157.1250   352.5570    26.7330     7.0390    14.0660    58.9520   122.9400    -6.3090 
  157.2500   397.7020    26.5440     7.1380     5.0160    45.4900   130.0860    -6.1860 
  157.3750   429.1090    26.3480     7.1790     3.7490    32.0280    99.9780    -6.0640 
  157.5000   411.0890    26.2160     7.1440     3.5510    18.5660    49.2580    -5.9540 
  157.6250   396.2330    26.1030     7.1050     3.8230     5.1040     4.2370    -5.8450 
  157.7500   388.3730    25.9140     7.0760     4.1510     5.1090     3.6660    -5.7360 
  157.8750   386.8320    25.6590     7.0590     3.7340     5.1800     3.7230    -5.6330 
  158.0000   385.7010    25.4700     7.0330     3.2690     5.1810     4.2380    -5.5550 
  158.1250   385.5210    25.2850     7.0110     3.4260     5.1810     5.1740    -5.4780 
  158.2500   386.7120    25.1270     6.9950     3.6550     5.1800     6.3250    -5.4250 
  158.3750   389.3790    24.9760     6.9850     3.6580     5.1240     5.7870    -5.3890 
  158.5000   391.5820    24.8780     6.9900     3.6590     5.0830     6.0370    -5.3540 
  158.6250   393.6090    24.7810     7.0450     3.6610     5.1610     6.4880    -5.3140 
  158.7500   394.3510    24.6950     7.1290     3.6640     5.7070     6.0550    -5.2730 
  158.8750   390.2600    24.6030     7.2150     3.8310     6.2130     5.6620    -5.2440 
  159.0000   386.6300    24.4980     7.2780     4.0080     6.5990     6.2150    -5.2290 
  159.1250   376.0420    24.3810     7.3300     4.1990     6.6570     6.5300    -5.2140 
  159.2500   363.0660    24.2450     7.4580     4.2770     6.5750     6.2090    -5.1740 
  159.3750   375.6330    24.1060     7.6340     4.2790     6.3480     5.5600    -5.0960 
  159.5000   381.1520    23.9470     7.7410     4.3790     6.0150     5.7820    -5.0190 
  159.6250   366.3620    23.7890     7.8340     4.5700     6.3440     5.5050    -4.9420 
  159.7500   354.5980    23.6540     7.8680     4.5870     6.9100     5.2280    -4.8720 
  159.8750   346.6610    23.5220     7.7900     4.4880     6.9800     4.8250    -4.8020 
  160.0000   354.6510    23.3900     7.6730     4.2720     6.5780     5.6700    -4.7310 
  160.1250   372.7410    23.2550     7.5020     3.8960     6.6300     7.5930    -4.6680 
  160.2500   386.4170    23.0840     7.3060     3.5950     7.2860     6.4410    -4.6100 
  160.3750   400.6560    22.9120     7.0290     3.3880     7.4380     5.3800    -4.5510 
  160.5000   416.5270    22.7100     6.9140     3.3200     7.0090     4.6080    -4.4960 
  160.6250   427.7640    22.5050     6.8600     3.1370     6.0590     4.3040    -4.4530 
  160.7500   425.5160    22.2930     6.8960     2.8850     5.0120     4.8060    -4.4090 
  160.8750   412.1370    22.0580     6.7840     2.6690     4.0860     4.7100    -4.3650 
  161.0000   403.0360    21.8420     6.6270     2.5450     4.1010     4.3350    -4.3630 
  161.1250   397.8480    21.6610     6.6290     2.4940     4.6320     4.2920    -4.3650 
  161.2500   390.6850    21.5410     6.8610     2.6400     5.0230     5.0720    -4.3660 
  161.3750   364.0100    21.5060     6.8930     3.2380     4.8910     5.0170    -4.3680 
  161.5000   333.7900    21.5830     6.8010     4.2930     4.6290     4.8990    -4.3700 
  161.6250   320.0050    21.7290     6.7370     5.2970     4.3180     5.8220    -4.3720 
  161.7500   311.7170    21.9320     6.7680     6.0100     4.3060     6.8390    -4.3730 
  161.8750   311.2580    22.0570     6.8710     6.4360     5.1640     7.8440    -4.3750 
  162.0000   325.9850    22.0110     6.8490     6.2100     6.3520     9.4700    -4.4230 
  162.1250   343.7480    21.9240     6.8650     5.8040     8.2500    10.6570    -4.4850 
  162.2500   360.2960    21.9060     6.8850     5.3470     9.1800     9.2590    -4.5270 
  162.3750   376.8350    22.0800     6.8460     4.6530     8.1820     7.0340    -4.5350 
  162.5000   391.5680    22.2550     6.7700     4.1420     7.1480     5.2960    -4.5290 
  162.6250   403.8920    22.3400     6.6910     3.8020     6.1320     3.6500    -4.4180 
  162.7500   416.7960    22.3370     6.6350     3.5340     5.5870     3.3140    -4.3060 
  162.8750   427.9900    22.2740     6.6100     3.4420     5.5010     3.9700    -4.2010 
  163.0000   416.3650    22.0850     6.6100     3.3540     5.5020     3.8580    -4.0970 
  163.1250   405.6270    21.8850     6.6100     3.2780     5.3450     3.7460    -3.9930 
  163.2500   400.4120    21.7580     6.5970     3.2060     5.0580     3.6340    -3.8760 
  163.3750   400.8960    21.7700     6.5740     3.1360     4.8770     3.7630    -3.7590 
  163.5000   403.1040    21.8060     6.4890     3.1380     4.8210     3.9670    -3.6420 
  163.6250   376.4950    21.8730     6.3480     3.1400     4.8040     4.1260    -3.5250 
  163.7500   356.1950    21.8690     6.2340     3.1420     4.8050     4.2840    -3.4080 
  163.8750   352.8600    21.7740     6.2350     3.1450     4.8050     4.3310    -3.2920 
  164.0000   379.6890    21.6930     6.3470     3.1470     4.8160     4.4960    -3.1770 
  164.1250   400.6190    21.6140     6.4490     3.1490     4.8790     5.0150    -3.0620 
  164.2500   410.8720    21.7620     6.4480     3.1510     4.9070     5.0170    -2.9480 
  164.3750   368.4970    22.4630     6.5400     3.1530     4.9070     4.8640    -2.8330 
  164.5000   313.3140    22.4970     6.3140     3.1550     4.8790     4.1240    -2.7190 
  164.6250   294.0090    22.1550     6.0880     3.5150     4.7080     3.3780    -2.6040 
  164.7500   277.2240    21.8760     6.1510     4.6560     4.8740     3.5840    -2.4890 
  164.8750   262.4270    21.6620     6.2450     5.8160     6.1270     4.7710    -2.4110 
  165.0000   248.8670    21.6250     6.3360     7.2510     7.3750     7.1340    -2.3370 
  165.1250   238.7720    21.9010     6.4060     8.5250     9.1110    10.1340    -2.2640 
  165.2500   238.3530    22.3380     6.3560     9.9220    11.5270    12.7500    -2.2030 
  165.3750   254.4100    22.6250     6.3580    12.4430    14.7380    15.5100    -2.1560 
  165.5000   267.3370    22.4750     6.4800    17.1920    17.5630    19.0480    -2.1570 
  165.6250   263.3090    22.2040     6.6560    16.6880    20.5350    21.6590    -2.2230 
  165.7500   254.3180    22.1300     6.5710    15.3530    20.4760    20.6910    -2.4110 
  165.8750   249.3040    22.2270     6.4690    14.0630    19.3630    19.4600    -2.6520 
  166.0000   251.1040    22.4030     6.3440    13.3300    17.8580    18.1850    -2.9190 
  166.1250   255.4970    22.4290     6.2010    12.8600    15.9910    22.0390    -3.0660 
