~V
VERS. 2.00: Ver 2.00
~W
STRT.M 20.0000:
STOP.M 211.0000:
STEP.M 0.1250:
NULL. -999.2500:
UWI. Z115:
~C
DEPT.M :
AC.US/MT :
CALI.CM :
GR.API :
RI. :
RML.OHMM :
RXO.OHMM :
SP.MV :
~A
# ...
  166.2500   258.5970    22.4300     6.0300    12.3540    13.9520    19.6790    -3.2230 
  166.3750   251.5280    22.4300     5.8890    12.0500    12.8610    19.5690    -3.3990 
  166.5000   247.4300    22.0150     5.8250    12.4160    12.3160    22.1620    -3.5340 
  166.6250   245.0840    21.5850     5.8040    13.6420    13.1640    24.2350    -3.6420 
  166.7500   246.0180    21.2470     5.8260    14.7600    14.3690    25.9700    -3.8040 
  166.8750   252.9590    21.1060     5.8620    15.8180    15.5100    27.9240    -3.9920 
  167.0000   265.2630    21.0930     5.9030    15.7680    16.5650    25.1970    -4.1600 
  167.1250   278.9760    21.2460     5.9020    15.1380    16.7200    19.0940    -4.3210 
  167.2500   273.7940    21.4170     6.1440    14.5530    16.0980    13.9190    -4.4950 
  167.3750   265.6380    21.5710     6.1900    14.0820    15.4510    13.0280    -4.6690 
  167.5000   256.1670    21.5710     6.0570    13.7240    14.6680    12.3400    -4.8310 
  167.6250   251.3920    21.5110     5.9240    13.5060    13.6920    10.3110    -4.9770 
  167.7500   247.6490    21.3990     5.9130    13.1930    12.8060    11.0700    -5.1060 
  167.8750   250.8320    21.2870     5.9890    12.8790    13.2000    12.3190    -5.1930 
  168.0000   258.6520    21.2280     6.0910    12.5950    13.8850    14.5460    -5.2740 
  168.1250   266.8970    21.1800     6.0170    12.8310    14.4120    16.7970    -5.3400 
  168.2500   275.4640    21.2360     5.8980    12.6100    14.0230    17.5620    -5.3740 
  168.3750   274.7100    21.5060     5.7710    12.1780    13.1900    16.6550    -5.3850 
  168.5000   267.6820    21.8490     5.7740    11.7660    12.5100    18.1370    -5.3820 
  168.6250   269.5600    22.1370     5.9070    12.2030    12.6660    19.9580    -5.3440 
  168.7500   276.3440    22.2170     6.0810    13.0850    13.4300    19.1420    -5.2080 
  168.8750   287.8210    22.3850     6.2350    13.5750    13.6110    14.7290    -4.9540 
  169.0000   304.2450    22.5640     6.2420    13.7080    13.8020    16.4930    -4.6520 
  169.1250   292.3900    22.3470     6.1760    13.6500    13.8270    22.9750    -4.3240 
  169.2500   276.0420    21.7290     6.0850    13.4150    13.8270    17.1130    -3.9790 
  169.3750   262.0770    21.8250     5.9920    13.4180    13.8280    16.4960    -3.6370 
  169.5000   253.1010    22.2850     5.8990    13.5590    14.0750    17.6890    -3.3010 
  169.6250   243.8670    22.5990     5.8120    13.6450    14.7290    19.6140    -3.1270 
  169.7500   242.5070    22.6990     5.8190    13.9170    14.7290    21.7650    -3.0570 
  169.8750   240.8690    22.7450     5.9260    14.6540    14.4210    24.4320    -3.5480 
  170.0000   244.3580    22.6830     6.2960    16.0070    14.2420    24.0820    -4.0890 
  170.1250   249.6220    22.5590     6.2440    16.1360    15.2710    22.4100    -4.4690 
  170.2500   260.8190    22.2420     6.1580    15.2650    16.6090    19.9370    -4.6680 
  170.3750   257.2270    21.9810     6.0830    14.2130    16.4160    17.0480    -4.8290 
  170.5000   248.2020    21.8450     6.0230    13.2520    15.5850    14.3850    -5.0010 
  170.6250   253.7460    21.7870     6.0820    12.3690    14.7290    12.7310    -5.1740 
  170.7500   277.1360    21.5560     6.0000    11.4680    13.6380    12.7430    -5.3180 
  170.8750   298.6630    21.4380     5.8950    10.9570    12.5250    13.4510    -5.4520 
  171.0000   313.2080    21.4330     5.7340    10.6440    11.7040    12.1090    -5.5720 
  171.1250   316.0580    21.4600     5.6170    10.2510    11.3350    10.4930    -5.6860 
  171.2500   309.7000    21.5120     5.5120     9.8270    11.2560     9.3650    -5.7580 
  171.3750   305.9890    21.5830     5.5390     9.2770    10.9750    10.7120    -5.8140 
  171.5000   305.0730    21.8340     5.6780     8.2960    10.4770    10.2150    -5.8180 
  171.6250   304.0240    21.6160     5.8310     7.1610     9.8880     8.2980    -5.7660 
  171.7500   304.2450    21.0590     5.8350     6.4330     9.2650     7.7350    -5.5300 
  171.8750   310.5130    20.7850     5.8260     5.9380     8.7140     8.3850    -5.3580 
  172.0000   321.5630    20.6250     5.8500     5.6760     8.2040     8.4100    -5.1670 
  172.1250   316.0910    20.7190     5.7410     5.4070     8.0710     7.3420    -4.9810 
  172.2500   302.7250    21.1660     5.6270     4.8820     8.0400     6.0900    -4.8550 
  172.3750   309.9950    21.6130     5.5420     4.4550     7.9420     4.7940    -4.7300 
  172.5000   346.4730    21.8990     5.6560     4.0470     7.2500     3.5370    -4.6100 
  172.6250   385.1210    22.0790     5.7910     3.5730     6.4390     3.7450    -4.5140 
  172.7500   394.8210    22.2080     5.9120     3.5690     5.8300     4.5390    -4.4260 
  172.8750   391.6590    22.4050     5.7520     3.7810     5.6050     4.7450    -4.4270 
  173.0000   390.0200    22.4220     5.6010     3.8000     5.2960     4.5320    -4.7680 
  173.1250   389.9600    22.2630     5.4740     3.7130     4.9630     4.3940    -5.3340 
  173.2500   383.0560    21.9880     5.5520     3.5690     4.7040     4.3490    -5.9440 
  173.3750   373.5680    21.7290     5.7220     3.3990     4.5010     4.4350    -6.2290 
  173.5000   360.3030    21.5010     5.8480     3.3050     4.3450     4.8130    -6.4290 
  173.6250   349.2940    21.2370     5.9580     3.3070     4.3450     6.0390    -6.5590 
  173.7500   339.3810    21.0410     6.0720     3.3500     4.4400    11.5560    -6.6640 
  173.8750   344.1200    20.8720     6.2030     3.4000     4.8310    10.2050    -6.7360 
  174.0000   362.3140    20.8360     6.3290     3.5580     5.5450     8.5240    -6.7390 
  174.1250   368.3980    20.9420     6.4570     3.7180     5.9120     7.2250    -6.5200 
  174.2500   356.0960    21.1340     6.4980     3.7200     5.6510     7.5650    -6.1090 
  174.3750   388.1580    21.3000     6.4260     3.7870     5.3320     7.9240    -5.6710 
  174.5000   407.4470    21.3680     6.3370     3.9040     5.2700     7.1740    -5.2520 
  174.6250   388.9720    21.4360     6.4130     3.9910     5.3540     6.0970    -4.8600 
  174.7500   369.3460    21.4830     6.5330     4.0310     5.5100     5.2300    -4.5460 
  174.8750   354.0230    21.5260     6.4690     4.0330     5.5840     4.3110    -4.2320 
  175.0000   339.6030    21.5810     6.4280     4.0350     5.6290     3.6840    -3.9180 
  175.1250   325.6980    21.6510     6.5050     4.0360     5.5630     3.6930    -3.7710 
  175.2500   342.4120    21.9190     6.6790     3.9810     5.3850     4.3790    -3.7460 
  175.3750   364.5490    22.0740     6.8850     3.8710     5.1740     4.3390    -3.8520 
  175.5000   379.5620    22.1570     6.8280     3.5920     4.8620     4.0820    -4.1420 
  175.6250   393.8490    22.1620     6.7960     3.3950     4.6730     4.1820    -4.3890 
  175.7500   409.3590    22.1510     6.7900     3.3420     5.1540     4.3410    -4.6230 
  175.8750   407.1280    22.0330     6.7420     3.2930     5.0400     4.2780    -4.8160 
  176.0000   405.9320    21.3310     6.6830     3.2460     4.5730     4.1230    -4.9960 
  176.1250   412.6810    20.7890     6.6040     3.2480     4.2190     3.9680    -5.1410 
  176.2500   418.8570    20.4380     6.5310     3.2500     4.1070     3.8130    -5.1780 
  176.3750   417.5630    20.3100     6.5090     3.2520     4.2110     3.7670    -5.2150 
  176.5000   415.1090    20.4310     6.6370     3.2540     4.5210     3.7380    -5.2440 
  176.6250   412.9870    20.8710     6.7980     3.2560     5.0760     3.7080    -5.2450 
  176.7500   410.8850    21.2540     6.8910     3.3030     5.0910     3.7000    -5.2750 
  176.8750   408.7250    21.7760     6.8300     3.4230     4.8330     3.8020    -5.3640 
  177.0000   406.6730    22.1050     6.7540     3.5430     4.5740     3.7940    -5.4360 
  177.1250   405.4240    22.4330     6.7160     3.6530     4.5210     3.7610    -5.4960 
  177.2500   412.3410    22.4780     6.7770     3.7600     4.4790     3.7280    -5.5350 
  177.3750   406.4270    22.1270     7.0190     3.8670     4.4790     3.7090    -5.5680 
