~V
VERS. 2.00: Ver 2.00
~W
STRT.M 20.0000:
STOP.M 211.0000:
STEP.M 0.1250:
NULL. -999.2500:
UWI. Z115:
~C
DEPT.M :
AC.US/MT :
CALI.CM :
GR.API :
RI. :
RML.OHMM :
RXO.OHMM :
SP.MV :
~A
# ...
   53.7500     0.0000     0.0000     0.0000     0.0000     0.0000     0.0000     0.0000 
   53.8750     0.0000     0.0000     0.0000     0.0000     0.0000     0.0000     0.0000 
   54.0000     0.0000     0.0000     0.0000     0.0000     0.0000     0.0000     0.0000 
   54.1250     0.0000     0.0000     0.0000     0.0000     0.0000     0.0000     0.0000 
   54.2500     0.0000     0.0000     0.0000     0.0000     0.0000     0.0000     0.0000 
   54.3750     0.0000     0.0000     0.0000     0.0000     0.0000     0.0000     0.0000 
   54.5000     0.0000     0.0000     0.0000     0.0000     0.0000     0.0000     0.0000 
   54.6250     0.0000     0.0000     0.0000     0.0000     0.0000     0.0000     0.0000 
   54.7500     0.0000     0.0000     0.0000     0.0000     0.0000     0.0000     0.0000 
   54.8750     0.0000     0.0000     0.0000     0.0000     0.0000     0.0000     0.0000 
   55.0000     0.0000     0.0000     0.0000     0.0000     0.0000     0.0000     0.0000 
   55.1250     0.0000     0.0000     0.0000     0.0000     0.0000     0.0000     0.0000 
   55.2500     0.0000     0.0000     0.0000     0.0000     0.0000     0.0000     0.0000 
   55.3750     0.0000     0.0000     0.0000     0.0000     0.0000     0.0000     0.0000 
   55.5000     0.0000     0.0000     0.0000     0.0000     0.0000     0.0000     0.0000 
   55.6250     0.0000     0.0000     0.0000     0.0000     0.0000     0.0000     0.0000 
   55.7500     0.0000     0.0000     0.0000     0.0000     0.0000     0.0000     0.0000 
   55.8750     0.0000     0.0000     0.0000     0.0000     0.0000     0.0000     0.0000 
   56.0000     0.0000     0.0000     0.0000     0.0000     0.0000     0.0000     0.0000 
   56.1250     0.0000     0.0000     0.0000     0.0000     0.0000     0.0000     0.0000 
   56.2500     0.0000     0.0000     0.0000     0.0000     0.0000     0.0000     0.0000 
   56.3750     0.0000     0.0000     0.0000     0.0000     0.0000     0.0000     0.0000 
   56.5000     0.0000     0.0000     0.0000     0.0000     0.0000     0.0000     0.0000 
   56.6250     0.0000     0.0000     0.0000     0.0000     0.0000     0.0000     0.0000 
   56.7500     0.0000     0.0000     0.0000     0.0000     0.0000     0.0000     0.0000 
   56.8750     0.0000     0.0000     0.0000     0.0000     0.0000     0.0000     0.0000 
   57.0000     0.0000     0.0000     0.0000     0.0000     0.0000     0.0000     0.0000 
   57.1250     0.0000     0.0000     0.0000     0.0000     0.0000     0.0000     0.0000 
   57.2500     0.0000     0.0000     0.0000     0.0000     0.0000     0.0000     0.0000 
   57.3750     0.0000     0.0000     0.0000     0.0000     0.0000     0.0000     0.0000 
   57.5000     0.0000     0.0000     0.0000     0.0000     0.0000     0.0000     0.0000 
   57.6250     0.0000     0.0000     0.0000     0.0000     0.0000     0.0000     0.0000 
   57.7500     0.0000     0.0000     0.0000     0.0000     0.0000     0.0000     0.0000 
   57.8750     0.0000     0.0000     0.0000     0.0000     0.0000     0.0000     0.0000 
   58.0000     0.0000     0.0000     0.0000     0.0000     0.0000     0.0000     0.0000 
   58.1250     0.0000     0.0000     0.0000     0.0000     0.0000     0.0000     0.0000 
   58.2500     0.0000     0.0000     0.0000     0.0000     0.0000     0.0000     0.0000 
   58.3750     0.0000     0.0000     0.0000     0.0000     0.0000     0.0000     0.0000 
   58.5000     0.0000     0.0000     0.0000     0.0000     0.0000     0.0000     0.0000 
   58.6250     0.0000     0.0000     0.0000     0.0000     0.0000     0.0000     0.0000 
   58.7500     0.0000     0.0000     0.0000     0.0000     0.0000     0.0000     0.0000 
   58.8750     0.0000     0.0000     0.0000     0.0000     0.0000     0.0000     0.0000 
   59.0000     0.0000     0.0000     0.0000     0.0000     0.0000     0.0000     0.0000 
   59.1250     0.0000     0.0000     0.0000     0.0000     0.0000     0.0000     0.0000 
   59.2500     0.0000     0.0000     0.0000     0.0000     0.0000     0.0000     0.0000 
   59.3750     0.0000     0.0000     0.0000     0.0000     0.0000     0.0000     0.0000 
   59.5000     0.0000     0.0000     0.0000     0.0000     0.0000     0.0000     0.0000 
   59.6250     0.0000     0.0000     0.0000     0.0000     0.0000     0.0000     0.0000 
   59.7500     0.0000     0.0000     0.0000     0.0000     0.0000     0.0000     0.0000 
   59.8750     0.0000     0.0000     0.0000     0.0000     0.0000     0.0000     0.0000 
   60.0000     0.0000     0.0000     0.0000     0.0000     0.0000     0.0000     0.0000 
   60.1250     0.0000     0.0000     0.0000     0.0000     0.0000     0.0000     0.0000 
   60.2500     0.0000     0.0000     0.0000     0.0000     0.0000     0.0000     0.0000 
   60.3750     0.0000     0.0000     0.0000     0.0000     0.0000     0.0000     0.0000 
   60.5000     0.0000     0.0000     0.0000     0.0000     0.0000     0.0000     0.0000 
   60.6250     0.0000     0.0000     0.0000     0.0000     0.0000     0.0000     0.0000 
   60.7500     0.0000     0.0000     0.0000     0.0000     0.0000     0.0000     0.0000 
   60.8750     0.0000     0.0000     0.0000     0.0000     0.0000     0.0000     0.0000 
   61.0000     0.0000     0.0000     0.0000     0.0000     0.0000     0.0000     0.0000 
   61.1250     0.0000     0.0000     0.0000     0.0000     0.0000     0.0000     0.0000 
   61.2500     0.0000     0.0000     0.0000     0.0000     0.0000     0.0000     0.0000 
   61.3750     0.0000     0.0000     0.0000     0.0000     0.0000     0.0000     0.0000 
   61.5000     0.0000     0.0000     0.0000     0.0000     0.0000     0.0000     0.0000 
   61.6250     0.0000     0.0000     0.0000     0.0000     0.0000     0.0000     0.0000 
   61.7500     0.0000     0.0000     0.0000     0.0000     0.0000     0.0000     0.0000 
   61.8750     0.0000     0.0000     0.0000     0.0000     0.0000     0.0000     0.0000 
   62.0000     0.0000     0.0000     0.0000     0.0000     0.0000     0.0000     0.0000 
   62.1250     0.0000     0.0000     0.0000     0.0000     0.0000     0.0000     0.0000 
   62.2500     0.0000     0.0000     0.0000     0.0000     0.0000     0.0000     0.0000 
   62.3750     0.0000     0.0000     0.0000     0.0000     0.0000     0.0000     0.0000 
   62.5000     0.0000     0.0000     0.0000     0.0000     0.0000     0.0000     0.0000 
   62.6250     0.0000     0.0000     0.0000     0.0000     0.0000     0.0000     0.0000 
   62.7500     0.0000     0.0000     0.0000     0.0000     0.0000     0.0000     0.0000 
   62.8750     0.0000     0.0000     0.0000     0.0000     0.0000     0.0000     0.0000 
   63.0000     0.0000     0.0000     0.0000     0.0000     0.0000     0.0000     0.0000 
   63.1250     0.0000     0.0000     0.0000     0.0000     0.0000     0.0000     0.0000 
   63.2500     0.0000     0.0000     0.0000     0.0000     0.0000     0.0000     0.0000 
   63.3750     0.0000     0.0000     0.0000     0.0000     0.0000     0.0000     0.0000 
   63.5000     0.0000     0.0000     0.0000     0.0000     0.0000     0.0000     0.0000 
   63.6250     0.0000     0.0000     0.0000     0.0000     0.0000     0.0000     0.0000 
   63.7500     0.0000     0.0000     0.0000     0.0000     0.0000     0.0000     0.0000 
   63.8750     0.0000     0.0000     0.0000     0.0000     0.0000     0.0000     0.0000 
   64.0000     0.0000     0.0000     0.0000     0.0000     0.0000     0.0000     0.0000 
   64.1250     0.0000     0.0000     0.0000     0.0000     0.0000     0.0000     0.0000 
   64.2500     0.0000     0.0000     0.0000     0.0000     0.0000     0.0000     0.0000 
   64.3750     0.0000     0.0000     0.0000     0.0000     0.0000     0.0000     0.0000 
   64.5000     0.0000     0.0000     0.0000     0.0000     0.0000     0.0000     0.0000 
   64.6250     0.0000     0.0000     0.0000     0.0000     0.0000     0.0000     0.0000 
   64.7500     0.0000     0.0000     0.0000     0.0000     0.0000     0.0000     0.0000 
   64.8750     0.0000     0.0000     0.0000     0.0000     0.0000     0.0000     0.0000 
