~V
VERS. 2.00: Ver 2.00
~W
STRT.M 20.0000:
STOP.M 211.0000:
STEP.M 0.1250:
NULL. -999.2500:
UWI. Z115:
~C
DEPT.M :
AC.US/MT :
CALI.CM :
GR.API :
RI. :
RML.OHMM :
RXO.OHMM :
SP.MV :
~A
# ...
  177.5000   396.8030    21.7870     7.2260     3.8750     4.5120     4.0170    -5.6020 
  177.6250   387.5200    21.6380     7.3100     3.8770     4.5450     5.1420    -5.6170 
  177.7500   378.5440    21.5970     7.3870     3.8790     4.5770     5.1610    -5.6180 
  177.8750   373.0860    21.5450     7.4300     3.8810     4.6070     4.8430    -5.5500 
  178.0000   376.5990    21.7240     7.2980     3.8830     4.6380     6.3360    -5.4460 
  178.1250   382.5650    22.0540     7.0820     3.8860     4.6690     7.8940    -5.3420 
  178.2500   391.8220    22.3680     6.8490     3.8880     4.7080     7.1650    -5.2510 
  178.3750   400.4010    22.4770     6.7000     3.8900     4.7480     6.3650    -5.1960 
  178.5000   408.5520    22.3780     6.6420     3.8920     4.6380     5.7870    -5.1280 
  178.6250   416.0700    22.2020     6.8330     3.8940     4.4120     5.4320    -5.0510 
  178.7500   409.0390    22.1740     6.9660     3.8960     4.2010     5.6400    -4.9260 
  178.8750   399.3600    22.3520     6.7060     3.8980     3.9940     5.8100    -4.7700 
  179.0000   392.3350    22.6450     6.7210     3.9000     3.9680     5.4040    -4.5840 
  179.1250   398.3080    22.9590     6.8410     3.9020     4.0690     4.9970    -4.3850 
  179.2500   408.0730    22.9160     6.8410     3.9040     4.4440     4.5910    -4.1700 
  179.3750   420.2200    22.6620     6.8090     3.9060     4.8740     4.3850    -3.9520 
  179.5000   421.4990    22.4290     6.8900     3.9090     5.3320     4.3710    -3.7720 
  179.6250   414.5610    22.1740     6.9810     3.9110     5.7380     4.4890    -3.6030 
  179.7500   408.9270    21.9080     6.9490     3.9430     5.9990     4.3310    -3.5560 
  179.8750   404.7520    21.6720     7.0330     3.9800     6.0740     4.2540    -3.5090 
  180.0000   408.0270    21.4640     7.0470     4.0170     5.7870     4.3210    -3.4650 
  180.1250   414.9130    21.5260     6.9550     4.0200     5.5260     4.4930    -3.7190 
  180.2500   412.6030    21.8650     6.8550     4.0220     5.3450     4.7190    -4.3790 
  180.3750   403.2860    22.2920     6.7570     4.0240     5.1640     4.9060    -5.0150 
  180.5000   391.6160    22.5860     6.8350     4.1120     4.9820     4.6340    -5.4600 
  180.6250   381.0060    22.7100     7.0730     4.2040     4.9890     3.9280    -5.8230 
  180.7500   367.4870    22.7330     7.3410     4.3140     5.2730     4.5800    -6.0450 
  180.8750   360.2830    22.7070     7.5950     4.4300     5.4550     6.1650    -6.2480 
  181.0000   364.1610    22.6410     7.8200     4.5580     5.5760     7.5730    -6.4360 
  181.1250   365.2110    22.4960     7.8250     4.6860     5.5760     6.8980    -6.6140 
  181.2500   359.9360    22.3620     7.7730     4.8140     5.5770     6.0640    -6.7520 
  181.3750   359.5970    22.2360     7.7290     5.0200     5.3080     5.5280    -6.8900 
  181.5000   360.1380    22.1650     7.9310     5.2510     5.0460     6.3510    -7.0070 
  181.6250   357.6170    22.1120     8.1380     5.2960     4.8760     6.5490    -7.1220 
  181.7500   364.1370    22.0840     8.3400     5.3400     4.9120     6.3810    -7.2520 
  181.8750   371.1100    22.0840     8.2440     5.3820     5.2560     6.4360    -7.3870 
  182.0000   367.7310    22.0850     8.1310     5.4240     5.7800     7.2190    -7.4840 
  182.1250   361.1710    22.1100     7.9960     5.4650     5.7730     7.3890    -7.5730 
  182.2500   355.2150    22.0780     7.9510     5.5000     5.6340     7.2900    -7.6700 
  182.3750   349.0710    21.8710     8.1080     5.5350     5.5820     6.9990    -7.7770 
  182.5000   353.5690    21.5140     8.2340     5.5710     5.5800     6.7080    -7.8940 
  182.6250   360.5770    21.2170     8.1440     5.5730     5.4020     6.9250    -8.0320 
  182.7500   366.9120    21.3170     8.0120     5.5750     5.2250     7.1710    -8.1790 
  182.8750   362.7390    21.6310     7.9350     5.5560     5.0640     7.3830    -8.2900 
  183.0000   359.0680    21.9450     8.0360     5.4840     4.9090     7.1240    -8.3970 
  183.1250   356.1620    22.2280     7.9470     5.4110     4.7770     6.8940    -8.4340 
  183.2500   354.2120    22.4640     7.8150     5.3590     4.7350     6.8390    -8.4770 
  183.3750   353.2530    22.6630     7.6820     5.3220     4.6940     7.0000    -8.4420 
  183.5000   352.6620    22.7820     7.7050     5.2850     4.6860     7.3010    -8.2630 
  183.6250   352.2130    22.8020     7.8130     5.2500     4.6870     7.2850    -7.9890 
  183.7500   353.3850    22.7120     7.7910     5.2150     4.6870     6.8770    -7.7450 
  183.8750   357.3830    22.5940     7.6680     5.1700     4.6880     6.4680    -7.5100 
  184.0000   360.2620    22.5410     7.5340     5.1020     4.5900     6.0600    -7.2820 
  184.1250   359.7700    22.4990     7.4230     5.0340     4.4870     5.6850    -7.0480 
  184.2500   358.7590    22.5000     7.3560     4.9950     4.4180     5.4940    -6.8130 
  184.3750   364.5060    22.5000     7.2650     4.9970     4.4210     5.2890    -6.4840 
  184.5000   371.7490    22.5010     7.1500     4.9990     4.5900     4.9220    -6.1240 
  184.6250   375.6220    22.5010     7.0470     4.8550     4.4000     4.5550    -5.5770 
  184.7500   371.8670    22.5020     6.9360     4.6470     4.1530     4.2640    -5.0900 
  184.8750   371.4060    22.5020     6.7710     4.4310     3.8930     4.1090    -4.6410 
  185.0000   380.7280    22.5030     6.6000     4.1970     3.7050     3.9750    -4.2130 
  185.1250   391.0240    22.5030     6.4420     3.9620     3.5610     3.8660    -3.8220 
  185.2500   404.0190    22.5040     6.3420     3.7380     3.4430     3.7570    -3.4640 
  185.3750   415.3580    22.5040     6.2210     3.5180     3.3480     3.7630    -3.2950 
  185.5000   427.9470    22.5050     6.1490     3.2970     3.2580     3.8130    -3.1260 
  185.6250   437.6780    22.5050     6.0950     3.0740     3.1750     3.9270    -3.0480 
  185.7500   438.4460    22.5190     6.0920     2.8510     3.0970     4.0760    -2.9730 
  185.8750   436.0890    22.5440     6.1450     2.6630     3.1320     4.2260    -2.9290 
  186.0000   440.2640    22.5570     6.2270     2.4850     3.1670     3.9080    -2.8850 
  186.1250   441.3250    22.5580     6.2430     2.3820     3.2080     3.5510    -2.8360 
  186.2500   437.3600    22.5480     6.1590     2.3390     3.2820     3.4400    -2.7840 
  186.3750   432.7290    22.5190     6.0610     2.3100     3.3560     3.4420    -2.7800 
  186.5000   428.2540    22.4910     6.0740     2.3120     3.3800     3.8300    -2.7820 
  186.6250   423.5470    22.4630     6.1470     2.3140     3.3360     4.1480    -2.7070 
  186.7500   417.9680    22.4340     6.0700     2.3170     3.2520     4.3440    -2.5490 
  186.8750   414.9520    22.4140     5.9530     2.3190     3.0070     4.2120    -2.3350 
  187.0000   415.1530    22.4670     5.9610     2.4380     3.3390     4.0790    -2.0910 
  187.1250   415.7090    22.5110     6.0400     2.5800     4.2750     4.0190    -1.9280 
  187.2500   417.0250    22.5120     5.9770     2.7220     4.9830     3.9760    -1.7940 
  187.3750   421.3040    22.5120     5.8520     2.7970     5.0300     3.9590    -1.7050 
  187.5000   425.0830    22.5130     5.7690     2.8690     4.7720     3.9600    -1.6170 
  187.6250   427.5280    22.5130     5.6970     2.9460     4.4170     3.8760    -1.5390 
  187.7500   431.1570    22.5130     5.6270     3.0740     4.0610     3.7880    -1.4630 
  187.8750   430.0440    22.4920     5.5370     3.2020     3.9090     3.8160    -1.3970 
  188.0000   428.0710    22.4710     5.4310     3.3300     3.8470     3.9080    -1.3300 
  188.1250   426.2690    22.4250     5.3490     3.3880     4.4020     4.0490    -1.2620 
  188.2500   424.7580    22.3650     5.3370     3.4370     4.6360     4.0460    -1.1930 
  188.3750   423.6120    22.3050     5.4220     3.4850     4.6850     4.0170    -1.1240 
  188.5000   426.4880    22.2450     5.6050     3.5340     4.5490     3.9890    -1.1050 
  188.6250   428.1710    22.1850     5.4810     3.5570     4.2620     3.9600    -1.0860 
