~V
VERS. 2.00: Ver 2.00
~W
STRT.M 33.0000:
STOP.M 216.0000:
STEP.M 0.1250:
NULL. -999.2500:
UWI. Z116:
~C
DEPT.M :
AC.US/MT :
CALI.CM :
DEN.GM/CC :
GR.API :
RI. :
RML.OHMM :
RXO.OHMM :
SP.MV :
~A
# ...
   83.0000     0.0000     0.0000     0.0000     0.0000     0.0000     0.0000     0.0000     0.0000 
   83.1250     0.0000     0.0000     0.0000     0.0000     0.0000     0.0000     0.0000     0.0000 
   83.2500     0.0000     0.0000     0.0000     0.0000     0.0000     0.0000     0.0000     0.0000 
   83.3750     0.0000     0.0000     0.0000     0.0000     0.0000     0.0000     0.0000     0.0000 
   83.5000     0.0000     0.0000     0.0000     0.0000     0.0000     0.0000     0.0000     0.0000 
   83.6250     0.0000     0.0000     0.0000     0.0000     0.0000     0.0000     0.0000     0.0000 
   83.7500     0.0000     0.0000     0.0000     0.0000     0.0000     0.0000     0.0000     0.0000 
   83.8750     0.0000     0.0000     0.0000     0.0000     0.0000     0.0000     0.0000     0.0000 
   84.0000     0.0000     0.0000     0.0000     0.0000     0.0000     0.0000     0.0000     0.0000 
   84.1250     0.0000     0.0000     0.0000     0.0000     0.0000     0.0000     0.0000     0.0000 
   84.2500     0.0000     0.0000     0.0000     0.0000     0.0000     0.0000     0.0000     0.0000 
   84.3750     0.0000     0.0000     0.0000     0.0000     0.0000     0.0000     0.0000     0.0000 
   84.5000     0.0000     0.0000     0.0000     0.0000     0.0000     0.0000     0.0000     0.0000 
   84.6250     0.0000     0.0000     0.0000     0.0000     0.0000     0.0000     0.0000     0.0000 
   84.7500     0.0000     0.0000     0.0000     0.0000     0.0000     0.0000     0.0000     0.0000 
   84.8750     0.0000     0.0000     0.0000     0.0000     0.0000     0.0000     0.0000     0.0000 
   85.0000     0.0000     0.0000     0.0000     0.0000     0.0000     0.0000     0.0000     0.0000 
   85.1250     0.0000     0.0000     0.0000     0.0000     0.0000     0.0000     0.0000     0.0000 
   85.2500     0.0000     0.0000     0.0000     0.0000     0.0000     0.0000     0.0000     0.0000 
   85.3750     0.0000     0.0000     0.0000     0.0000     0.0000     0.0000     0.0000     0.0000 
   85.5000     0.0000     0.0000     0.0000     0.0000     0.0000     0.0000     0.0000     0.0000 
   85.6250     0.0000     0.0000     0.0000     0.0000     0.0000     0.0000     0.0000     0.0000 
   85.7500     0.0000     0.0000     0.0000     0.0000     0.0000     0.0000     0.0000     0.0000 
   85.8750     0.0000     0.0000     0.0000     0.0000     0.0000     0.0000     0.0000     0.0000 
   86.0000     0.0000     0.0000     0.0000     0.0000     0.0000     0.0000     0.0000     0.0000 
   86.1250     0.0000     0.0000     0.0000     0.0000     0.0000     0.0000     0.0000     0.0000 
   86.2500     0.0000     0.0000     0.0000     0.0000     0.0000     0.0000     0.0000     0.0000 
   86.3750     0.0000     0.0000     0.0000     0.0000     0.0000     0.0000     0.0000     0.0000 
   86.5000     0.0000     0.0000     0.0000     0.0000     0.0000     0.0000     0.0000     0.0000 
   86.6250     0.0000     0.0000     0.0000     0.0000     0.0000     0.0000     0.0000     0.0000 
   86.7500     0.0000     0.0000     0.0000     0.0000     0.0000     0.0000     0.0000     0.0000 
   86.8750     0.0000     0.0000     0.0000     0.0000     0.0000     0.0000     0.0000     0.0000 
   87.0000     0.0000     0.0000     0.0000     0.0000     0.0000     0.0000     0.0000     0.0000 
   87.1250     0.0000     0.0000     0.0000     0.0000     0.0000     0.0000     0.0000     0.0000 
   87.2500     0.0000     0.0000     0.0000     0.0000     0.0000     0.0000     0.0000     0.0000 
   87.3750     0.0000     0.0000     0.0000     0.0000     0.0000     0.0000     0.0000     0.0000 
   87.5000     0.0000     0.0000     0.0000     0.0000     0.0000     0.0000     0.0000     0.0000 
   87.6250     0.0000     0.0000     0.0000     0.0000     0.0000     0.0000     0.0000     0.0000 
   87.7500     0.0000     0.0000     0.0000     0.0000     0.0000     0.0000     0.0000     0.0000 
   87.8750     0.0000     0.0000     0.0000     0.0000     0.0000     0.0000     0.0000     0.0000 
   88.0000     0.0000     0.0000     0.0000     0.0000     0.0000     0.0000     0.0000     0.0000 
   88.1250     0.0000     0.0000     0.0000     0.0000     0.0000     0.0000     0.0000     0.0000 
   88.2500     0.0000     0.0000     0.0000     0.0000     0.0000     0.0000     0.0000     0.0000 
   88.3750     0.0000     0.0000     0.0000     0.0000     0.0000     0.0000     0.0000     0.0000 
   88.5000     0.0000     0.0000     0.0000     0.0000     0.0000     0.0000     0.0000     0.0000 
   88.6250     0.0000     0.0000     0.0000     0.0000     0.0000     0.0000     0.0000     0.0000 
   88.7500     0.0000     0.0000     0.0000     0.0000     0.0000     0.0000     0.0000     0.0000 
   88.8750     0.0000     0.0000     0.0000     0.0000     0.0000     0.0000     0.0000     0.0000 
   89.0000     0.0000     0.0000     0.0000     0.0000     0.0000     0.0000     0.0000     0.0000 
   89.1250     0.0000     0.0000     0.0000     0.0000     0.0000     0.0000     0.0000     0.0000 
   89.2500     0.0000     0.0000     0.0000     0.0000     0.0000     0.0000     0.0000     0.0000 
   89.3750     0.0000     0.0000     0.0000     0.0000     0.0000     0.0000     0.0000     0.0000 
   89.5000     0.0000     0.0000     0.0000     0.0000     0.0000     0.0000     0.0000     0.0000 
   89.6250     0.0000     0.0000     0.0000     0.0000     0.0000     0.0000     0.0000     0.0000 
   89.7500     0.0000     0.0000     0.0000     0.0000     0.0000     0.0000     0.0000     0.0000 
   89.8750     0.0000     0.0000     0.0000     0.0000     0.0000     0.0000     0.0000     0.0000 
   90.0000     0.0000     0.0000     0.0000     0.0000     0.0000     0.0000     0.0000     0.0000 
   90.1250     0.0000     0.0000     0.0000     0.0000     0.0000     0.0000     0.0000     0.0000 
   90.2500     0.0000     0.0000     0.0000     0.0000     0.0000     0.0000     0.0000     0.0000 
   90.3750     0.0000     0.0000     0.0000     0.0000     0.0000     0.0000     0.0000     0.0000 
   90.5000     0.0000     0.0000     0.0000     0.0000     0.0000     0.0000     0.0000     0.0000 
   90.6250     0.0000     0.0000     0.0000     0.0000     0.0000     0.0000     0.0000     0.0000 
   90.7500     0.0000     0.0000     0.0000     0.0000     0.0000     0.0000     0.0000     0.0000 
   90.8750     0.0000     0.0000     0.0000     0.0000     0.0000     0.0000     0.0000     0.0000 
   91.0000     0.0000     0.0000     0.0000     0.0000     0.0000     0.0000     0.0000     0.0000 
   91.1250     0.0000     0.0000     0.0000     0.0000     0.0000     0.0000     0.0000     0.0000 
   91.2500     0.0000     0.0000     0.0000     0.0000     0.0000     0.0000     0.0000     0.0000 
   91.3750     0.0000     0.0000     0.0000     0.0000     0.0000     0.0000     0.0000     0.0000 
   91.5000     0.0000     0.0000     0.0000     0.0000     0.0000     0.0000     0.0000     0.0000 
   91.6250     0.0000     0.0000     0.0000     0.0000     0.0000     0.0000     0.0000     0.0000 
   91.7500     0.0000     0.0000     0.0000     0.0000     0.0000     0.0000     0.0000     0.0000 
   91.8750     0.0000     0.0000     0.0000     0.0000     0.0000     0.0000     0.0000     0.0000 
   92.0000     0.0000     0.0000     0.0000     0.0000     0.0000     0.0000     0.0000     0.0000 
   92.1250     0.0000     0.0000     0.0000     0.0000     0.0000     0.0000     0.0000     0.0000 
   92.2500     0.0000     0.0000     0.0000     0.0000     0.0000     0.0000     0.0000     0.0000 
   92.3750     0.0000     0.0000     0.0000     0.0000     0.0000     0.0000     0.0000     0.0000 
   92.5000     0.0000     0.0000     0.0000     0.0000     0.0000     0.0000     0.0000     0.0000 
   92.6250     0.0000     0.0000     0.0000     0.0000     0.0000     0.0000     0.0000     0.0000 
   92.7500     0.0000     0.0000     0.0000     0.0000     0.0000     0.0000     0.0000     0.0000 
   92.8750     0.0000     0.0000     0.0000     0.0000     0.0000     0.0000     0.0000     0.0000 
