~V
VERS. 2.00: Ver 2.00
~W
STRT.M 33.0000:
STOP.M 216.0000:
STEP.M 0.1250:
NULL. -999.2500:
UWI. Z116:
~C
DEPT.M :
AC.US/MT :
CALI.CM :
DEN.GM/CC :
GR.API :
RI. :
RML.OHMM :
RXO.OHMM :
SP.MV :
~A
# ...
  203.0000   342.5840    22.1290     2.3790     5.6780     8.9620    10.6300     7.6330    -0.0900 
  203.1250   355.1650    22.3060     2.3810     5.6200     9.5560    11.6990     8.8550    -0.3130 
  203.2500   369.5080    22.3920     2.3930     5.7540    10.3550    13.1420    10.0000    -0.6780 
  203.3750   390.6540    22.3930     2.4040     5.8800    11.2220    14.7910    11.2270    -1.1490 
  203.5000   301.5210    22.3930     2.4100     6.0020    11.5650    15.9930    12.5870    -1.6560 
  203.6250   335.9280    22.3850     2.4010     6.0900    10.9950    14.7770    14.1120    -2.1020 
  203.7500   385.6930    22.3570     2.3920     6.1640    10.4610    13.5610    12.9710    -2.4870 
  203.8750   457.3820    22.3030     2.3820     6.0080     9.9540    12.4350    10.4630    -2.8730 
  204.0000   520.7980    22.1940     2.3780     5.7630     9.9870    11.3820     9.3210    -3.2270 
  204.1250   553.5900    21.9840     2.3750     5.5900    10.1090    10.9510    10.3970    -3.0370 
  204.2500   363.6650    21.7590     2.3720     5.6260    10.1090    10.8170     8.9620    -2.4220 
  204.3750   435.2220    21.5100     2.3750     5.8340     9.5460    10.3550     7.8890    -1.7750 
  204.5000   454.3820    21.3290     2.3900     6.0750     8.7150     9.5740     8.4210    -1.2880 
  204.6250   330.1640    21.2900     2.4050     6.0080     8.0870     9.0290     8.3100    -0.9120 
  204.7500   342.0780    21.2890     2.4220     5.8570     7.8080     8.8190     7.0720    -0.5350 
  204.8750   363.3260    21.3670     2.4440     5.7630     8.1140     9.0920     7.6500    -0.1640 
  205.0000   368.6370    21.4470     2.4660     5.9900     8.4670     9.6380     8.6610     0.1050 
  205.1250   305.2510    21.5150     2.4750     6.3010     8.8200    10.4070     9.5170     0.1670 
  205.2500   298.7670    21.5680     2.4720     6.5840     9.1830    11.0660     8.7410    -0.0310 
  205.3750   298.5140    21.6150     2.4580     6.8220     9.4620    10.7250     8.2200    -0.2230 
  205.5000   294.0440    21.6580     2.4440     7.0190     9.3860    10.3910    12.0530    -0.4030 
  205.6250   288.7430    21.6980     2.4390     6.9600     9.1850    10.1960    16.5170    -0.5490 
  205.7500   283.8640    21.7200     2.4380     6.7480     9.0040    10.0020    15.9410    -0.6730 
  205.8750   280.4380    21.7410     2.4360     6.4700     9.4130    10.6690    11.3210    -0.6740 
  206.0000   281.6670    21.7740     2.4210     6.3850    10.0890    11.3590    11.1270    -0.4080 
  206.1250   292.3190     0.0000     2.4120     6.5470    10.7640    12.1370    12.3590    -0.0200 
  206.2500   304.7830     0.0000     2.4060     6.7080    11.6370    12.9950    12.7550     0.3950 
  206.3750   315.3520     0.0000     2.4020     6.7350    12.2990    13.5040    12.4020     0.8090 
  206.5000   320.0980     0.0000     2.4010     6.6010    12.2780    13.7400    13.7330     1.0290 
  206.6250   317.4270     0.0000     2.4010     6.5290    11.7930    13.9430    13.5790     1.2480 
  206.7500   313.6710     0.0000     2.4000     6.4720    11.0550    14.1100    11.7440     1.4680 
  206.8750   310.2560     0.0000     2.3990     6.4200    10.3980    14.0960    10.5780     1.3830 
  207.0000   308.5580     0.0000     2.3960     6.4080    10.0180    13.8730    10.2360     1.0540 
  207.1250   306.8600     0.0000     2.3930     6.4020    10.3350    13.5560    11.0490     0.6610 
  207.2500   306.2140     0.0000     2.3910     6.4070    11.0050    13.8070    12.3130     0.2860 
  207.3750   317.6020     0.0000     2.3890     6.5730    11.7940    14.3160    13.6940    -0.0940 
  207.5000   328.5660     0.0000     2.3880     7.0020    12.5440    14.8250    15.4530    -0.5300 
  207.6250   338.2770     0.0000     2.3920     7.2920    11.1120    13.1480    17.3450    -0.7150 
  207.7500   339.1260     0.0000     2.3950     7.5010     9.2350    10.4350    19.3040     0.0000 
  207.8750   331.1940     0.0000     2.3980     7.1700     7.4190     8.3840    20.5530     0.0000 
  208.0000   322.2750     0.0000     2.4030     6.1480     6.1460     8.4700    17.0380     0.0000 
  208.1250   312.7950     0.0000     2.4070     5.9400     7.1350     9.2460     5.1650     0.0000 
  208.2500   318.8020     0.0000     2.4120     5.8360     8.2290    10.5030     6.3730     0.0000 
  208.3750   313.1070     0.0000     2.4160     5.9110     9.6290    11.7670     8.2000     0.0000 
  208.5000   304.4960     0.0000     2.4190     6.1190    10.8560    12.9260    10.3650     0.0000 
  208.6250   299.1390     0.0000     2.4230     6.3580    11.9220    13.4750    12.5070     0.0000 
  208.7500   392.2640     0.0000     2.4230     6.5310    12.1610    12.9840    14.0320     0.0000 
  208.8750   395.2220     0.0000     2.4150     6.6160    10.9020    11.7270    12.0000     0.0000 
  209.0000   374.0450     0.0000     2.4080     6.8110     9.9070    11.0060     7.6310     0.0000 
  209.1250   300.4140     0.0000     2.4000     7.0960     9.2750    10.7000     7.7180     0.0000 
  209.2500   310.6870     0.0000     2.3940     7.1990     8.8940    10.5480     8.8910     0.0000 
  209.3750   310.0620     0.0000     2.3910     6.9460     8.5130    10.6080    10.3020     0.0000 
  209.5000   312.1580     0.0000     2.3890     6.4450     8.2650    10.6650    11.3650     0.0000 
  209.6250   324.4170     0.0000     2.3860     6.4140     8.5660    10.7200     9.3380     0.0000 
  209.7500   335.6210     0.0000     2.3860     6.4690     9.0550    11.0420     9.8740     0.0000 
  209.8750   346.7140     0.0000     2.3850     6.4100     9.5950    11.4360    11.8770     0.0000 
  210.0000   349.6070     0.0000     2.3850     6.5140    10.2970    12.0990    13.5720     0.0000 
  210.1250   340.6640     0.0000     2.3850     6.8020    10.9860    12.0990    13.5460     0.0000 
  210.2500   328.6470     0.0000     2.3850     7.0390    11.6660    13.0060    12.7030     0.0000 
  210.3750   308.8570     0.0000     2.3850     6.9560    12.3530    13.9260    12.2000     0.0000 
  210.5000   299.0200     0.0000     2.3840     6.8530    13.0710    14.8550    12.0160     0.0000 
  210.6250   295.4380     0.0000     2.3820     6.7530    12.0240    15.2180    15.4430     0.0000 
  210.7500   304.7050     0.0000     2.3750     6.9430    10.2020    12.3280    21.0440     0.0000 
  210.8750   314.5650     0.0000     2.3730     6.9680     8.7160     9.9280    18.3160     0.0000 
  211.0000   322.6270     0.0000     2.3710     6.8820     8.6060     9.4670    10.3660     0.0000 
  211.1250   322.7620     0.0000     2.3710     6.8260     9.6730    10.3390     7.1910     0.0000 
  211.2500   310.4600     0.0000     2.3790     7.0110    10.7090    11.3920     7.7040     0.0000 
  211.3750   329.5140     0.0000     2.3860     7.0760    11.2190    12.0360     9.4360     0.0000 
  211.5000   329.0560     0.0000     2.3930     7.0020    10.2720    12.0800    11.7900     0.0000 
  211.6250   322.0890     0.0000     2.4000     7.4840     9.3740    11.3980    13.9740     0.0000 
  211.7500   315.4090     0.0000     2.4080     7.0460     8.8150    10.7270    11.2900     0.0000 
  211.8750   370.9090     0.0000     2.4180     6.7380     8.4980    10.1400    16.4700     0.0000 
  212.0000   418.8530     0.0000     2.4280     6.8870     8.6580     9.5940    17.3880     0.0000 
  212.1250   409.5290     0.0000     2.4380     6.9890     8.9010     9.5040     8.5490     0.0000 
  212.2500   375.7610     0.0000     2.4280     6.9450     9.3340    10.1310     6.4760     0.0000 
  212.3750   319.6140     0.0000     2.3940     6.8650     9.8210    10.7830     7.6260     0.0000 
  212.5000   337.7430     0.0000     2.3620     6.7840    10.3140    11.4380     9.3870     0.0000 
  212.6250   353.6470     0.0000     2.3320     6.7040    10.8950    12.0930    11.2610     0.0000 
  212.7500   368.7540     0.0000     2.3010     6.8690    11.4770    12.5510    13.1130     0.0000 
  212.8750   367.5560     0.0000     2.2690     7.1490    12.0590    12.4640    12.7870     0.0000 
