~V
VERS. 2.00: Ver 2.00
~W
STRT.M 33.0000:
STOP.M 216.0000:
STEP.M 0.1250:
NULL. -999.2500:
UWI. Z116:
~C
DEPT.M :
AC.US/MT :
CALI.CM :
DEN.GM/CC :
GR.API :
RI. :
RML.OHMM :
RXO.OHMM :
SP.MV :
~A
# ...
  183.0000   376.5790    21.1800     2.2910     6.5680     6.1510     7.3430     5.1030    -3.5790 
  183.1250   375.1430    21.2800     2.2870     6.7600     6.1820     7.2020     5.5500    -3.2720 
  183.2500   364.6830    21.4150     2.2850     7.0950     5.7000     7.1690     6.4020    -2.9720 
  183.3750   356.1490    21.5340     2.2860     7.1800     5.1030     7.2670     7.2740    -2.8490 
  183.5000   355.1350    21.6200     2.2900     7.1700     4.5600     6.8230     6.7580    -2.8240 
  183.6250   376.0770    21.6330     2.2970     7.1420     4.1440     5.8830     6.1190    -2.9260 
  183.7500   396.8980    21.5430     2.3050     7.0620     4.4610     5.5770     6.9600    -3.0970 
  183.8750   387.0430    21.3340     2.3100     6.7970     4.8420     5.8400     7.9990    -3.1040 
  184.0000   377.1880    21.2330     2.3130     6.5260     5.4300     6.3310     8.0460    -2.9200 
  184.1250   367.3330    21.1490     2.3110     6.4720     5.8500     6.8480     5.6850    -2.6640 
  184.2500   357.6340    21.1040     2.3130     6.6210     5.4270     7.0940     4.3910    -2.3950 
  184.3750   348.0630    21.1050     2.3210     6.6380     4.7390     6.6420     3.3160    -2.1140 
  184.5000   356.7980    21.1050     2.3300     6.0130     3.9490     5.7990     2.7050    -1.9230 
  184.6250   384.2090    21.1280     2.3320     5.8990     3.3830     5.1390     3.2400    -1.8050 
  184.7500   406.4950    21.1530     2.3210     6.0760     4.0120     5.0880     4.4250    -1.6850 
  184.8750   395.9780    21.1790     2.3120     6.3200     4.7030     5.6820     5.6400    -1.5620 
  185.0000   382.1610    21.2040     2.3030     6.2920     5.3520     6.0900     5.9030    -1.4390 
  185.1250   368.3450    21.2300     2.3020     6.0170     5.7020     6.4980     4.6090    -1.3160 
  185.2500   359.9830    21.2550     2.3120     5.6890     5.0690     6.9070     3.9620    -1.1930 
  185.3750   361.3880    21.2940     2.3210     5.5580     4.4360     6.7630     4.4080    -1.0050 
  185.5000   375.9480    21.3370     2.3310     5.7060     3.8030     6.3580     5.0230    -0.7820 
  185.6250   389.6780    21.3620     2.3410     5.9000     3.5940     5.9540     5.5070    -0.4310 
  185.7500   382.1820    21.3630     2.3350     5.7470     3.8480     5.5490     5.0140    -0.2040 
  185.8750   374.6860    21.2360     2.3240     5.5360     4.2520     5.1450     4.6220    -0.3580 
  186.0000   369.9870    21.1070     2.3190     5.3880     4.6760     4.7400     4.3280    -0.6470 
  186.1250   365.7130    21.0870     2.3180     5.6340     4.8110     5.2020     4.0390    -1.1930 
  186.2500   363.4500    21.0660     2.3180     5.8560     4.8890     5.6700     4.3810    -1.7000 
  186.3750   372.3590    21.0940     2.3160     6.0580     4.8880     6.1520     5.0030    -2.0960 
  186.5000   381.2680    21.1340     2.3100     6.2170     4.4640     6.6810     5.6260    -2.4890 
  186.6250   390.1770    21.2070     2.3020     6.3240     4.0840     7.2100     6.2600    -2.7030 
  186.7500   392.8220    21.3850     2.2930     6.4280     4.1920     7.4940     6.9590    -2.9160 
  186.8750   378.3520    21.5620     2.2880     6.5520     4.6920     7.6960     6.7090    -2.8950 
  187.0000   361.4220    21.6860     2.2880     6.6860     5.2410     7.3000     5.6490    -2.8560 
  187.1250   344.2030    21.7830     2.2970     6.6980     5.4920     6.5950     4.8610    -2.7050 
  187.2500   327.7170    21.9060     2.3060     5.9110     5.0990     6.0360     4.2440    -2.3570 
  187.3750   330.3360    22.0390     2.3130     5.9990     4.6450     5.6990     3.9590    -2.0090 
  187.5000   356.9690    22.1280     2.3180     5.8740     4.3270     5.4260     4.4010    -1.6830 
  187.6250   379.7850    22.1570     2.3160     5.6150     4.1950     5.5320     4.7330    -1.3580 
  187.7500   375.4760    21.9030     2.3070     5.6540     4.1670     5.6380     4.7090    -1.0530 
  187.8750   371.3940    21.7100     2.2990     5.7900     4.1660     5.7440     4.4540    -0.8230 
  188.0000   367.9240    21.5230     2.2980     5.7360     4.2200     5.8510     4.1420    -0.6390 
  188.1250   372.9480    21.5090     2.3070     5.4890     4.3280     5.9590     4.3160    -0.5700 
  188.2500   387.0970    21.4950     2.3210     5.6760     4.5260     6.0660     5.2600    -0.8520 
  188.3750   400.2740    21.4810     2.3320     5.8510     4.7870     6.1280     6.2820    -1.2010 
  188.5000   406.5970    21.5390     2.3410     6.0310     5.0590     6.1740     7.2710    -1.5490 
  188.6250   390.7510    21.6650     2.3360     6.2150     5.3400     6.2990     8.1760    -1.8820 
  188.7500   363.7830    21.7920     2.3250     6.4070     5.6570     6.4660     6.8290    -2.1240 
  188.8750   340.5890    21.9360     2.3170     6.6400     5.9020     7.1580     5.7990    -2.3660 
  189.0000   327.0820    22.1190     2.3100     6.9190     5.9650     7.9170     4.9120    -2.5050 
  189.1250   328.5000    22.3010     2.3060     7.0970     5.6800     8.2580     4.2170    -2.6330 
  189.2500   339.8350    22.4900     2.3020     6.8560     5.2480     8.0680     3.9200    -2.6360 
  189.3750   351.2560    22.6950     2.3030     5.8470     4.9600     7.5980     4.4250    -2.6280 
  189.5000   363.6020    22.8990     2.3060     5.6350     4.7630     7.1370     5.1250    -2.5900 
  189.6250   375.9480    23.0780     2.3120     5.6570     4.7620     6.7010     5.3810    -2.4160 
  189.7500   374.8930    23.2360     2.3170     5.7830     4.7610     6.3190     5.1110    -2.2120 
  189.8750   364.0200    23.2950     2.3220     5.8410     4.7820     6.0820     4.5790    -1.9660 
  190.0000   333.3540    23.1510     2.3270     5.3210     4.8610     5.9940     4.5460    -1.7640 
  190.1250   332.4450    22.8660     2.3330     5.6070     4.9390     6.0910     5.0800    -1.8790 
  190.2500   333.1780    22.5810     2.3390     5.8420     5.0180     6.2830     5.6150    -2.1870 
  190.3750   338.0390    22.2950     2.3410     5.9950     5.1080     6.5900     5.5790    -2.4670 
  190.5000   347.4940    22.0530     2.3430     5.9100     5.2130     6.7210     4.9790    -2.5210 
  190.6250   357.1110    21.8110     2.3420     5.8450     5.2330     6.6070     4.4970    -2.3980 
  190.7500   368.6900    21.6220     2.3400     5.9140     5.1800     6.3240     4.1210    -2.2390 
  190.8750   361.6070    21.4390     2.3320     6.0140     5.0030     5.8710     3.8130    -1.8380 
  191.0000   341.8960    21.3580     2.3240     6.1180     4.7480     5.4190     3.6890    -1.4360 
  191.1250   338.4810    21.2870     2.3160     6.2150     4.5140     5.1740     3.6200    -1.0370 
  191.2500   344.3170    21.3540     2.3100     6.2990     4.3540     5.4320     3.7210    -0.8530 
  191.3750   349.9840    21.4200     2.3040     6.3830     4.2410     5.8490     3.9540    -1.2610 
  191.5000   351.9240    21.4880     2.3030     6.3040     4.2400     6.2730     4.3290    -1.7110 
  191.6250   343.5190    21.6550     2.3050     6.1550     4.3470     6.5130     4.6150    -2.1550 
  191.7500   337.0220    21.8230     2.3060     5.8980     4.5300     6.6070     4.7360    -2.3260 
  191.8750   330.9640    21.9490     2.3050     6.0360     4.8770     6.5000     4.5870    -2.3530 
  192.0000   329.6820    21.9720     2.3020     6.2500     5.0480     6.1840     4.4740    -2.2890 
  192.1250   336.7630    21.9910     2.2990     6.3610     4.9460     5.9400     4.5720    -2.0290 
  192.2500   344.6900    21.9340     2.2950     6.3730     4.5190     5.7590     4.7010    -1.7690 
  192.3750   352.9130    21.8450     2.2920     5.8780     4.3280     5.6770     4.9120    -1.6230 
  192.5000   360.7460    21.6740     2.2910     6.0340     4.1970     5.8210     4.8200    -1.6710 
  192.6250   360.6470    21.5490     2.2920     6.1470     4.1240     5.9650     4.5350    -1.9210 
  192.7500   348.1920    21.4650     2.2940     5.9650     4.0330     6.2600     4.1930    -2.1720 
  192.8750   336.7020    21.4010     2.3020     5.7710     4.1010     6.6680     3.9850    -2.1950 
