~V
VERS. 2.00: Ver 2.00
~W
STRT.M 33.0000:
STOP.M 216.0000:
STEP.M 0.1250:
NULL. -999.2500:
UWI. Z116:
~C
DEPT.M :
AC.US/MT :
CALI.CM :
DEN.GM/CC :
GR.API :
RI. :
RML.OHMM :
RXO.OHMM :
SP.MV :
~A
# ...
  173.0000   364.8320    22.2180     2.3440     6.9590     7.3920     8.1970     6.7160    -5.0930 
  173.1250   371.0700    22.2180     2.3530     7.0520     6.6970     8.3640     5.6600    -4.8480 
  173.2500   371.8850    22.2190     2.3630     6.8530     6.0010     8.3200     5.9140    -4.4240 
  173.3750   366.5260    22.3810     2.3730     6.0240     5.3050     7.6900     6.4180    -3.9990 
  173.5000   361.9930    22.6680     2.3800     5.7190     5.3480     6.3850     6.9670    -3.4960 
  173.6250   359.7470    22.9610     2.3760     5.5420     5.3420     5.2030     6.3880    -2.9850 
  173.7500   357.8730    23.1560     2.3720     5.4410     4.5380     4.6370     5.1110    -2.5230 
  173.8750   375.2910    22.8700     2.3620     5.4870     3.4740     4.7440     4.0960    -2.1900 
  174.0000   403.4740    22.5530     2.3500     5.5550     3.8780     5.3890     3.7470    -1.9600 
  174.1250   433.6010    22.3090     2.3380     5.6210     4.5080     6.0340     4.2490    -1.8880 
  174.2500   422.0790    22.2740     2.3200     5.6800     5.3060     6.5840     5.0390    -1.9500 
  174.3750   405.7700    22.4190     2.3000     5.7390     5.5850     6.9600     5.7270    -2.0060 
  174.5000   386.0570    22.6720     2.2890     5.0610     4.8980     6.4610     5.9550    -2.0580 
  174.6250   388.4930    22.7590     2.2940     5.1770     4.3690     5.9630     4.7960    -2.0060 
  174.7500   408.9150    22.3720     2.3040     5.2770     4.3740     5.6910     4.2180    -1.8780 
  174.8750   426.5630    22.1710     2.3140     5.3700     3.8220     5.4450     4.4650    -1.6200 
  175.0000   411.2000    22.0530     2.3250     5.4240     3.3100     5.2190     5.1490    -1.2910 
  175.1250   396.2990    22.0030     2.3360     5.3690     3.6270     5.4490     5.7810    -0.9100 
  175.2500   383.4660    21.9540     2.3450     5.2610     3.8930     5.7940     5.8260    -0.4500 
  175.3750   379.5660    21.9150     2.3430     5.1870     4.1230     6.0950     5.1950    -0.1070 
  175.5000   386.6260    21.8920     2.3310     5.4130     3.7840     5.9620     4.5640    -0.0050 
  175.6250   393.6990    21.8760     2.3210     5.7440     3.2170     5.4270     3.9700    -0.2900 
  175.7500   402.2420    21.8760     2.3130     5.7340     3.1090     5.0570     3.5630    -0.7020 
  175.8750   410.7840    21.8910     2.3110     5.8280     3.5000     4.7750     3.7560    -1.1130 
  176.0000   412.5750    21.9480     2.3110     6.0520     3.9980     4.8620     6.1320    -1.4990 
  176.1250   404.2610    22.0750     2.3140     6.2390     4.6810     5.2900     5.3280    -1.8780 
  176.2500   395.9470    22.2760     2.3180     6.2780     5.2700     5.7250     4.5830    -2.1250 
  176.3750   386.6960    22.4300     2.3210     6.1340     5.1420     5.9500     4.9700    -2.3210 
  176.5000   376.6620    22.5080     2.3140     5.9890     4.7490     5.9820     5.4140    -2.3070 
  176.6250   375.9360    22.4950     2.3030     6.1380     4.3740     5.8430     5.7850    -2.2850 
  176.7500   394.2700    22.2920     2.2940     6.3110     4.1540     5.6480     4.9320    -2.1830 
  176.8750   395.0450    22.0490     2.2880     5.8840     4.1480     5.5280     4.5300    -2.0490 
  177.0000   387.2360    21.9070     2.2860     5.4500     4.1470     5.4770     4.3840    -1.9260 
  177.1250   388.7030    21.8310     2.2870     5.2740     4.3100     5.6020     4.6870    -1.8700 
  177.2500   390.9260    21.8320     2.2930     5.0600     4.5320     5.8590     5.1220    -1.9370 
  177.3750   395.5240    21.8320     2.2990     5.0500     4.7540     5.7630     5.3950    -2.2110 
  177.5000   407.6640    21.8330     2.3050     5.2330     4.9760     5.6680     4.7330    -2.5890 
  177.6250   403.3620    21.8330     2.3130     5.7610     4.8470     5.5720     4.0580    -2.8500 
  177.7500   396.0270    21.8340     2.3180     5.6420     3.8380     4.7690     3.6050    -2.8890 
  177.8750   388.7070    21.9330     2.3150     5.5000     3.1720     4.2250     3.3800    -2.6610 
  178.0000   383.7360    22.0740     2.3040     5.3900     3.1740     4.0070     3.2710    -2.4330 
  178.1250   405.0520    22.2150     2.2950     5.4740     3.4910     3.9050     3.5100    -2.2050 
  178.2500   426.3370    22.3100     2.2970     5.5820     4.1280     4.1460     4.0380    -1.9770 
  178.3750   443.1240    22.3890     2.3030     5.4900     4.7650     4.6950     4.5660    -1.7970 
  178.5000   451.8990    22.3540     2.3100     5.4130     5.0550     5.2980     5.0950    -2.1030 
  178.6250   442.8350    22.2580     2.3170     5.4550     5.1500     5.7800     5.6320    -2.7510 
  178.7500   431.4050    22.1230     2.3170     5.3260     4.5740     6.0160     5.3900    -3.3700 
  178.8750   417.5480    21.9910     2.3070     5.2180     3.9720     5.7870     4.7420    -3.7860 
  179.0000   401.6980    21.8600     2.2940     5.0860     3.6970     5.5240     4.2520    -3.7610 
  179.1250   393.4090    21.7800     2.2870     4.9660     4.0140     5.2070     4.2370    -3.3600 
  179.2500   398.8250    21.7610     2.2820     4.8740     4.1800     4.9520     4.5500    -2.9410 
  179.3750   412.3800    21.7420     2.2850     4.8000     4.3240     4.7620     4.9340    -2.4300 
  179.5000   436.5620    21.8400     2.2920     4.9280     4.0850     4.6790     4.8720    -1.9180 
  179.6250   453.5050    21.9520     2.2980     5.0810     3.8660     4.6870     4.1680    -1.3930 
  179.7500   447.1600    22.0510     2.3020     5.2050     3.6540     4.8900     3.5670    -0.8630 
  179.8750   435.1070    22.0910     2.3040     5.1130     3.7770     5.2380     3.3760    -0.5500 
  180.0000   423.0540    22.0270     2.3020     4.9990     3.9720     5.7470     3.7200    -0.4960 
  180.1250   414.1740    21.9510     2.2990     5.1350     4.1830     6.2150     3.8590    -0.8490 
  180.2500   414.4060    21.8740     2.2970     5.3030     4.2880     6.5820     4.1940    -1.2400 
  180.3750   420.1010    21.7980     2.2970     5.4720     4.2580     7.0570     4.6910    -1.6320 
  180.5000   425.7950    21.7220     2.2970     5.6450     4.2930     7.6220     5.8120    -2.0230 
  180.6250   421.6890    21.6460     2.2980     5.8350     5.1310     8.2320     7.1820    -2.2630 
  180.7500   410.7340    21.6450     2.3010     6.0310     5.9690     8.7230     8.9270    -2.4430 
  180.8750   396.1060    21.8030     2.3020     6.2300     6.7980     8.5600     7.4560    -2.4800 
  181.0000   382.1790    21.9730     2.2940     6.3950     7.0030     7.3650     6.5660    -2.4730 
  181.1250   368.2510    22.2640     2.2890     6.4650     5.5670     6.1090     6.6170    -2.1660 
  181.2500   352.3450    22.5560     2.2920     6.2680     4.3910     5.1840     5.4800    -1.8900 
  181.3750   338.2670    22.9070     2.2980     5.9040     3.5890     4.7440     3.4070    -1.7060 
  181.5000   358.8050    23.1870     2.3050     5.4520     3.4100     4.6100     2.5850    -1.7600 
  181.6250   403.8750    23.2400     2.3100     5.5570     3.8140     4.7540     3.2280    -2.1210 
  181.7500   444.5220    22.6990     2.3140     5.6500     4.2520     5.2090     4.1840    -2.5290 
  181.8750   438.4230    22.2000     2.3100     5.5770     4.6760     5.4920     4.9000    -3.1210 
  182.0000   433.1790    21.7270     2.3000     5.8440     5.1480     5.7750     5.0860    -3.6680 
  182.1250   430.0280    21.4130     2.2920     6.2010     5.4590     6.1050     5.4260    -3.9760 
  182.2500   431.4820    21.2350     2.2980     6.3300     5.6300     6.4330     6.0480    -4.2840 
  182.3750   439.9930    21.0930     2.3050     6.2610     5.6290     6.7210     6.6710    -4.5930 
  182.5000   417.0240    21.0740     2.3130     6.5110     5.6280     7.0100     7.2930    -4.5590 
  182.6250   384.0270    21.0550     2.3210     6.8500     5.6270     7.2710     7.5790    -4.4090 
  182.7500   368.8940    21.0790     2.3160     6.8190     5.6470     7.4940     6.4190    -4.1400 
  182.8750   372.6620    21.1290     2.3000     6.7010     5.8130     7.4840     5.5470    -3.8710 
