~V
VERS. 2.00: Ver 2.00
~W
STRT.M 33.0000:
STOP.M 216.0000:
STEP.M 0.1250:
NULL. -999.2500:
UWI. Z116:
~C
DEPT.M :
AC.US/MT :
CALI.CM :
DEN.GM/CC :
GR.API :
RI. :
RML.OHMM :
RXO.OHMM :
SP.MV :
~A
# ...
  193.0000   328.2530    21.4800     2.3080     5.6500     4.2800     6.6670     4.0400    -2.1790 
  193.1250   322.6800    21.5590     2.3130     5.8690     4.5110     6.4620     5.0680    -2.2200 
  193.2500   319.4490    21.6530     2.3180     6.1360     4.7320     6.3130     6.4190    -2.4590 
  193.3750   316.2180    21.7590     2.3240     6.3840     4.9530     6.1640     8.5300    -2.7680 
  193.5000   314.5730    21.8640     2.3280     6.5610     5.1730     6.1420    10.6870    -2.9240 
  193.6250   316.1100    21.9700     2.3310     6.4940     5.3400     6.1850     8.3070    -3.0350 
  193.7500   319.9260    22.0280     2.3320     6.3580     5.3390     6.2280     5.4690    -3.0360 
  193.8750   324.5580    21.9340     2.3320     6.2380     5.3380     6.2710     4.6850    -2.9620 
  194.0000   330.3350    21.8390     2.3270     6.4710     5.0250     6.3140     4.6740    -2.6550 
  194.1250   337.1460    21.7440     2.3220     6.6520     4.8120     6.3570     4.8320    -2.3470 
  194.2500   341.0230    21.6490     2.3170     6.6310     4.7270     6.4440     5.0100    -2.0400 
  194.3750   335.7740    21.5540     2.3120     6.4840     4.7440     6.4870     5.4270    -1.7260 
  194.5000   330.1980    21.7330     2.3110     6.5620     4.8550     6.5300     5.2910    -1.4010 
  194.6250   327.3880    21.9270     2.3130     6.5750     4.9660     6.5730     4.9310    -1.0760 
  194.7500   324.7910    22.1450     2.3210     6.6830     5.1330     6.5000     4.8870    -0.7620 
  194.8750   323.7100    22.3790     2.3290     6.7900     5.3710     6.3560     5.4610    -0.4550 
  195.0000   323.1610    22.6260     2.3370     6.7770     5.6090     6.2120     6.1710    -0.3050 
  195.1250   323.2570    22.4520     2.3440     6.6200     5.7650     6.1630     6.2570    -0.2170 
  195.2500   318.1760    22.1380     2.3480     6.4630     5.9100     6.8390     5.7520    -0.3940 
  195.3750   310.4110    21.8600     2.3500     6.6310     6.0230     7.5150     5.0680    -0.8740 
  195.5000   302.9810    21.6820     2.3540     6.6280     6.1280     8.1610     4.7550    -1.3630 
  195.6250   298.2240    21.6150     2.3590     6.5950     6.3280     8.6700     4.5610    -1.8330 
  195.7500   305.9110    21.6470     2.3550     6.8940     6.5680     8.8990     4.5770    -2.1410 
  195.8750   316.2360    21.6790     2.3440     6.7400     6.7170     8.2090     4.9260    -2.4330 
  196.0000   326.8180    21.7300     2.3270     6.6200     6.5830     7.5090     5.8740    -2.6460 
  196.1250   336.9670    21.9030     2.3170     6.7030     5.7150     6.7920     7.4750    -2.8490 
  196.2500   332.3410    22.0700     2.3220     6.6350     5.0300     6.0750     7.0550    -2.9430 
  196.3750   326.6270    22.2330     2.3280     6.4290     4.7100     5.9170     4.8110    -3.0370 
  196.5000   322.7520    22.4150     2.3370     6.5220     5.0700     5.9140     5.3580    -2.8610 
  196.6250   321.8710    22.1910     2.3300     6.6850     5.5870     6.4440     6.4080    -2.6860 
  196.7500   323.9070    21.9470     2.3210     6.7560     6.0480     6.9730     6.7290    -2.3960 
  196.8750   329.3660    21.7300     2.3180     6.6040     6.1890     7.1520     6.7310    -2.0680 
  197.0000   334.9240    21.5770     2.3250     6.4820     5.7780     7.0220    11.1100    -1.7550 
  197.1250   338.7360    21.5020     2.3360     6.4760     5.2220     6.4440     7.2830    -1.4720 
  197.2500   328.0400    21.4280     2.3460     6.5790     4.8790     6.0730     6.3340    -1.1880 
  197.3750   315.6680    21.3580     2.3570     6.6840     4.8960     6.1230     5.8350    -0.9050 
  197.5000   304.3020    21.3420     2.3620     6.7940     5.3910     6.9080     5.7480    -0.6220 
  197.6250   296.9910    21.3260     2.3550     6.9050     5.9450     7.6930     6.2440    -0.3400 
  197.7500   292.7210    21.3090     2.3430     6.9050     6.3850     6.8570     6.3140    -0.0880 
  197.8750   299.0800    21.2780     2.3320     6.2820     5.9380     6.1660     5.5890     0.0660 
  198.0000   311.7040    21.2480     2.3220     6.3010     5.1480     5.5980     4.8870     0.1980 
  198.1250   327.2800    21.2170     2.3130     6.3980     4.5370     5.1210     4.4000     0.2820 
  198.2500   343.6290    21.1860     2.3070     6.4730     4.1640     4.9400     4.1730     0.2730 
  198.3750   358.5650    21.1550     2.3180     6.4650     3.7900     5.2140     4.1430     0.1810 
  198.5000   367.4850    21.1240     2.3300     6.3460     3.6200     5.1670     4.3260     0.0900 
  198.6250   360.3000    21.0990     2.3420     6.2420     3.5340     5.7760     4.6220    -0.0010 
  198.7500   349.7290    21.0790     2.3540     6.1550     3.5450     6.3860     4.8820    -0.1030 
  198.8750   336.6200    21.0580     2.3660     6.2710     3.7750     7.0230     5.0940    -0.2480 
  199.0000   317.8060    21.0380     2.3790     6.4130     4.2880     7.8560     5.3540    -0.3930 
  199.1250   302.5810    21.0180     2.3900     6.4660     5.5750     8.0080     6.3700    -0.5590 
  199.2500   298.3380    20.9880     2.3990     6.2730     7.0060     8.0060     7.4860    -0.7470 
  199.3750   303.9450    20.9570     2.3970     6.0260     8.2260     8.6750     8.0930    -0.9360 
  199.5000   310.4680    20.9260     2.3790     6.4020     9.2530    10.2750     7.4620    -1.1130 
  199.6250   317.2840    20.8920     2.3540     6.7710    10.0700    12.8800     6.8520    -1.2820 
  199.7500   318.9150    20.8550     2.3690     6.6930    10.8680    12.6730     6.3400    -1.4520 
  199.8750   294.1970    20.8190     2.3910     6.5530    11.5480    12.8800    26.1810    -1.6030 
  200.0000   277.5520    20.7820     2.4140     6.7250    10.6070    12.6730    24.7820    -1.7230 
  200.1250   272.6710    20.7460     2.4130     7.0510     9.5100    11.5320    21.1680    -1.8430 
  200.2500   283.4050    20.7200     2.3900     6.8810     8.5180    10.5710    16.6520    -1.9790 
  200.3750   292.7920    20.7450     2.3600     6.6660     7.9550     9.6910    10.6190    -2.1330 
  200.5000   302.1790    20.7850     2.3520     6.3260     7.6780     8.9100     8.0300    -2.2230 
  200.6250   311.5660    20.9650     2.3620     6.1420     7.6220     8.5300     7.1400    -2.2610 
  200.7500   321.4150    21.1460     2.3780     6.2400     7.6210     8.1510     8.3400    -2.3000 
  200.8750   330.1750    21.3690     2.3940     6.3990     7.6200     8.2700     9.8630    -2.3000 
  201.0000   321.0820    21.6000     2.4100     6.5560     7.6190     8.5120    11.1220    -2.3010 
  201.1250   310.9250    21.8490     2.4250     6.3900     7.6460     9.0540     9.9180    -2.2890 
  201.2500   305.1200    22.0970     2.4140     6.5170     7.7030     9.5960     8.1560    -2.2740 
  201.3750   299.6970    22.3050     2.4030     6.6830     7.7600    10.0660     6.8010    -2.2590 
  201.5000   300.5800    22.4860     2.3950     6.5510     7.8160    10.0640     8.0030    -2.1190 
  201.6250   304.4700    22.4390     2.3870     6.5250     7.6140    10.0620     9.6920    -1.8700 
  201.7500   307.3280    22.2830     2.3780     6.6600     7.3940    10.0600    10.7120    -1.6200 
  201.8750   307.2350    22.1260     2.3700     6.2080     7.1670    10.0580     9.4530    -1.3980 
  202.0000   305.2120    21.9810     2.3710     6.3430     7.0150    10.0240     8.2580    -1.1760 
  202.1250   304.0860    21.9500     2.3860     6.5790     7.0600     9.8430     7.0730    -0.9550 
  202.2500   303.7140    21.9190     2.4010     6.4130     7.1090     9.6620     6.4020    -0.7330 
  202.3750   303.6860    21.8880     2.4160     6.4940     7.2670     9.5240     6.9900    -0.5120 
  202.5000   306.1160    21.8570     2.4180     6.3380     7.4250     9.3880     7.6270    -0.2900 
  202.6250   310.9390    21.8500     2.4130     6.4680     7.6610     9.2360     8.2010    -0.0770 
  202.7500   318.3670    21.9030     2.4020     6.5610     7.9790     9.1960     7.3370    -0.0550 
  202.8750   330.2730    21.9880     2.3900     6.0060     8.3670     9.6930     6.5650    -0.0330 
