~V
VERS. 2.00: Ver 2.00
~W
STRT.M 33.0000:
STOP.M 216.0000:
STEP.M 0.1250:
NULL. -999.2500:
UWI. Z116:
~C
DEPT.M :
AC.US/MT :
CALI.CM :
DEN.GM/CC :
GR.API :
RI. :
RML.OHMM :
RXO.OHMM :
SP.MV :
~A
# ...
  123.0000   393.7370    22.9250     2.2990     4.5970    52.0230    64.2130    52.4610    -8.6730 
  123.1250   397.1250    22.9820     2.3050     4.8180    58.9990    59.4010    41.2540    -8.9430 
  123.2500   399.2930    22.8340     2.3110     4.9230    63.0450    61.4490    61.9110    -9.2130 
  123.3750   397.2530    22.9590     2.3170     4.8300    72.6820    69.9050    59.2890    -9.4550 
  123.5000   394.0330    23.0830     2.3120     4.7400    81.0710    75.9540    56.5090    -9.6360 
  123.6250   392.4660    23.2070     2.3010     4.6540    79.8230    81.4000    59.2870    -9.8170 
  123.7500   391.0500    23.3310     2.3010     4.5810    77.8630    88.2900    67.0230    -9.9670 
  123.8750   389.9930    23.4690     2.3070     4.6050    75.8390    95.3220    74.2960   -10.0950 
  124.0000   391.4240    23.6150     2.3170     4.6320    73.6820    93.1570    83.1440   -10.2220 
  124.1250   400.0460    23.7160     2.3240     4.5050    79.1590    89.2180    76.3440   -10.3500 
  124.2500   408.3450    23.4330     2.3240     4.3290    90.1640    96.0830    74.2150   -10.4780 
  124.3750   432.6420    23.0060     2.3130     4.4990    91.9400   102.1010    78.5300   -10.5250 
  124.5000   480.6830    22.8770     2.3070     4.6540    89.5310   106.8430    92.9960   -10.5660 
  124.6250   465.9280    22.9000     2.3070     4.8610    87.4720   110.9630   101.2040   -10.4990 
  124.7500   442.4480    23.0050     2.3100     4.9470    86.9280   109.5780    77.1260   -10.3340 
  124.8750   487.4990    23.1260     2.3140     4.8380    87.8870   107.7020    80.8930   -10.1550 
  125.0000   570.4100    23.2820     2.3180     4.7270    89.3540   106.0230    79.2220    -9.9570 
  125.1250   547.9770    22.8130     2.3250     4.5540    91.4060   107.4200    73.2700    -9.7880 
  125.2500   433.8880    22.4990     2.3360     4.7070    98.3040   111.5100    83.0890    -9.7440 
  125.3750   456.4030    22.4970     2.3470     4.8310   109.0160   114.8100    83.1340    -9.7000 
  125.5000   501.7210    22.5900     2.3480     4.3440   118.1260   118.6050    99.2400    -9.7630 
  125.6250   547.6150    22.6830     2.3250     4.3690   122.4650   123.0270   105.1840    -9.8340 
  125.7500   665.4600    22.7750     2.3060     4.4250   118.5410   143.4150   114.3670    -9.9100 
  125.8750   559.3700    22.8680     2.3040     4.4810   113.2890   150.6490   109.2530    -9.9870 
  126.0000   531.6350    22.9610     2.3210     4.2100   106.5440   153.7250   115.6060    -9.9470 
  126.1250   495.2350    23.0610     2.3380     4.0450    81.8330   143.5150    88.5720    -9.8960 
  126.2500   482.4680    23.1870     2.3410     4.1470    83.6800    90.3140    85.2730    -9.6620 
  126.3750   610.5480    23.2650     2.2900     4.4140    85.5260    91.5360    91.0880    -9.4280 
  126.5000   608.4830    23.2880     2.2620     4.6120    73.1510    92.9950    94.1120    -9.1990 
  126.6250   672.8570    23.3320     2.2490     4.7160    81.8840    94.4400    62.5390    -8.9870 
  126.7500   725.1850    23.1190     2.2460     4.7900    88.6410    86.7740    71.6880    -8.7760 
  126.8750   505.2670    22.6290     2.2430     4.6020    93.2490    90.6300    86.7410    -8.7200 
  127.0000   553.7540    22.2340     2.2310     4.6010    90.8930    95.1130   103.0680    -8.7360 
  127.1250   602.2410    22.0980     2.2140     4.7750    85.7720    99.8860   119.3950    -8.7520 
  127.2500   621.7480    22.0560     2.1920     4.9830    83.0950   104.5760   133.2040    -8.7680 
  127.3750   561.9870    22.0320     2.1760     4.9120   105.7270   110.3430    82.2560    -8.7840 
  127.5000   563.7270    22.0320     2.1670     4.7580   101.3560    99.0090    96.7440    -8.8000 
  127.6250   582.6360    22.0320     2.1680     4.5980    94.8510   103.2020   113.7680    -8.6340 
  127.7500   568.5750    22.0820     2.1920     4.4900   103.3130   115.5520    86.5050    -8.2170 
  127.8750   522.1840    22.1390     2.2240     4.3890   108.5480   117.3470    78.8270    -7.7980 
  128.0000   518.9440    22.1950     2.2520     4.5720   116.4630   107.4430    95.2430    -7.3680 
  128.1250   563.1480    22.2520     2.2750     4.7290   102.3610   103.4680   109.7450    -6.9390 
  128.2500   773.8820    22.1960     2.2900     4.9210    89.8130   109.3880   126.1790    -6.5090 
  128.3750   765.2030    21.9020     2.3070     5.0820    67.8870   115.8050   144.3990    -6.0760 
  128.5000   749.7240    21.8620     2.3330     5.2320    45.9610   120.9120   113.7900    -5.6210 
  128.6250   514.4630    21.8380     2.3650     5.3770    24.0350    58.0630    62.1550    -5.1670 
  128.7500   457.7470    21.9190     2.3990     5.5350     8.6500     9.5840    56.9990    -4.7130 
  128.8750   419.9730    22.0160     2.4310     5.6860     5.7280     7.2290    60.3640    -4.2420 
  129.0000   410.1320    22.1140     2.4440     5.8300     4.0420     5.6620    62.9930    -3.6470 
  129.1250   511.9210    22.2110     2.4130     5.7600     4.4850     6.0890    16.1030    -3.0510 
  129.2500   552.3380    22.3190     2.3760     5.5660     5.2710     6.5550    16.0440    -2.5190 
  129.3750   575.3980    22.4300     2.3580     5.2590     6.0590     7.0210    18.3200    -2.0890 
  129.5000   564.9340    22.5420     2.3720     5.6710     6.6380     7.8730    22.1780    -1.6590 
  129.6250   374.3830    22.6540     2.3850     5.9390     7.1750     9.0110    25.7740    -1.2370 
  129.7500   405.4480    22.7650     2.3970     6.0190     7.6150    10.1490    19.2960    -0.8150 
  129.8750   450.7450    22.8570     2.4100     6.1090     8.0570    11.0590    15.1860    -0.6290 
  130.0000   579.1940    22.8930     2.4230     6.2050     8.5020    10.4910    15.0620    -0.8140 
  130.1250   585.6260    22.6860     2.4350     5.9650     7.0860     9.5200     6.6320    -0.9990 
  130.2500   574.6870    22.2910     2.4450     5.7360     6.7410     9.8260     7.3130    -1.3050 
  130.3750   563.1560    22.1610     2.4530     5.8540     7.0570    10.1320     8.2070    -1.6140 
  130.5000   605.6760    22.0950     2.4430     5.9220     7.3500    10.4460     9.0030    -1.8050 
  130.6250   604.4630    22.0950     2.4050     5.6500     7.6430    10.7970     8.7050    -1.8330 
  130.7500   547.6280    22.1250     2.3710     5.4290     7.2420    11.1470     7.2360    -1.7140 
  130.8750   554.1650    22.2040     2.3500     5.5640     6.3270    11.4970     6.3470    -1.5170 
  131.0000   489.9470    22.2830     2.3500     5.6680     5.8830    11.2450     6.7060    -1.3050 
  131.1250   517.6770    22.3620     2.3620     5.7580     5.8560     9.5270     7.2440    -1.0720 
  131.2500   546.5960    22.4550     2.3800     5.8110     6.0860     8.5910     7.6380    -0.8390 
  131.3750   547.1000    22.3740     2.4060     5.6040     6.6110     7.9360     4.5410    -0.6060 
  131.5000   524.6600    22.0130     2.4300     5.0970     7.1820     8.3280     4.6430    -0.3730 
  131.6250   526.2310    21.8850     2.4390     4.9610     7.7530     8.8250     5.7990    -0.2760 
  131.7500   407.1150    21.8480     2.4270     5.0560     8.3240     9.3380     7.3890    -0.2260 
  131.8750   412.2310    21.8480     2.4130     5.3340     8.6580     9.8930     7.0950    -0.1770 
  132.0000   419.4570    21.9260     2.3990     5.4950     8.2770    10.2090     5.2710    -0.1280 
  132.1250   428.2540    22.0100     2.4130     5.6140     7.3300     9.8880     6.7170    -0.1980 
  132.2500   374.5410    22.1110     2.4320     5.7440     6.3610     9.0930     7.7220    -0.3660 
  132.3750   374.3450    22.2260     2.4500     5.8880     6.6050     9.1500     5.4010    -0.6040 
  132.5000   348.8730    22.3410     2.4690     6.0510     6.8950     9.9580     6.3340    -0.8070 
  132.6250   329.4720    22.4560     2.4650     6.0840     7.5330    10.5920     8.0910    -0.9470 
  132.7500   343.9230    22.4660     2.4320     5.7540     7.8360    10.9280    10.0160    -1.0270 
  132.8750   433.8810    22.1400     2.4030     5.8730     6.5960    10.1510    11.7120    -0.9820 
