~V
VERS. 2.00: Ver 2.00
~W
STRT.M 33.0000:
STOP.M 216.0000:
STEP.M 0.1250:
NULL. -999.2500:
UWI. Z116:
~C
DEPT.M :
AC.US/MT :
CALI.CM :
DEN.GM/CC :
GR.API :
RI. :
RML.OHMM :
RXO.OHMM :
SP.MV :
~A
# ...
   93.0000     0.0000     0.0000     0.0000     0.0000     0.0000     0.0000     0.0000     0.0000 
   93.1250     0.0000     0.0000     0.0000     0.0000     0.0000     0.0000     0.0000     0.0000 
   93.2500     0.0000     0.0000     0.0000     0.0000     0.0000     0.0000     0.0000     0.0000 
   93.3750     0.0000     0.0000     0.0000     0.0000     0.0000     0.0000     0.0000     0.0000 
   93.5000     0.0000     0.0000     0.0000     0.0000     0.0000     0.0000     0.0000     0.0000 
   93.6250     0.0000     0.0000     0.0000     0.0000     0.0000     0.0000     0.0000     0.0000 
   93.7500     0.0000     0.0000     0.0000     0.0000     0.0000     0.0000     0.0000     0.0000 
   93.8750     0.0000     0.0000     0.0000     0.0000     0.0000     0.0000     0.0000     0.0000 
   94.0000     0.0000     0.0000     0.0000     0.0000     0.0000     0.0000     0.0000     0.0000 
   94.1250     0.0000     0.0000     0.0000     0.0000     0.0000     0.0000     0.0000     0.0000 
   94.2500     0.0000     0.0000     0.0000     0.0000     0.0000     0.0000     0.0000     0.0000 
   94.3750     0.0000     0.0000     0.0000     0.0000     0.0000     0.0000     0.0000     0.0000 
   94.5000     0.0000     0.0000     0.0000     0.0000     0.0000     0.0000     0.0000     0.0000 
   94.6250     0.0000     0.0000     0.0000     0.0000     0.0000     0.0000     0.0000     0.0000 
   94.7500     0.0000     0.0000     0.0000     0.0000     0.0000     0.0000     0.0000     0.0000 
   94.8750     0.0000     0.0000     0.0000     0.0000     0.0000     0.0000     0.0000     0.0000 
   95.0000   456.2080    21.7220     2.2940     6.0460     6.1920     6.5120     5.0750    -1.9620 
   95.1250   459.3480    21.7470     2.2810     6.0850     6.3820     6.3850     5.5980    -2.2500 
   95.2500   462.4880    21.7650     2.2670     6.1280     6.3350     6.2580     3.9950    -2.5000 
   95.3750   462.6560    21.7830     2.2620     5.7690     6.1710     6.1140     3.4310    -2.7060 
   95.5000   461.2110    21.8000     2.2680     5.8200     5.8580     5.9210     3.5720    -2.9110 
   95.6250   462.0760    21.8010     2.2740     5.8860     5.7300     5.7290     3.8190    -1.9620 
   95.7500   464.7360    21.8010     2.2780     5.9560     5.6310     5.5360     4.1330    -2.2500 
   95.8750   469.0550    21.8020     2.2750     5.9530     5.5770     5.6320     4.3230    -2.5000 
   96.0000   475.2940    21.8020     2.2700     6.0430     5.5760     5.9150     4.4390    -2.7060 
   96.1250   481.6410    21.8030     2.2630     6.1950     5.6080     6.2100     4.4620    -2.9110 
   96.2500   461.7130    21.8030     2.2550     6.0270     5.7050     6.5160     4.5420    -3.0980 
   96.3750   461.9840    21.7820     2.2470     6.0960     5.9060     6.5460     4.6820    -3.0980 
   96.5000   462.0700    21.7540     2.2600     6.1660     6.2540     6.5440     4.8330    -3.0600 
   96.6250   461.7660    21.7540     2.2800     6.2390     7.0010     6.5420     5.6380    -2.9410 
   96.7500   456.1030    21.7830     2.2980     6.3100     8.1360     6.5400     6.5110    -2.8220 
   96.8750   443.3790    21.8200     2.3100     6.3570     9.5690     6.6720     7.2500    -2.6990 
   97.0000   369.7300    21.8570     2.3180     6.1620    11.2370     7.5460     7.2690    -2.5760 
   97.1250   380.5000    21.8940     2.2920     5.5640    12.2720     9.6930     7.7980    -2.4790 
   97.2500   397.5720    21.8960     2.2470     5.4540    10.7720    12.3080     8.1780    -2.4000 
   97.3750   434.7810    21.8750     2.2240     5.4130     9.4240     9.4720     7.8790    -2.3690 
   97.5000   463.4540    21.8550     2.2090     5.4770    11.4100    11.8800     8.9660    -2.4140 
   97.6250   459.8870    21.8340     2.1980     5.5510    13.8200    14.3600    11.6070    -2.5070 
   97.7500   456.9790    21.8140     2.1870     5.6280    16.3790    16.9200    14.9150    -2.6090 
   97.8750   460.2260    21.8100     2.1760     5.7120    17.6200    17.8870    15.7650    -2.6990 
   98.0000   471.0330    21.8770     2.1730     5.7950    18.6460    19.2920    16.8400    -2.6350 
   98.1250   482.5150    21.9440     2.1730     5.4140    19.8730    24.2560    21.6730    -2.5710 
   98.2500   479.9840    22.0110     2.1730     5.4830    22.3630    30.9460    28.3390    -2.5070 
   98.3750   463.1960    22.1000     2.1730     5.5520    34.9210    36.9840    34.1100    -2.4250 
   98.5000   465.6720    22.1910     2.1740     5.6160    33.4520    36.6470    29.9950    -2.2800 
   98.6250   471.9700    22.2420     2.1760     5.2900    33.0760    35.2650    29.5580    -2.1350 
   98.7500   478.7240    22.2670     2.1780     5.3890    34.8200    37.0800    31.2370    -2.0050 
   98.8750   485.0640    22.2600     2.1830     5.4880    33.6710    39.2840    33.1800    -1.8900 
   99.0000   491.3010    22.2180     2.1930     5.6140    18.4520    23.8710    25.2030    -1.7750 
   99.1250   490.1790    22.2190     2.1730     5.6690    20.9840    22.1490    27.5530    -1.7280 
   99.2500   486.0210    22.2320     2.1620     5.8090    24.5530    24.7910    30.4280    -1.6870 
   99.3750   484.9890    22.2550     2.1720     6.1800    23.7480    28.0970    37.2110    -1.7460 
   99.5000   488.8160    22.2910     2.1910     6.1380    19.9590    28.4930    24.2730    -1.9000 
   99.6250   495.3810    22.3510     2.2150     6.1910    13.9830    14.8710    26.3580    -2.4340 
   99.7500   501.9460    22.4100     2.2430     6.2990     8.7260    10.2440    18.4140    -2.6520 
   99.8750   498.0590    22.4560     2.3320     6.1310     6.2350     8.0100     5.7790    -2.7730 
  100.0000   421.4360    22.4990     2.3790     6.2270     4.7900     6.5940     5.0080    -2.8940 
  100.1250   418.5140    22.5250     2.4120     6.4930     5.5190     7.1170     5.7500    -3.0160 
  100.2500   413.8580    22.4920     2.4410     6.7230     6.2490     7.6400     6.4950    -3.0730 
  100.3750   395.9360    22.4080     2.4590     6.8470     6.8990     8.2790     6.4680    -2.9750 
  100.5000   382.9270    22.3260     2.4360     6.6730     7.3690     8.9590     5.2390    -2.8770 
  100.6250   393.5390    22.3520     2.4120     6.6130     7.3820     9.6390     5.8400    -2.7790 
  100.7500   412.5340    22.3830     2.3980     6.6910     8.0740    10.0320     7.2950    -2.7000 
  100.8750   443.4080    22.4510     2.3870     6.7790     7.6240     9.7310     6.3180    -2.6260 
  101.0000   455.4510    22.5200     2.4050     6.6260     6.1560     8.4380     5.4150    -2.5520 
  101.1250   454.4900    22.5750     2.4260     5.7990     7.0150     7.3380     5.0270    -2.4790 
  101.2500   402.8340    22.6280     2.4530     5.8660     8.6870     9.2540     5.2250    -2.4240 
  101.3750   357.2190    22.6310     2.4800     6.0460    10.4360    11.3880     8.1750    -2.3750 
  101.5000   339.4740    22.4160     2.5040     6.2440    12.1960    13.9450    13.6880    -2.3270 
  101.6250   351.5130    22.3500     2.5250     6.3610    10.5910    15.4610    17.4780    -2.3330 
  101.7500   389.5450    22.3300     2.4670     6.4660     5.6260     6.8920    11.9330    -2.3780 
  101.8750   447.0820    22.3310     2.3840     6.6850     4.9880     7.1050     4.8790    -2.5840 
  102.0000   472.1460    22.3310     2.3480     6.8490     5.9830     7.9170     4.7960    -2.8110 
  102.1250   472.9050    22.3320     2.3280     6.6380     7.2930     8.7370     6.0270    -3.0550 
  102.2500   447.1570    22.3370     2.3200     6.1520     8.6220     9.5040     7.1500    -3.3160 
  102.3750   455.8530    22.3550     2.3410     6.1420     8.6160     8.0160     7.8780    -3.5700 
  102.5000   465.2430    22.3730     2.3650     6.3100     6.7120     8.0320     6.4010    -3.7690 
  102.6250   475.1610    22.4000     2.3910     6.4930     6.5250    14.4820     7.3970    -3.9690 
  102.7500   333.7740    22.4420     2.4200     6.4610    16.3750    20.6990    18.4240    -4.1250 
  102.8750   296.0090    22.4850     2.4530     5.8930    20.8720    24.0250    29.1480    -4.2100 
