~V
VERS. 2.00: Ver 2.00
~W
STRT.M 33.0000:
STOP.M 216.0000:
STEP.M 0.1250:
NULL. -999.2500:
UWI. Z116:
~C
DEPT.M :
AC.US/MT :
CALI.CM :
DEN.GM/CC :
GR.API :
RI. :
RML.OHMM :
RXO.OHMM :
SP.MV :
~A
# ...
  103.0000   289.7700    22.5170     2.4850     5.0270    18.1220    22.2730    41.5370    -4.2960 
  103.1250   297.6850    22.4800     2.5140     5.0270    15.7440    20.6160    45.7970    -4.3680 
  103.2500   308.5160    22.3340     2.5390     5.0350    21.4690    19.5980    15.6140    -4.4260 
  103.3750   300.3820    22.3100     2.5610     5.0520    33.6210    38.4660    31.8010    -4.4830 
  103.5000   297.4380    22.2870     2.4910     5.0730    32.7510    37.7540    30.2920    -4.4390 
  103.6250   301.6760    22.2870     2.4980     5.0870    31.6240    36.9790    32.0600    -4.3870 
  103.7500   305.9130    22.2880     2.5050     4.5960    30.4900    37.5280    30.9280    -4.3340 
  103.8750   291.4010    22.3160     2.5050     4.6560    34.2970    44.0930    29.7160    -4.2810 
  104.0000   281.3100    22.3800     2.5010     4.7470    41.2000    49.2920    32.2120    -4.2290 
  104.1250   287.9030    22.4430     2.5000     4.8460    41.1480    48.4070    38.8680    -4.1550 
  104.2500   300.2480    22.5070     2.5070     4.9850    43.6520    46.7070    34.5330    -4.0320 
  104.3750   312.5920    22.5690     2.5180     4.5150    46.8350    49.3670    34.5180    -3.9090 
  104.5000   305.5910    22.6300     2.5270     4.5650    46.2070    52.9870    43.7920    -3.7930 
  104.6250   284.1330    22.6910     2.5310     4.6340    47.2630    52.4510    39.9150    -3.7440 
  104.7500   279.0300    22.7520     2.5300     4.7210    52.1340    56.0630    40.0550    -3.6960 
  104.8750   319.5800    22.8080     2.5340     4.3990    55.8100    60.3680    45.7100    -3.6600 
  105.0000   354.7500    22.8470     2.5420     4.2980    50.3480    52.3920    50.3090    -3.9680 
  105.1250   394.3780    22.8870     2.5490     4.2380    49.2960    51.5130    40.9570    -4.3930 
  105.2500   383.5850    22.9270     2.5530     4.1950    51.3660    50.9350    45.9190    -4.8010 
  105.3750   295.6570    22.9670     2.5570     4.1540    46.8400    50.3570    54.1980    -5.0930 
  105.5000   313.0620    22.9770     2.5570     4.1320    41.7990    47.9200    62.4890    -5.1490 
  105.6250   330.4670    22.8200     2.5580     4.1450    47.1930    48.8060    30.1690    -5.1820 
  105.7500   352.1130    22.6630     2.5760     4.2610    54.0110    55.0650    31.3600    -5.1820 
  105.8750   375.6140    22.5070     2.6000     4.4330    58.3930    61.2880    38.4930    -5.1820 
  106.0000   343.0820    22.4530     2.5920     4.6020    62.8560    69.6070    52.3890    -5.0920 
  106.1250   250.6310    22.4050     2.5740     4.7360    68.7730    77.6550    65.7540    -4.9870 
  106.2500   232.9730    22.4470     2.5550     4.7260    73.2430    84.9910    72.2650    -4.8820 
  106.3750   264.0240    22.5030     2.5380     4.5370    45.5910    87.3240    79.9520    -4.7760 
  106.5000   350.8070    22.5610     2.5230     4.2740    45.7410    62.6280    84.3470    -4.6710 
  106.6250   381.6430    22.6290     2.5100     4.3760    48.6430    54.4190    82.3100    -4.5850 
  106.7500   395.2800    22.6970     2.5070     4.5020    52.1240    51.0980    76.8180    -4.5630 
  106.8750   340.0940    22.6630     2.5060     4.6190    52.1900    53.7980    32.0000    -4.5410 
  107.0000   354.4500    22.5560     2.5060     4.5100    49.5100    57.1560    48.3290    -4.6750 
  107.1250   320.8640    22.4490     2.5080     4.4550    46.4680    58.8800    47.2020    -4.7790 
  107.2500   352.7200    22.4300     2.5170     4.6220    50.1470    51.4290    48.8270    -4.8570 
  107.3750   388.6490    22.4110     2.5330     4.7750    55.8620    56.6040    46.4850    -4.9550 
  107.5000   404.7190    22.4550     2.5520     4.9290    53.7800    66.9740    41.7890    -5.0670 
  107.6250   255.1650    22.5390     2.5780     4.9360    53.4210    64.6680    49.1350    -5.1960 
  107.7500   243.3130    22.6220     2.5990     4.6710    68.2840    63.3250    62.4780    -5.3280 
  107.8750   243.2950    22.7120     2.6070     4.7620    74.8940    73.1850    60.6880    -5.4390 
  108.0000   292.8470    22.8070     2.5920     4.8630    70.5170    88.0740    64.7220    -5.5350 
  108.1250   274.8470    22.9020     2.5740     4.5390    53.4430    93.8860    78.5790    -5.6290 
  108.2500   264.4690    23.0010     2.5540     4.6130    58.2780    88.4590    70.5700    -5.6430 
  108.3750   291.0510    23.1060     2.5380     4.6930    61.1680    69.0870    46.4690    -5.6570 
  108.5000   323.0880    23.2120     2.5290     4.7730    50.2150    74.3980    51.6440    -5.6710 
  108.6250   355.5800    23.3070     2.5300     4.8570    45.8130    79.2220    56.3270    -5.6660 
  108.7500   332.2340    23.3670     2.5340     4.7090    46.9050    56.1940    41.7350    -5.6400 
  108.8750   306.3300    23.0230     2.5340     4.4400    48.1870    52.9960    44.2820    -5.5250 
  109.0000   334.3100    22.7000     2.5250     4.3390    47.9460    51.9240    47.6760    -5.3400 
  109.1250   380.3370    22.5060     2.5160     4.2140    45.8480    50.8510    43.2980    -5.0380 
  109.2500   342.7880    22.4890     2.5090     4.1660    43.7320    49.7790    44.4360    -4.7310 
  109.3750   344.9830    22.4720     2.5020     4.1240    41.9660    48.8050    45.5990    -4.5010 
  109.5000   363.9730    22.4880     2.5210     4.1770    49.4340    49.5480    33.5270    -4.3360 
  109.6250   352.8620    22.5460     2.5540     4.2950    49.8790    55.3840    33.9350    -4.1710 
  109.7500   329.6750    22.6040     2.5790     4.4190    47.0840    56.3140    38.7860    -4.0050 
  109.8750   363.8800    22.6610     2.6030     4.1360    46.0700    54.7120    43.2570    -4.0330 
  110.0000   399.8580    22.6820     2.6250     4.2440    58.3650    58.5210    46.2110    -4.3930 
  110.1250   274.4560    22.7000     2.6240     4.3650    73.6130    81.6800    36.6390    -4.7070 
  110.2500   250.9890    22.7140     2.6130     4.4980    68.0780    93.1290    63.0830    -4.9640 
  110.3750   338.3600    22.6090     2.6090     4.6070    51.9230    50.7170    72.9890    -5.1100 
  110.5000   365.6980    22.5010     2.6010     4.6530    42.0500    53.2910    82.7770    -5.1540 
  110.6250   383.2590    22.3620     2.5880     4.7220    45.9310    55.7740    36.1160    -5.1550 
  110.7500   264.0650    22.2810     2.5590     4.8000    49.1880    58.5950    42.3030    -5.0400 
  110.8750   283.3670    22.2290     2.5350     4.8800    50.1870    61.9570    45.5720    -4.9240 
  111.0000   351.5950    22.2170     2.5190     4.7910    40.0450    46.8220    50.3860    -4.7640 
  111.1250   426.3930    22.2170     2.5270     4.5760    40.0450    44.5990    31.5720    -4.5850 
  111.2500   387.5840    22.2460     2.5450     4.2180    37.0010    43.5030    33.5300    -4.4020 
  111.3750   297.5130    22.3290     2.5650     3.9350    35.4050    40.8770    28.3780    -4.2100 
  111.5000   292.4820    22.4120     2.5890     3.8400    33.1150    37.3440    29.7590    -3.9800 
  111.6250   268.7510    22.4940     2.6180     3.8670    30.5470    34.9470    26.7290    -3.7800 
  111.7500   237.6570    22.5750     2.6520     3.9780    32.3880    37.0850    28.3590    -3.5940 
  111.8750   224.3420    22.6540     2.6780     4.0810    36.0050    41.5900    33.4830    -3.4840 
  112.0000   215.9750    22.7320     2.7010     4.1920    39.5300    46.9250    40.1070    -3.3740 
  112.1250   215.1660    22.8030     2.7200     4.3040    26.9800    51.6430    29.7240    -3.3060 
  112.2500   221.0540    22.8170     2.7320     4.4250    26.7860    33.3460    25.1460    -3.2450 
  112.3750   228.4860    22.4120     2.7170     4.4820    27.4980    31.3010    26.4620    -3.2360 
  112.5000   238.5560    22.2240     2.6990     4.1270    27.9110    32.1490    28.4160    -3.2920 
  112.6250   250.7490    22.1190     2.6790     4.0560    25.5880    32.9970    30.4460    -3.3480 
  112.7500   246.3450    22.1110     2.6600     4.1960    22.6200    32.6330    28.7170    -3.4040 
  112.8750   240.5230    22.1030     2.6580     4.3050    20.0600    27.9720    22.6680    -3.5890 
