~V
VERS. 2.00: Ver 2.00
~W
STRT.M 33.0000:
STOP.M 216.0000:
STEP.M 0.1250:
NULL. -999.2500:
UWI. Z116:
~C
DEPT.M :
AC.US/MT :
CALI.CM :
DEN.GM/CC :
GR.API :
RI. :
RML.OHMM :
RXO.OHMM :
SP.MV :
~A
# ...
  133.0000   519.5950    21.9310     2.3780     6.0230     5.6260     8.8570    11.7080    -0.7430 
  133.1250   537.1990    21.7410     2.3630     5.2650     4.9940     7.7270     7.9240    -0.5510 
  133.2500   519.5400    21.6630     2.3670     5.3760     4.4860     6.9730     4.6680    -0.3830 
  133.3750   370.5440    21.6300     2.3840     5.4600     4.2400     6.5680     3.7630    -0.2650 
  133.5000   416.1920    21.6040     2.3980     5.3070     4.4120     6.5070     3.8540    -0.1710 
  133.6250   460.6560    21.6280     2.4100     5.3520     5.0680     7.1910     4.4370    -0.2050 
  133.7500   508.3820    21.6570     2.4190     5.5830     6.0110     8.1340     5.0040    -0.3670 
  133.8750   554.4460    21.7840     2.4260     5.7500     5.0680     9.0860     5.6840    -0.5800 
  134.0000   556.1260    21.9100     2.4310     5.6350     6.0110    11.6490     6.3240    -0.8690 
  134.1250   485.0220    22.0560     2.4370     5.4890     6.9530    10.9820     6.6570    -1.2030 
  134.2500   334.9440    22.1540     2.4430     5.5000     7.8060    10.8000     6.7690    -1.3400 
  134.3750   320.5380    21.7720     2.4510     5.6700     8.1370    11.1750     6.8790    -1.3930 
  134.5000   311.9720    21.5280     2.4600     5.8320     7.5740    10.2150     7.9500    -1.4460 
  134.6250   308.5210    21.4060     2.4690     5.9270     6.8670     9.1530     9.4560    -1.5000 
  134.7500   377.4020    21.4060     2.4570     5.7190     6.7020     8.6760     7.2040    -1.5500 
  134.8750   411.0540    21.4210     2.4340     5.6990     6.7280     8.3770     6.2930    -1.5500 
  135.0000   386.2630    21.4890     2.3970     5.9350     6.7810     8.6810     7.1060    -1.5860 
  135.1250   355.5420    21.5570     2.3820     6.1380     6.4190     9.3630     7.6960    -1.6650 
  135.2500   350.4340    21.6820     2.3800     6.2650     6.0240    10.2740     6.8120    -1.7420 
  135.3750   375.6220    21.8090     2.3860     6.2290     5.7930    11.3840     5.2100    -1.7080 
  135.5000   389.0720    21.8240     2.3930     5.6800     6.5730    12.5160     6.0890    -1.5400 
  135.6250   365.1790    21.6350     2.4000     5.7160     7.6460    12.9700     8.2100    -1.3270 
  135.7500   363.3570    21.5620     2.4090     5.7610     7.6690    11.3950    10.8250    -1.1590 
  135.8750   368.6690    21.5620     2.4090     5.8480     7.2440    10.4980     6.9600    -1.0130 
  136.0000   360.3180    21.7020     2.4050     5.9700     7.4550    10.7930     6.0030    -0.8680 
  136.1250   339.9880    21.8600     2.4100     6.0630     7.7480    11.2000     6.5120    -0.7870 
  136.2500   344.5120    22.0260     2.4200     5.8200     8.2810    11.7200     5.9100    -0.8370 
  136.3750   353.3170    22.1960     2.4180     5.7560     8.8750    12.2540     6.5640    -1.0770 
  136.5000   362.6470    22.3300     2.4100     5.8680     9.3570    11.4460     7.9590    -1.2270 
  136.6250   346.8500    22.4360     2.4130     5.9060     9.6740    10.1900     8.7080    -1.3640 
  136.7500   330.9870    22.5220     2.4220     5.5710     8.8050     9.6990     7.8840    -1.5010 
  136.8750   323.2410    22.2350     2.4310     5.4750     6.8400    10.1290     7.7530    -1.6380 
  137.0000   332.2060    22.0200     2.4410     5.4490     6.4000    10.6370     8.5450    -1.6880 
  137.1250   339.8730    22.0320     2.4490     5.5030     6.9770    11.1870     8.3040    -1.6640 
  137.2500   346.3910    22.1730     2.4570     5.5900     7.6320    11.8560     6.0750    -1.5580 
  137.3750   346.8970    22.3130     2.4650     5.5530     8.2880    12.5240     6.1400    -1.3530 
  137.5000   344.7340    22.4540     2.4680     5.3950     8.9430    13.2480     6.9130    -1.1530 
  137.6250   341.8700    22.5940     2.4690     5.0560     9.5980    13.4060     7.8410    -1.0500 
  137.7500   337.1820    22.7350     2.4700     4.9370     9.9780    12.1370     9.0150    -0.9480 
  137.8750   331.7100    22.8140     2.4700     5.1150     9.1520    10.8810    10.3000    -0.9650 
  138.0000   325.7910    22.4190     2.4650     5.4290     8.3670    10.7120     9.2000    -1.0510 
  138.1250   323.2950    22.2600     2.4420     5.6730     7.9770    10.4410     7.8770    -1.1380 
  138.2500   333.6860    22.3040     2.4010     5.5900     7.5930    10.8530     6.9190    -1.2240 
  138.3750   344.1250    22.4260     2.3780     5.5860     8.0540    11.4630     8.6610    -1.3950 
  138.5000   353.8300    22.6680     2.3820     5.6630     8.8080    12.0720    10.7370    -1.6170 
  138.6250   422.1710    23.0080     2.3910     5.7500     8.8590    11.8000    13.1930    -1.8400 
  138.7500   451.3840    23.3490     2.4020     5.6970     8.0800    10.9160    10.4340    -2.0690 
  138.8750   458.9760    23.6890     2.4090     5.7360     7.2900     9.7330     7.6350    -2.3000 
  139.0000   438.9820    23.9980     2.3980     5.9890     6.5600     8.7990     5.5590    -2.5370 
  139.1250   415.8310    23.9460     2.3880     6.2370     6.4620     8.0620     5.7610    -2.8040 
  139.2500   395.8630    23.2230     2.3970     6.2730     6.3700     8.7110     9.9280    -3.0710 
  139.3750   421.7070    22.5700     2.4130     5.7760     7.1910     9.6370    15.5080    -3.2690 
  139.5000   503.5390    22.2210     2.4330     6.0920     8.2600    10.7950    12.8580    -3.4460 
  139.6250   534.4650    22.0260     2.4540     6.3540     9.3260    11.9530     8.0720    -3.5650 
  139.7500   639.4570    21.8830     2.4730     6.5990    14.9230    13.6090     6.1900    -3.6310 
  139.8750   613.1580    21.8570     2.4910     6.8500    16.3150    15.4240    12.3860    -3.6390 
  140.0000   506.5100    21.8330     2.5090     7.0860    17.4080    17.2860    18.6220    -3.4850 
  140.1250   388.9250    21.8650     2.5260     7.1060    18.0940    19.1660    22.1140    -3.3320 
  140.2500   377.6050    21.9020     2.5420     7.0150    18.6830    20.9470    28.1650    -3.0570 
  140.3750   379.1840    21.9410     2.5560     6.8710    19.0600    22.3190    36.5560    -2.7300 
  140.5000   395.5230    21.9870     2.5690     6.5120    19.2840    22.5450    39.6210    -2.4140 
  140.6250   396.5550    22.0320     2.5620     6.1760    18.8990    21.1470    15.1790    -2.1260 
  140.7500   354.4200    22.0680     2.5500     5.9830    16.5240    19.6330    16.5100    -1.8380 
  140.8750   257.0240    22.0870     2.5370     5.9960    13.8010    17.3830    18.2880    -1.5870 
  141.0000   267.0270    21.7820     2.5230     6.1010    12.0110    15.1590    11.6290    -1.3520 
  141.1250   275.6380    21.5250     2.5060     6.2120    10.2200    13.1260    15.0280    -1.1170 
  141.2500   281.8530    21.4330     2.4890     6.2100     8.7820    11.1850    19.7950    -0.9040 
  141.3750   284.6670    21.4330     2.4850     6.0160     8.3250     9.7400    23.5440    -0.6910 
  141.5000   287.0870    21.4930     2.4970     5.8990     8.9240     8.9800    11.8810    -0.7270 
  141.6250   289.4620    21.5790     2.5120     5.8360    10.4320     8.8400     8.1500    -0.9340 
  141.7500   293.1260    21.6650     2.5260     5.7720    11.9400     9.8170     9.8940    -1.3120 
  141.8750   299.2050    21.7590     2.5370     5.8470    10.4320    11.3780    10.3700    -1.6460 
  142.0000   309.4480    21.8850     2.5200     5.9290    11.9400    12.9390    11.5420    -1.9410 
  142.1250   337.0720    21.9800     2.4960     6.0230    13.4480    14.4930    14.3640    -2.1070 
  142.2500   379.8930    22.0460     2.4770     6.0750    14.7910    15.9050    17.3490    -2.2550 
  142.3750   431.4690    22.0780     2.4710     6.0120    12.3140    13.6920    16.5570    -2.2960 
  142.5000   697.0190    22.0930     2.4610     6.0430     9.9710    11.5810     7.5600    -2.3370 
  142.6250   749.3480    21.9990     2.4530     6.0740     7.8570     9.8100     8.4790    -2.3480 
  142.7500   583.4390    21.7730     2.4460     6.0670     7.3030     9.5230     9.2370    -2.3480 
  142.8750   599.5640    21.6160     2.4390     5.9400     7.7950    10.5850     8.9810    -2.3470 
