~V
VERS. 2.00: Ver 2.00
~W
STRT.M 33.0000:
STOP.M 216.0000:
STEP.M 0.1250:
NULL. -999.2500:
UWI. Z116:
~C
DEPT.M :
AC.US/MT :
CALI.CM :
DEN.GM/CC :
GR.API :
RI. :
RML.OHMM :
RXO.OHMM :
SP.MV :
~A
# ...
   63.0000     0.0000     0.0000     0.0000     0.0000     0.0000     0.0000     0.0000     0.0000 
   63.1250     0.0000     0.0000     0.0000     0.0000     0.0000     0.0000     0.0000     0.0000 
   63.2500     0.0000     0.0000     0.0000     0.0000     0.0000     0.0000     0.0000     0.0000 
   63.3750     0.0000     0.0000     0.0000     0.0000     0.0000     0.0000     0.0000     0.0000 
   63.5000     0.0000     0.0000     0.0000     0.0000     0.0000     0.0000     0.0000     0.0000 
   63.6250     0.0000     0.0000     0.0000     0.0000     0.0000     0.0000     0.0000     0.0000 
   63.7500     0.0000     0.0000     0.0000     0.0000     0.0000     0.0000     0.0000     0.0000 
   63.8750     0.0000     0.0000     0.0000     0.0000     0.0000     0.0000     0.0000     0.0000 
   64.0000     0.0000     0.0000     0.0000     0.0000     0.0000     0.0000     0.0000     0.0000 
   64.1250     0.0000     0.0000     0.0000     0.0000     0.0000     0.0000     0.0000     0.0000 
   64.2500     0.0000     0.0000     0.0000     0.0000     0.0000     0.0000     0.0000     0.0000 
   64.3750     0.0000     0.0000     0.0000     0.0000     0.0000     0.0000     0.0000     0.0000 
   64.5000     0.0000     0.0000     0.0000     0.0000     0.0000     0.0000     0.0000     0.0000 
   64.6250     0.0000     0.0000     0.0000     0.0000     0.0000     0.0000     0.0000     0.0000 
   64.7500     0.0000     0.0000     0.0000     0.0000     0.0000     0.0000     0.0000     0.0000 
   64.8750     0.0000     0.0000     0.0000     0.0000     0.0000     0.0000     0.0000     0.0000 
   65.0000     0.0000     0.0000     0.0000     0.0000     0.0000     0.0000     0.0000     0.0000 
   65.1250     0.0000     0.0000     0.0000     0.0000     0.0000     0.0000     0.0000     0.0000 
   65.2500     0.0000     0.0000     0.0000     0.0000     0.0000     0.0000     0.0000     0.0000 
   65.3750     0.0000     0.0000     0.0000     0.0000     0.0000     0.0000     0.0000     0.0000 
   65.5000     0.0000     0.0000     0.0000     0.0000     0.0000     0.0000     0.0000     0.0000 
   65.6250     0.0000     0.0000     0.0000     0.0000     0.0000     0.0000     0.0000     0.0000 
   65.7500     0.0000     0.0000     0.0000     0.0000     0.0000     0.0000     0.0000     0.0000 
   65.8750     0.0000     0.0000     0.0000     0.0000     0.0000     0.0000     0.0000     0.0000 
   66.0000     0.0000     0.0000     0.0000     0.0000     0.0000     0.0000     0.0000     0.0000 
   66.1250     0.0000     0.0000     0.0000     0.0000     0.0000     0.0000     0.0000     0.0000 
   66.2500     0.0000     0.0000     0.0000     0.0000     0.0000     0.0000     0.0000     0.0000 
   66.3750     0.0000     0.0000     0.0000     0.0000     0.0000     0.0000     0.0000     0.0000 
   66.5000     0.0000     0.0000     0.0000     0.0000     0.0000     0.0000     0.0000     0.0000 
   66.6250     0.0000     0.0000     0.0000     0.0000     0.0000     0.0000     0.0000     0.0000 
   66.7500     0.0000     0.0000     0.0000     0.0000     0.0000     0.0000     0.0000     0.0000 
   66.8750     0.0000     0.0000     0.0000     0.0000     0.0000     0.0000     0.0000     0.0000 
   67.0000     0.0000     0.0000     0.0000     0.0000     0.0000     0.0000     0.0000     0.0000 
   67.1250     0.0000     0.0000     0.0000     0.0000     0.0000     0.0000     0.0000     0.0000 
   67.2500     0.0000     0.0000     0.0000     0.0000     0.0000     0.0000     0.0000     0.0000 
   67.3750     0.0000     0.0000     0.0000     0.0000     0.0000     0.0000     0.0000     0.0000 
   67.5000     0.0000     0.0000     0.0000     0.0000     0.0000     0.0000     0.0000     0.0000 
   67.6250     0.0000     0.0000     0.0000     0.0000     0.0000     0.0000     0.0000     0.0000 
   67.7500     0.0000     0.0000     0.0000     0.0000     0.0000     0.0000     0.0000     0.0000 
   67.8750     0.0000     0.0000     0.0000     0.0000     0.0000     0.0000     0.0000     0.0000 
   68.0000     0.0000     0.0000     0.0000     0.0000     0.0000     0.0000     0.0000     0.0000 
   68.1250     0.0000     0.0000     0.0000     0.0000     0.0000     0.0000     0.0000     0.0000 
   68.2500     0.0000     0.0000     0.0000     0.0000     0.0000     0.0000     0.0000     0.0000 
   68.3750     0.0000     0.0000     0.0000     0.0000     0.0000     0.0000     0.0000     0.0000 
   68.5000     0.0000     0.0000     0.0000     0.0000     0.0000     0.0000     0.0000     0.0000 
   68.6250     0.0000     0.0000     0.0000     0.0000     0.0000     0.0000     0.0000     0.0000 
   68.7500     0.0000     0.0000     0.0000     0.0000     0.0000     0.0000     0.0000     0.0000 
   68.8750     0.0000     0.0000     0.0000     0.0000     0.0000     0.0000     0.0000     0.0000 
   69.0000     0.0000     0.0000     0.0000     0.0000     0.0000     0.0000     0.0000     0.0000 
   69.1250     0.0000     0.0000     0.0000     0.0000     0.0000     0.0000     0.0000     0.0000 
   69.2500     0.0000     0.0000     0.0000     0.0000     0.0000     0.0000     0.0000     0.0000 
   69.3750     0.0000     0.0000     0.0000     0.0000     0.0000     0.0000     0.0000     0.0000 
   69.5000     0.0000     0.0000     0.0000     0.0000     0.0000     0.0000     0.0000     0.0000 
   69.6250     0.0000     0.0000     0.0000     0.0000     0.0000     0.0000     0.0000     0.0000 
   69.7500     0.0000     0.0000     0.0000     0.0000     0.0000     0.0000     0.0000     0.0000 
   69.8750     0.0000     0.0000     0.0000     0.0000     0.0000     0.0000     0.0000     0.0000 
   70.0000     0.0000     0.0000     0.0000     0.0000     0.0000     0.0000     0.0000     0.0000 
   70.1250     0.0000     0.0000     0.0000     0.0000     0.0000     0.0000     0.0000     0.0000 
   70.2500     0.0000     0.0000     0.0000     0.0000     0.0000     0.0000     0.0000     0.0000 
   70.3750     0.0000     0.0000     0.0000     0.0000     0.0000     0.0000     0.0000     0.0000 
   70.5000     0.0000     0.0000     0.0000     0.0000     0.0000     0.0000     0.0000     0.0000 
   70.6250     0.0000     0.0000     0.0000     0.0000     0.0000     0.0000     0.0000     0.0000 
   70.7500     0.0000     0.0000     0.0000     0.0000     0.0000     0.0000     0.0000     0.0000 
   70.8750     0.0000     0.0000     0.0000     0.0000     0.0000     0.0000     0.0000     0.0000 
   71.0000     0.0000     0.0000     0.0000     0.0000     0.0000     0.0000     0.0000     0.0000 
   71.1250     0.0000     0.0000     0.0000     0.0000     0.0000     0.0000     0.0000     0.0000 
   71.2500     0.0000     0.0000     0.0000     0.0000     0.0000     0.0000     0.0000     0.0000 
   71.3750     0.0000     0.0000     0.0000     0.0000     0.0000     0.0000     0.0000     0.0000 
   71.5000     0.0000     0.0000     0.0000     0.0000     0.0000     0.0000     0.0000     0.0000 
   71.6250     0.0000     0.0000     0.0000     0.0000     0.0000     0.0000     0.0000     0.0000 
   71.7500     0.0000     0.0000     0.0000     0.0000     0.0000     0.0000     0.0000     0.0000 
   71.8750     0.0000     0.0000     0.0000     0.0000     0.0000     0.0000     0.0000     0.0000 
   72.0000     0.0000     0.0000     0.0000     0.0000     0.0000     0.0000     0.0000     0.0000 
   72.1250     0.0000     0.0000     0.0000     0.0000     0.0000     0.0000     0.0000     0.0000 
   72.2500     0.0000     0.0000     0.0000     0.0000     0.0000     0.0000     0.0000     0.0000 
   72.3750     0.0000     0.0000     0.0000     0.0000     0.0000     0.0000     0.0000     0.0000 
   72.5000     0.0000     0.0000     0.0000     0.0000     0.0000     0.0000     0.0000     0.0000 
   72.6250     0.0000     0.0000     0.0000     0.0000     0.0000     0.0000     0.0000     0.0000 
   72.7500     0.0000     0.0000     0.0000     0.0000     0.0000     0.0000     0.0000     0.0000 
   72.8750     0.0000     0.0000     0.0000     0.0000     0.0000     0.0000     0.0000     0.0000 
