~V
VERS. 2.00: Ver 2.00
~W
STRT.M 33.0000:
STOP.M 216.0000:
STEP.M 0.1250:
NULL. -999.2500:
UWI. Z116:
~C
DEPT.M :
AC.US/MT :
CALI.CM :
DEN.GM/CC :
GR.API :
RI. :
RML.OHMM :
RXO.OHMM :
SP.MV :
~A
   33.0000     0.0000     0.0000     0.0000     0.0000     0.0000     0.0000     0.0000     0.0000 
   33.1250     0.0000     0.0000     0.0000     0.0000     0.0000     0.0000     0.0000     0.0000 
   33.2500     0.0000     0.0000     0.0000     0.0000     0.0000     0.0000     0.0000     0.0000 
   33.3750     0.0000     0.0000     0.0000     0.0000     0.0000     0.0000     0.0000     0.0000 
   33.5000     0.0000     0.0000     0.0000     0.0000     0.0000     0.0000     0.0000     0.0000 
   33.6250     0.0000     0.0000     0.0000     0.0000     0.0000     0.0000     0.0000     0.0000 
   33.7500     0.0000     0.0000     0.0000     0.0000     0.0000     0.0000     0.0000     0.0000 
   33.8750     0.0000     0.0000     0.0000     0.0000     0.0000     0.0000     0.0000     0.0000 
   34.0000     0.0000     0.0000     0.0000     0.0000     0.0000     0.0000     0.0000     0.0000 
   34.1250     0.0000     0.0000     0.0000     0.0000     0.0000     0.0000     0.0000     0.0000 
   34.2500     0.0000     0.0000     0.0000     0.0000     0.0000     0.0000     0.0000     0.0000 
   34.3750     0.0000     0.0000     0.0000     0.0000     0.0000     0.0000     0.0000     0.0000 
   34.5000     0.0000     0.0000     0.0000     0.0000     0.0000     0.0000     0.0000     0.0000 
   34.6250     0.0000     0.0000     0.0000     0.0000     0.0000     0.0000     0.0000     0.0000 
   34.7500     0.0000     0.0000     0.0000     0.0000     0.0000     0.0000     0.0000     0.0000 
   34.8750     0.0000     0.0000     0.0000     0.0000     0.0000     0.0000     0.0000     0.0000 
   35.0000     0.0000     0.0000     0.0000     0.0000     0.0000     0.0000     0.0000     0.0000 
   35.1250     0.0000     0.0000     0.0000     0.0000     0.0000     0.0000     0.0000     0.0000 
   35.2500     0.0000     0.0000     0.0000     0.0000     0.0000     0.0000     0.0000     0.0000 
   35.3750     0.0000     0.0000     0.0000     0.0000     0.0000     0.0000     0.0000     0.0000 
   35.5000     0.0000     0.0000     0.0000     0.0000     0.0000     0.0000     0.0000     0.0000 
   35.6250     0.0000     0.0000     0.0000     0.0000     0.0000     0.0000     0.0000     0.0000 
   35.7500     0.0000     0.0000     0.0000     0.0000     0.0000     0.0000     0.0000     0.0000 
   35.8750     0.0000     0.0000     0.0000     0.0000     0.0000     0.0000     0.0000     0.0000 
   36.0000     0.0000     0.0000     0.0000     0.0000     0.0000     0.0000     0.0000     0.0000 
   36.1250     0.0000     0.0000     0.0000     0.0000     0.0000     0.0000     0.0000     0.0000 
   36.2500     0.0000     0.0000     0.0000     0.0000     0.0000     0.0000     0.0000     0.0000 
   36.3750     0.0000     0.0000     0.0000     0.0000     0.0000     0.0000     0.0000     0.0000 
   36.5000     0.0000     0.0000     0.0000     0.0000     0.0000     0.0000     0.0000     0.0000 
   36.6250     0.0000     0.0000     0.0000     0.0000     0.0000     0.0000     0.0000     0.0000 
   36.7500     0.0000     0.0000     0.0000     0.0000     0.0000     0.0000     0.0000     0.0000 
   36.8750     0.0000     0.0000     0.0000     0.0000     0.0000     0.0000     0.0000     0.0000 
   37.0000     0.0000     0.0000     0.0000     0.0000     0.0000     0.0000     0.0000     0.0000 
   37.1250     0.0000     0.0000     0.0000     0.0000     0.0000     0.0000     0.0000     0.0000 
   37.2500     0.0000     0.0000     0.0000     0.0000     0.0000     0.0000     0.0000     0.0000 
   37.3750     0.0000     0.0000     0.0000     0.0000     0.0000     0.0000     0.0000     0.0000 
   37.5000     0.0000     0.0000     0.0000     0.0000     0.0000     0.0000     0.0000     0.0000 
   37.6250     0.0000     0.0000     0.0000     0.0000     0.0000     0.0000     0.0000     0.0000 
   37.7500     0.0000     0.0000     0.0000     0.0000     0.0000     0.0000     0.0000     0.0000 
   37.8750     0.0000     0.0000     0.0000     0.0000     0.0000     0.0000     0.0000     0.0000 
   38.0000     0.0000     0.0000     0.0000     0.0000     0.0000     0.0000     0.0000     0.0000 
   38.1250     0.0000     0.0000     0.0000     0.0000     0.0000     0.0000     0.0000     0.0000 
   38.2500     0.0000     0.0000     0.0000     0.0000     0.0000     0.0000     0.0000     0.0000 
   38.3750     0.0000     0.0000     0.0000     0.0000     0.0000     0.0000     0.0000     0.0000 
   38.5000     0.0000     0.0000     0.0000     0.0000     0.0000     0.0000     0.0000     0.0000 
   38.6250     0.0000     0.0000     0.0000     0.0000     0.0000     0.0000     0.0000     0.0000 
   38.7500     0.0000     0.0000     0.0000     0.0000     0.0000     0.0000     0.0000     0.0000 
   38.8750     0.0000     0.0000     0.0000     0.0000     0.0000     0.0000     0.0000     0.0000 
   39.0000     0.0000     0.0000     0.0000     0.0000     0.0000     0.0000     0.0000     0.0000 
   39.1250     0.0000     0.0000     0.0000     0.0000     0.0000     0.0000     0.0000     0.0000 
   39.2500     0.0000     0.0000     0.0000     0.0000     0.0000     0.0000     0.0000     0.0000 
   39.3750     0.0000     0.0000     0.0000     0.0000     0.0000     0.0000     0.0000     0.0000 
   39.5000     0.0000     0.0000     0.0000     0.0000     0.0000     0.0000     0.0000     0.0000 
   39.6250     0.0000     0.0000     0.0000     0.0000     0.0000     0.0000     0.0000     0.0000 
   39.7500     0.0000     0.0000     0.0000     0.0000     0.0000     0.0000     0.0000     0.0000 
   39.8750     0.0000     0.0000     0.0000     0.0000     0.0000     0.0000     0.0000     0.0000 
   40.0000     0.0000     0.0000     0.0000     0.0000     0.0000     0.0000     0.0000     0.0000 
   40.1250     0.0000     0.0000     0.0000     0.0000     0.0000     0.0000     0.0000     0.0000 
   40.2500     0.0000     0.0000     0.0000     0.0000     0.0000     0.0000     0.0000     0.0000 
   40.3750     0.0000     0.0000     0.0000     0.0000     0.0000     0.0000     0.0000     0.0000 
   40.5000     0.0000     0.0000     0.0000     0.0000     0.0000     0.0000     0.0000     0.0000 
   40.6250     0.0000     0.0000     0.0000     0.0000     0.0000     0.0000     0.0000     0.0000 
   40.7500     0.0000     0.0000     0.0000     0.0000     0.0000     0.0000     0.0000     0.0000 
   40.8750     0.0000     0.0000     0.0000     0.0000     0.0000     0.0000     0.0000     0.0000 
   41.0000     0.0000     0.0000     0.0000     0.0000     0.0000     0.0000     0.0000     0.0000 
   41.1250     0.0000     0.0000     0.0000     0.0000     0.0000     0.0000     0.0000     0.0000 
   41.2500     0.0000     0.0000     0.0000     0.0000     0.0000     0.0000     0.0000     0.0000 
   41.3750     0.0000     0.0000     0.0000     0.0000     0.0000     0.0000     0.0000     0.0000 
   41.5000     0.0000     0.0000     0.0000     0.0000     0.0000     0.0000     0.0000     0.0000 
   41.6250     0.0000     0.0000     0.0000     0.0000     0.0000     0.0000     0.0000     0.0000 
   41.7500     0.0000     0.0000     0.0000     0.0000     0.0000     0.0000     0.0000     0.0000 
   41.8750     0.0000     0.0000     0.0000     0.0000     0.0000     0.0000     0.0000     0.0000 
   42.0000     0.0000     0.0000     0.0000     0.0000     0.0000     0.0000     0.0000     0.0000 
   42.1250     0.0000     0.0000     0.0000     0.0000     0.0000     0.0000     0.0000     0.0000 
   42.2500     0.0000     0.0000     0.0000     0.0000     0.0000     0.0000     0.0000     0.0000 
   42.3750     0.0000     0.0000     0.0000     0.0000     0.0000     0.0000     0.0000     0.0000 
   42.5000     0.0000     0.0000     0.0000     0.0000     0.0000     0.0000     0.0000     0.0000 
   42.6250     0.0000     0.0000     0.0000     0.0000     0.0000     0.0000     0.0000     0.0000 
   42.7500     0.0000     0.0000     0.0000     0.0000     0.0000     0.0000     0.0000     0.0000 
   42.8750     0.0000     0.0000     0.0000     0.0000     0.0000     0.0000     0.0000     0.0000 
