~V
VERS. 2.00: Ver 2.00
~W
STRT.M 33.0000:
STOP.M 216.0000:
STEP.M 0.1250:
NULL. -999.2500:
UWI. Z116:
~C
DEPT.M :
AC.US/MT :
CALI.CM :
DEN.GM/CC :
GR.API :
RI. :
RML.OHMM :
RXO.OHMM :
SP.MV :
~A
# ...
  113.0000   250.7390    22.0950     2.6670     3.8560    17.9820    25.0170    20.7540    -3.8020 
  113.1250   262.5060    22.0870     2.6760     3.6610    16.5540    22.6190    23.1450    -4.1100 
  113.2500   263.2750    22.0790     2.6860     3.8370    19.3750    23.8730    30.8790    -4.1840 
  113.3750   251.2470    22.1120     2.6740     4.1250    21.4670    25.1270    39.6580    -4.0330 
  113.5000   240.1950    22.1810     2.6540     4.3070    23.9260    26.3820    20.3830    -3.7480 
  113.6250   230.1930    22.2500     2.6380     4.4820    24.3460    29.5130    28.3840    -3.4710 
  113.7500   234.9770    22.3180     2.6340     4.6510    21.7230    29.4780    27.9120    -3.2110 
  113.8750   288.3050    22.3870     2.6370     4.8020    18.7050    24.0120    21.1160    -2.9950 
  114.0000   277.5940    22.4560     2.6410     4.9400    18.6120    26.0460    18.1090    -2.9150 
  114.1250   267.4320    22.5250     2.6450     4.9460    20.6180    27.8140    19.7120    -2.8360 
  114.2500   255.9650    22.5620     2.6500     4.9570    22.1950    29.5820    22.0710    -2.7560 
  114.3750   246.0480    22.3820     2.6450     4.6500    23.3850    30.5510    23.5670    -2.6770 
  114.5000   262.6930    22.1230     2.6240     4.5180    23.2610    27.4110    26.2800    -2.6940 
  114.6250   283.7090    22.0450     2.5900     4.4590    21.4920    24.5750    24.5680    -2.7690 
  114.7500   303.4660    21.9860     2.5470     4.5680    19.7910    21.5450    18.6400    -3.1390 
  114.8750   305.9530    22.0230     2.5150     4.7660    18.6850    19.9290    18.8250    -3.5430 
  115.0000   302.8010    22.0610     2.5050     4.9480    17.4300    19.2660    17.5800    -3.9750 
  115.1250   302.2790    22.1280     2.5070     5.0220    16.5890    19.1720    16.2660    -4.2550 
  115.2500   302.5310    22.2340     2.5170     4.8730    16.0500    19.1580    16.3810    -4.5250 
  115.3750   304.6180    22.3390     2.5270     4.5860    15.6820    19.7190    14.2440    -4.6760 
  115.5000   306.2910    22.4160     2.5390     4.3720    16.0760    20.8740    15.1110    -4.6200 
  115.6250   305.6690    22.4690     2.5390     4.0790    17.2300    22.0650    16.9990    -4.4780 
  115.7500   304.4970    22.4880     2.5430     3.9140    18.4160    23.8920    19.5160    -4.2780 
  115.8750   300.8230    22.4890     2.5490     3.9490    19.7390    25.7190    23.1750    -4.0780 
  116.0000   291.9370    22.2600     2.5560     4.1170    21.0610    27.5470    22.5220    -3.9030 
  116.1250   269.5760    21.8190     2.5630     4.3050    20.8200    26.4970    26.0140    -3.7660 
  116.2500   259.1930    21.6170     2.5590     4.5230    17.1340    20.8290    27.3290    -3.6300 
  116.3750   248.9320    21.5330     2.5460     4.7210    13.0690    16.0670    16.0070    -3.5480 
  116.5000   272.5280    21.5330     2.5340     4.6070    10.5620    13.6900    11.7530    -3.5220 
  116.6250   333.5190    21.5340     2.5220     4.4790    11.2350    13.8340    10.1460    -3.5460 
  116.7500   327.4620    21.6190     2.5170     4.3720    11.9080    15.4390     9.5460    -3.6070 
  116.8750   320.2080    21.7100     2.5210     4.3110    12.7790    17.0430    10.8550    -3.7240 
  117.0000   311.6320    21.8000     2.5280     4.3540    14.2920    18.6470    13.0880    -3.8420 
  117.1250   302.9140    21.8720     2.5350     4.3850    15.8080    20.3700    16.4330    -3.8580 
  117.2500   292.9820    21.9300     2.5430     4.2460    17.3790    22.9180    17.3930    -3.8580 
  117.3750   292.2330    21.9720     2.5490     4.1360    15.8270    18.7120    15.3420    -3.7590 
  117.5000   299.9910    21.7780     2.5550     4.0810    12.2600    15.4020    13.1760    -3.5470 
  117.6250   308.0770    21.4570     2.5590     4.2930     9.8970    13.7760    11.9030    -3.3310 
  117.7500   309.8890    21.2720     2.5590     4.4360    10.8720    15.0530    11.8330    -3.1120 
  117.8750   303.4050    21.1900     2.5580     4.3140    11.8790    16.3390    12.6540    -2.9020 
  118.0000   296.7690    21.2170     2.5580     4.1690    12.8210    17.6250    13.8100    -2.7600 
  118.1250   292.1880    21.2680     2.5520     4.2670    13.7630    18.7550    15.1010    -2.6210 
  118.2500   288.7240    21.3900     2.5420     4.4630    14.6250    18.9420    15.1080    -2.5650 
  118.3750   287.5510    21.4970     2.5240     4.7020    13.3770    17.5440    14.0930    -2.5420 
  118.5000   286.2370    21.5370     2.5110     4.6840    11.8810    16.3020    13.1980    -2.6080 
  118.6250   292.3180    21.4950     2.4980     4.6260    10.9000    15.3390    12.4430    -2.6750 
  118.7500   309.1190    21.2970     2.4710     4.6180    10.3470    14.5380    12.0670    -2.8170 
  118.8750   318.8640    21.0880     2.4570     4.8120    10.0010    13.9900    11.3930    -2.9600 
  119.0000   327.6920    20.8870     2.4570     4.9620     9.6490    13.5360     9.9100    -3.0170 
  119.1250   333.6410    20.8650     2.4630     5.0550     9.3620    13.1440     8.4750    -3.0680 
  119.2500   329.6560    20.8430     2.4700     5.0510     9.2570    12.8520     7.6810    -3.0210 
  119.3750   324.0690    20.8930     2.4740     5.0720     9.6410    13.1710     9.0250    -2.9740 
  119.5000   319.2030    20.9610     2.4580     5.1360    10.7380    14.4580    10.8370    -2.7940 
  119.6250   314.3370    21.0550     2.4440     5.2040    12.0040    16.4260    13.2550    -2.6020 
  119.7500   307.6910    21.1680     2.4310     5.2760    14.0510    19.8310    18.3480    -2.4410 
  119.8750   302.4170    21.2780     2.4240     5.3570    19.0870    25.1910    23.9770    -2.3380 
  120.0000   300.3590    21.0310     2.4210     5.4660    25.1440    29.6330    28.5070    -2.2900 
  120.1250   308.5260    20.8580     2.4300     5.5120    24.3010    32.9240    31.1870    -2.3180 
  120.2500   317.8310    20.7950     2.4400     5.3360    14.7230    32.2830    27.7040    -2.4820 
  120.3750   328.8260    20.7930     2.4500     4.9120    10.7800    25.4680    21.3750    -2.7190 
  120.5000   334.3270    20.9090     2.4600     4.9400    11.5540    19.2180    13.2750    -2.9310 
  120.6250   327.0750    21.0820     2.4710     4.9800    12.8360    15.6370    13.1280    -3.1240 
  120.7500   319.2490    21.2410     2.4800     4.9200    14.3590    17.5310    16.1090    -3.3160 
  120.8750   311.7330    21.0490     2.4900     4.8870    16.5400    20.0140    16.1110    -3.6020 
  121.0000   303.4890    20.7360     2.5010     5.0440    18.9910    23.7130    18.9840    -3.8870 
  121.1250   294.9300    20.8150     2.5080     5.1850    21.2450    23.7040    24.9890    -4.1720 
  121.2500   288.5850    20.9540     2.5030     5.3100    19.4000    21.1240    26.4020    -4.4580 
  121.3750   286.4030    21.0930     2.4740     5.3640    17.0350    22.1880    16.7360    -4.8360 
  121.5000   291.7250    21.2320     2.4390     5.1410    19.4440    24.7210    21.1240    -5.2160 
  121.6250   301.8710    21.3710     2.4000     4.8900    18.9510    23.8100    21.2330    -5.5380 
  121.7500   315.2830    21.5090     2.3620     4.6720    24.7340    25.5090    18.0640    -5.8820 
  121.8750   353.0320    21.7310     2.3250     4.5780    36.9820    37.4310    29.5020    -6.1900 
  122.0000   394.3830    22.1400     2.3070     4.6830    42.1240    45.4740    40.0000    -6.4990 
  122.1250   401.3020    22.0890     2.3140     4.8110    45.9640    51.1250    43.4770    -6.8070 
  122.2500   407.1520    21.9850     2.3240     4.6120    49.6470    57.7850    45.7550    -7.0880 
  122.3750   405.1380    22.0270     2.3360     4.5230    53.0040    62.2040    49.4200    -7.3520 
  122.5000   401.3470    22.0970     2.3440     4.5270    55.6790    65.8520    51.8680    -7.6150 
  122.6250   397.2170    22.2870     2.3110     4.5580    58.7640    68.5430    48.8520    -7.8760 
  122.7500   393.2420    22.4760     2.2920     4.5140    57.9850    71.1380    50.7310    -8.1390 
  122.8750   389.9130    22.6970     2.2920     4.4230    55.3910    70.5490    53.7820    -8.4060 
