~V
VERS. 2.00: Ver 2.00
~W
STRT.M 33.0000:
STOP.M 216.0000:
STEP.M 0.1250:
NULL. -999.2500:
UWI. Z116:
~C
DEPT.M :
AC.US/MT :
CALI.CM :
DEN.GM/CC :
GR.API :
RI. :
RML.OHMM :
RXO.OHMM :
SP.MV :
~A
# ...
  143.0000   135.7690    21.5180     2.4360     5.7590     8.6900    11.6470     7.6970    -2.1350 
  143.1250   145.7220    21.4730     2.4500     5.5560     9.5790    12.6520     8.8490    -1.9240 
  143.2500   162.1600    21.4360     2.4660     5.3570    10.4330    13.6180    10.4790    -1.7010 
  143.3750   223.4970    21.4180     2.4820     5.4230    10.9290    13.9260    12.4520    -1.4620 
  143.5000   285.4530    21.4000     2.4980     5.5040    11.1670    14.1990    13.7350    -1.2230 
  143.6250   699.3810    21.3920     2.5130     5.5840    11.3720    14.4800     8.6630    -1.1620 
  143.7500   748.4420    21.3930     2.5170     5.5670    11.5720    14.9170     8.6360    -1.2520 
  143.8750   842.9730    21.3930     2.4950     5.4230    11.7720    13.1360     9.5920    -1.3410 
  144.0000   870.9690    21.4240     2.4610     5.3260    10.7930    12.6620     9.5960    -1.4310 
  144.1250   614.7580    21.4620     2.4330     5.5200     9.8620    12.6620    10.5800    -1.6390 
  144.2500   581.9640    21.5100     2.4130     5.8420    10.7790    13.6670    13.8090    -1.9000 
  144.3750   565.5730    21.6480     2.4000     6.1620    11.8460    14.7050    16.2170    -2.0810 
  144.5000   572.6490    21.7870     2.4050     6.2110    10.3770    12.4500    13.0690    -2.2090 
  144.6250   646.1280    21.9010     2.4140     6.1360     7.4240     9.0210     8.8200    -2.2510 
  144.7500   650.7860    21.9970     2.4210     6.0170     5.5910     6.6010     5.9720    -2.2510 
  144.8750   387.9320    21.9060     2.4210     5.9040     4.8150     6.4350     5.1570    -2.1550 
  145.0000   421.4930    21.7400     2.4140     5.8350     4.6950     6.9560     5.5180    -2.0270 
  145.1250   463.2040    21.6270     2.4080     5.9970     5.0120     7.6650     7.5240    -1.7910 
  145.2500   345.7660    21.5230     2.4120     6.2120     5.6720     8.2860    13.8700    -1.5310 
  145.3750   354.7140    21.4180     2.4240     6.4070     6.3320     8.8400    16.2680    -1.3570 
  145.5000   363.6630    21.3140     2.4360     6.4810     6.9910     9.3950    11.9210    -1.2150 
  145.6250   372.7810    21.2580     2.4490     6.3030     7.6510     9.9500    10.5020    -1.1360 
  145.7500   382.3040    21.2100     2.4620     6.1300     7.7860    10.0180    10.4140    -1.0370 
  145.8750   329.7690    21.2160     2.4620     5.9930     7.7560    10.0800     6.8820    -0.8330 
  146.0000   341.8900    21.2370     2.4460     5.9720     7.0440     9.1310     8.2320    -0.6790 
  146.1250   354.0110    21.3240     2.4330     5.8820     6.1380     8.3510     9.7620    -0.5500 
  146.2500   366.1310    21.5220     2.4260     5.7270     6.2110     8.6610     9.0680    -0.4790 
  146.3750   378.2880    21.7190     2.4320     5.9160     6.6290     9.4050     9.7030    -0.4240 
  146.5000   393.9750    21.9270     2.4410     6.1690     7.1750     9.9090    13.2760    -0.4240 
  146.6250   379.7230    22.1380     2.4500     6.0430     7.5900     9.9620    18.2120    -0.4280 
  146.7500   314.3870    22.3600     2.4590     5.7830     7.5550     8.4980    12.3120    -0.4590 
  146.8750   340.7800    22.5960     2.4610     5.4210     6.8250     7.4540     7.5050    -0.5450 
  147.0000   430.2860    22.7560     2.4510     5.5910     6.0350     7.4250     6.1840    -0.6830 
  147.1250   435.2570    22.4100     2.4420     5.8310     5.9850     8.1690     6.8380    -0.8370 
  147.2500   316.8970    21.9920     2.4330     6.1180     6.4410     8.9410     7.6490    -0.9740 
  147.3750   321.8480    21.8000     2.4170     6.3670     6.8800     9.2980     8.4380    -1.0180 
  147.5000   326.8000    21.7100     2.4050     6.4280     7.1330     9.5210     7.6600    -0.8940 
  147.6250   329.4670    21.7110     2.3950     6.2600     7.1700     9.5220     6.0040    -0.7680 
  147.7500   314.5790    21.7920     2.3870     6.0650     7.0940     9.4310     6.3380    -0.6770 
  147.8750   300.0710    21.9930     2.3830     6.0730     6.8820     9.3190     6.9790    -0.5870 
  148.0000   303.2110    22.1230     2.3860     6.2500     6.6690     9.1380     7.8640    -0.7870 
  148.1250   306.3520    22.0440     2.3940     6.3970     6.6010     8.5730     5.9750    -1.0310 
  148.2500   302.9020    21.6930     2.4030     6.2170     6.6000     8.2590     6.6070    -1.1850 
  148.3750   296.0810    21.4710     2.4160     5.6470     6.5990     8.0860     7.8420    -1.2820 
  148.5000   293.9750    21.3500     2.4300     5.4120     6.5100     8.5140     9.3120    -1.3070 
  148.6250   310.4900    21.3260     2.4420     5.4950     6.2660     8.6460     7.8800    -1.0660 
  148.7500   327.0040    21.3650     2.4340     5.6080     6.1390     8.5270     5.1360    -0.8250 
  148.8750   343.5170    21.5010     2.4250     5.7880     6.0110     8.4080     5.5110    -0.5870 
  149.0000   360.0210    21.6460     2.4190     5.5900     6.0870     8.0210     6.1850    -0.3510 
  149.1250   376.5240    21.8470     2.4090     5.4930     6.2130     7.6310     7.1590    -0.2290 
  149.2500   358.3410    22.0520     2.3980     5.7020     6.1950     7.9900     8.2170    -0.1580 
  149.3750   332.2060    22.2630     2.3890     5.9190     5.9680     8.3980     8.4550    -0.1300 
  149.5000   334.8230    22.4740     2.3820     5.9920     5.7540     8.5740     5.2250    -0.1300 
  149.6250   352.9780    22.6790     2.3790     5.8880     5.6060     7.7970     5.0830    -0.2960 
  149.7500   372.4970    22.7430     2.3710     5.9010     5.4710     7.2120     5.7620    -0.5500 
  149.8750   383.7830    22.8060     2.3620     6.1210     5.4700     6.8530     6.5160    -0.8930 
  150.0000   374.8150    22.8700     2.3550     6.3210     5.4700     6.9570     7.2650    -1.0920 
  150.1250   367.8840    22.8810     2.3520     6.2760     5.4690     7.2360     5.4520    -0.8420 
  150.2500   363.0650    22.8300     2.3530     6.1830     5.1380     7.1240     4.6160    -0.4670 
  150.3750   371.5040    22.6050     2.3580     6.0760     4.5220     6.6920     5.4130    -0.4270 
  150.5000   385.8700    22.3810     2.3630     6.0210     4.0110     5.8790     6.2050    -0.4270 
  150.6250   400.8880    22.2620     2.3680     5.9100     3.7390     5.7540     4.2480    -0.6270 
  150.7500   415.9060    22.2280     2.3720     5.8410     3.7380     6.0020     3.3100    -0.9350 
  150.8750   430.4440    22.2280     2.3680     5.8520     3.9110     6.3090     4.1210    -1.2430 
  151.0000   416.1800    22.3110     2.3560     5.8850     4.1990     6.8110     4.9270    -1.3640 
  151.1250   379.1040    22.4160     2.3430     5.9260     4.5120     7.0780     5.6860    -1.0400 
  151.2500   357.9720    22.5240     2.3430     5.8550     4.9860     7.0380     5.6950    -0.7160 
  151.3750   354.7910    22.6360     2.3500     5.6110     5.3500     6.8770     4.7690    -0.4090 
  151.5000   362.3280    22.7480     2.3590     5.4900     4.9520     6.4140     3.7600    -0.1460 
  151.6250   370.1060    22.8210     2.3680     5.5770     4.3820     5.8760     4.5760    -0.0090 
  151.7500   377.8830    22.6670     2.3740     5.7190     3.9560     5.9950     5.3860    -0.0550 
  151.8750   376.6920    22.3540     2.3620     5.8460     3.8630     6.5580     6.0700    -0.3160 
  152.0000   369.1990    22.1960     2.3140     5.6670     4.3260     7.0640     6.2810    -0.6550 
  152.1250   365.5590    22.0840     2.2960     5.5920     4.7540     7.0620     5.0410    -0.9940 
  152.2500   373.9900    22.0130     2.3010     5.6530     4.8810     6.0670     4.2750    -1.2570 
  152.3750   386.6700    21.9760     2.3100     5.6640     4.2140     5.2350     4.0760    -1.4360 
  152.5000   399.3510    21.9400     2.3200     5.2150     3.4670     4.7560     3.9280    -1.4660 
  152.6250   412.0310    21.9460     2.3310     5.1770     3.0920     4.6850     3.7260    -1.3760 
  152.7500   423.5760    21.9640     2.3380     5.2660     3.0490     4.7000     3.5390    -1.2850 
  152.8750   426.9990    21.9810     2.3360     5.3980     3.0590     4.7460     3.5890    -1.0480 
