~V
VERS. 2.00: Ver 2.00
~W
STRT.M 33.0000:
STOP.M 216.0000:
STEP.M 0.1250:
NULL. -999.2500:
UWI. Z116:
~C
DEPT.M :
AC.US/MT :
CALI.CM :
DEN.GM/CC :
GR.API :
RI. :
RML.OHMM :
RXO.OHMM :
SP.MV :
~A
# ...
  153.0000   426.6480    21.9980     2.3320     5.4400     3.4220     5.0200     3.8700    -0.7790 
  153.1250   419.0690    22.0150     2.3390     4.9770     3.7850     5.4140     4.3390    -0.5050 
  153.2500   411.1630    22.0320     2.3470     5.2990     3.8980     5.6850     4.7370    -0.2150 
  153.3750   403.2570    22.0980     2.3550     5.8010     3.9830     5.7690     5.0510     0.0750 
  153.5000   395.3510    22.1820     2.3560     5.6490     4.0680     5.8520     5.4520     0.3030 
  153.6250   387.4440    22.2670     2.3470     5.5170     4.1530     5.9350     5.3540     0.4180 
  153.7500   379.5380    22.3510     2.3400     5.7600     4.2380     6.0180     5.1750     0.5330 
  153.8750   382.0380    22.4360     2.3310     6.0660     4.3230     6.1010     5.4860     0.5790 
  154.0000   386.6270    22.3600     2.3270     6.0530     4.0330     6.1850     4.4150     0.6060 
  154.1250   390.0050    22.1910     2.3270     5.7640     3.7400     6.2680     3.7200     0.6320 
  154.2500   391.5840    22.0140     2.3320     5.5540     3.9040     6.2590     3.9010     0.6360 
  154.3750   387.4270    21.8800     2.3390     5.3220     4.1950     5.9240     4.1450     0.4050 
  154.5000   381.7500    21.7450     2.3420     5.4840     4.5760     5.5890     4.4140     0.1110 
  154.6250   376.0730    21.6270     2.3450     5.5650     4.6220     5.3730     4.4160    -0.1600 
  154.7500   370.3960    21.5100     2.3470     5.3700     4.5450     5.2600     4.4180    -0.3650 
  154.8750   377.4140    21.4240     2.3380     5.2310     4.4180     5.1480     4.0180    -0.5520 
  155.0000   384.8850    21.3900     2.3210     5.2970     4.1860     5.2880     4.0430    -0.7310 
  155.1250   388.1120    21.3550     2.3090     5.4700     3.9740     5.4810     3.5710    -0.9000 
  155.2500   387.4920    21.3270     2.3020     5.6080     3.8240     5.6740     4.1940    -1.0640 
  155.3750   383.5730    21.3050     2.2970     5.5900     3.6740     5.7460     4.9540    -1.2240 
  155.5000   394.7100    21.2840     2.2960     5.6910     3.5820     5.7800     6.0010    -1.3850 
  155.6250   411.3310    21.2630     2.3000     5.5840     3.5460     5.8050     7.1820    -1.5460 
  155.7500   425.8910    21.2430     2.3040     5.3940     3.5100     5.6360     8.3970    -1.5030 
  155.8750   438.1590    21.3450     2.3040     5.2250     3.4960     5.4670     3.3310    -1.4260 
  156.0000   423.0260    21.4670     2.3050     5.2530     3.4950     5.2560     3.5810    -1.3420 
  156.1250   384.9520    21.6380     2.3050     5.4810     3.4940     5.0230     3.8960    -1.2720 
  156.2500   384.3070    21.8240     2.3090     5.6700     3.4930     4.6730     4.3140    -1.2730 
  156.3750   389.3380    22.0060     2.3200     5.7030     3.5070     4.6190     4.6380    -1.3390 
  156.5000   394.3680    22.1190     2.3300     5.7880     3.6100     4.7010     3.7280    -1.4560 
  156.6250   399.3990    22.2320     2.3390     5.9020     3.9910     4.8320     3.0820    -1.7650 
  156.7500   403.0210    22.2890     2.3490     6.0240     4.4440     5.2300     3.7340    -2.0160 
  156.8750   405.4260    22.1270     2.3610     6.0190     4.9820     5.9100     4.7070    -2.2410 
  157.0000   390.5360    21.8550     2.3740     5.7590     5.5590     6.5900     5.7370    -2.5690 
  157.1250   371.7170    21.7040     2.3880     5.5360     6.1960     7.1750     6.5680    -2.8900 
  157.2500   351.7070    21.6310     2.4030     5.8090     6.7530     7.7210     7.0730    -3.1670 
  157.3750   338.9400    21.5570     2.3910     6.0070     7.1340     8.2670     7.2160    -3.4660 
  157.5000   329.6200    21.6080     2.3800     5.8380     7.3420     8.6620     7.8390    -3.7840 
  157.6250   333.8570    21.6740     2.3750     5.6460     7.4420     8.9690     6.6930    -4.1310 
  157.7500   338.0950    21.7400     2.3800     5.4720     7.3540     9.0720     6.3510    -4.4130 
  157.8750   342.2650    21.8070     2.3890     5.5340     6.8180     8.8290     7.3170    -4.6640 
  158.0000   346.3380    21.8770     2.3970     5.7570     6.2550     8.5740     8.4160    -4.8040 
  158.1250   350.4110    21.8410     2.4060     5.9590     5.9440     8.2930     7.3650    -4.9280 
  158.2500   353.9510    21.6010     2.3900     6.0550     5.7120     7.7560     6.1670    -5.0300 
  158.3750   354.9280    21.4770     2.3660     5.8840     5.6470     7.2430     5.5360    -5.0930 
  158.5000   356.3480    21.4780     2.3520     5.5560     5.5850     6.8640     4.8430    -5.1190 
  158.6250   362.9720    21.5360     2.3670     5.4570     5.5260     6.7590     5.2840    -5.0450 
  158.7500   368.7620    21.6490     2.3830     5.5760     5.5050     7.0530     6.2310    -4.9010 
  158.8750   374.3140    21.7610     2.4000     5.6970     5.5220     7.4580     7.1790    -4.7250 
  159.0000   379.8670    21.8670     2.3670     5.8180     5.6110     7.8860     8.2840    -4.4010 
  159.1250   377.2490    21.9720     2.3370     5.8970     5.7010     8.0140     6.9010    -4.0770 
  159.2500   373.2720    22.0860     2.3520     5.5490     5.8570     7.4700     5.3440    -3.7490 
  159.3750   369.2950    22.2050     2.3670     5.5940     6.0070     6.9740     4.5240    -3.4130 
  159.5000   365.3180    22.3180     2.3810     5.6810     6.0060     6.6330     3.9590    -3.0770 
  159.6250   365.2070    22.3670     2.3920     5.6880     5.5680     6.4380     3.8460    -2.7400 
  159.7500   371.1120    22.4160     2.3990     5.1930     5.0680     6.3740     4.0570    -2.5160 
  159.8750   378.0100    22.4740     2.3980     5.3060     4.9260     6.4570     4.5570    -2.3030 
  160.0000   378.0120    22.5180     2.3880     5.4070     5.1270     6.6800     5.1680    -2.2700 
  160.1250   369.8750    22.5180     2.3710     5.2290     5.4600     7.1900     5.8740    -2.7410 
  160.2500   361.5970    22.3930     2.3540     5.0910     5.7920     7.7990     6.6380    -3.3590 
  160.3750   355.5890    22.2580     2.3450     5.2180     6.1100     8.4090     7.4320    -3.8020 
  160.5000   352.4480    22.2110     2.3540     5.3360     6.4030     9.0180     7.4900    -3.8400 
  160.6250   353.0480    22.1650     2.3630     5.4550     6.6260     9.3350     6.2930    -3.6730 
  160.7500   353.6470    22.1180     2.3740     5.5740     6.6890     9.0640     6.2980    -3.4680 
  160.8750   351.2760    22.2180     2.3650     5.4100     6.3880     8.4930     7.2840    -3.2290 
  161.0000   345.3610    22.3190     2.3450     5.2150     6.2440     8.4310     8.1850    -2.9430 
  161.1250   341.9810    22.4200     2.3300     5.4270     6.1250     8.2050     9.0380    -2.7180 
  161.2500   345.9180    22.5210     2.3310     5.6590     5.5520     7.6370     7.8160    -2.8010 
  161.3750   361.2660    22.6220     2.3390     5.8540     4.9790     7.0680     5.7090    -3.5160 
  161.5000   376.6190    22.7230     2.3470     5.9380     4.4060     6.4020     4.5950    -4.2300 
  161.6250   386.9670    22.8240     2.3490     5.8990     4.1130     6.0600     4.5040    -4.8970 
  161.7500   381.0540    22.9120     2.3450     5.6730     4.3190     6.4320     4.9060    -5.5140 
  161.8750   376.3090    22.9850     2.3290     5.6870     4.7260     7.2690     5.3750    -5.8850 
  162.0000   368.0870    22.9490     2.3110     5.9160     5.4630     8.1050     5.8880    -6.2280 
  162.1250   359.3970    22.7620     2.2990     6.1050     6.1680     8.9200     6.3170    -6.5700 
  162.2500   350.6280    22.6170     2.3040     6.2510     6.6990     9.3790     7.1480    -6.9130 
  162.3750   341.7040    22.5380     2.3130     6.4660     7.1010     9.0030     8.0100    -7.1400 
  162.5000   343.7420    22.5050     2.3220     6.7720     6.9890     8.3670     8.8620    -7.2800 
  162.6250   356.4690    22.4800     2.3290     6.9680     6.5930     7.7910     7.5250    -7.4320 
  162.7500   373.5970    22.5840     2.3230     6.9570     6.4100     7.7890     6.7810    -7.5940 
  162.8750   394.3870    22.6970     2.3130     6.8580     6.3070     7.8990     6.9610    -7.7900 
