~V
VERS. 2.00: Ver 2.00
~W
STRT.M 10.0000:
STOP.M 249.0000:
STEP.M 0.1250:
NULL. -999.2500:
UWI. Z117:
~C
DEPT.M :
AC.US/MT :
CALI.CM :
GR.API :
RI. :
RML.OHMM :
RXO.OHMM :
SP.MV :
~A
# ...
  190.0000   418.4130    21.3700     4.2550   111.4230   127.9490    65.0800   -12.4010 
  190.1250   416.3470    21.2010     4.3240   112.8270   135.3320    57.9120   -12.2620 
  190.2500   414.4990    21.0780     4.3540   116.9680   139.8450    65.0280   -12.1050 
  190.3750   413.7720    21.0120     3.9210   120.3260   140.9860    67.1070   -11.9480 
  190.5000   416.8470    20.9560     4.0350   120.3540   140.8500    68.2910   -11.7910 
  190.6250   425.1170    21.1050     4.1860   118.9060   139.9980    64.7890   -11.6400 
  190.7500   430.7860    21.2550     4.3420   117.7150   139.2700    66.8280   -11.4890 
  190.8750   424.3300    21.4040     4.3190   118.6800   138.4030    68.4960   -11.3390 
  191.0000   417.8250    21.5130     4.1110   125.0850   136.7740    66.0330   -11.1890 
  191.1250   412.0900    21.5500     3.9920   132.2950   137.1270    64.0860   -11.0380 
  191.2500   408.4760    21.5870     4.1290   148.2180   144.7810    68.0970   -10.8880 
  191.3750   414.2530    21.5680     3.7250   154.0290   154.9210    74.8360   -10.7380 
  191.5000   422.2480    21.5350     3.8760   158.4170   166.3330    74.7120   -10.5930 
  191.6250   429.9710    21.5020     4.0440   156.2860   176.8170    73.6070   -10.4490 
  191.7500   419.9430    21.4620     4.2190   152.6330   183.6960    75.6500   -10.3050 
  191.8750   409.3950    21.4120     4.3960   146.4600   175.2590    77.1470   -10.1600 
  192.0000   400.9970    21.3620     4.4370   129.0220   158.4370    74.4760    -9.9960 
  192.1250   400.6060    21.3120     4.3570   118.9320   139.3880    57.0080    -9.8310 
  192.2500   409.0600    21.2630     4.2840   121.0300   133.2380    55.5440    -9.6670 
  192.3750   418.2670    21.2230     4.1770   123.6300   138.1250    59.4840    -9.5290 
  192.5000   419.3430    21.1830     4.1200   123.3760   143.0830    64.7670    -9.4120 
  192.6250   411.2070    21.1420     4.2590   110.8170   134.1690    68.4880    -9.2960 
  192.7500   405.6310    21.1000     4.4030   112.6770   128.5210    69.3200    -9.1790 
  192.8750   411.9510    21.0620     4.5490   115.2610   133.1590    63.8250    -9.0100 
  193.0000   420.7880    21.0470     4.5350   116.5040   132.5630    69.8510    -8.8320 
  193.1250   421.1710    21.0750     4.3340    97.2690   115.4150    77.7800    -8.6610 
  193.2500   421.0940    21.1950     4.1590    99.0280   105.4890    61.1200    -8.5270 
  193.3750   428.4510    21.2470     4.1100   115.3770   115.2980    58.2570    -8.3940 
  193.5000   436.3250    21.2760     4.0420   113.9690   129.9750    63.3750    -8.2750 
  193.6250   428.5430    21.3050     3.9830    70.5900   145.1190    71.4040    -8.1970 
  193.7500   418.5940    21.3340     4.0700    74.0450    93.0910    74.8930    -8.1180 
  193.8750   410.1690    21.3630     4.1990   111.4230    69.6200    55.7160    -8.0520 
  194.0000   406.6040    21.3920     4.3800   109.6360    80.8700    57.4320    -8.0660 
  194.1250   413.2210    21.4210     4.4190   107.7970   128.9490    59.5560    -8.1980 
  194.2500   421.4860    21.4500     4.2980   105.9570   126.1420    56.5200    -8.3520 
  194.3750   427.5690    21.4770     4.1690   116.1760   123.3760    66.1170    -8.5320 
  194.5000   417.0790    21.4880     4.1720   126.4380   135.1340    74.5760    -8.7250 
  194.6250   402.8510    21.4980     4.2890   125.7840   146.2690    71.4300    -8.9650 
  194.7500   387.8940    21.5090     4.4260    85.2740   149.1200    55.8210    -9.1850 
  194.8750   407.5290    21.5200     4.5350    87.6850   131.6350    99.5970    -9.2550 
  195.0000   424.8960    21.5300     4.5990   103.1880   114.1500   103.6880    -9.3250 
  195.1250   412.2570    21.5410     4.6230   113.1480   104.1270    74.6070    -9.2710 
  195.2500   391.3730    21.5510     4.5740   107.0410   118.7170    57.7910    -9.1980 
  195.3750   375.1550    21.5510     4.5020    88.3400   132.5870    66.3810    -8.8670 
  195.5000   410.0970    21.5360     4.4390    72.0290   111.0000    74.2040    -8.5200 
  195.6250   431.8290    21.5210     4.3880    55.7180    89.4130    74.3070    -8.1570 
  195.7500   427.7260    21.5060     4.3440    39.4070    67.8260    71.1090    -7.7780 
  195.8750   421.9780    21.4660     4.3940    23.1090    46.2400    74.6430    -7.4000 
  196.0000   420.2320    21.3470     4.6110    19.0190    28.4360    69.4400    -7.1600 
  196.1250   419.7600    21.2290     4.7940    16.9500    24.9310    49.3920    -6.9500 
  196.2500   416.1340    21.1100     4.8580    15.3360    22.4800    31.2420    -6.7920 
  196.3750   410.7570    21.0290     4.8230    14.0830    19.7650    67.0490    -6.6520 
  196.5000   412.4330    20.9240     4.8440    13.2950    17.1000    12.0310    -6.5260 
  196.6250   414.5700    20.8730     5.0140    14.3700    15.6420    14.1400    -6.4270 
  196.7500   413.8970    20.8120     5.1540    16.4130    18.2450    15.5810    -6.3280 
  196.8750   401.4200    20.8090     5.2400    19.0780    23.2290    12.7470    -6.2580 
  197.0000   398.8230    20.8060     5.1190    22.5820    24.9080    10.4590    -6.2230 
  197.1250   406.2210    20.8200     4.9560    20.3530    21.7780    20.2610    -6.1890 
  197.2500   412.1450    20.8700     4.8010    16.0680    19.0930    25.1500    -6.1880 
  197.3750   418.0680    20.9000     4.8750    15.9900    20.5850    21.7580    -6.1920 
  197.5000   419.0230    20.8980     5.0020    17.3010    22.5670    22.2750    -6.1960 
  197.6250   416.5590    20.9020     5.1460    18.5930    20.3700    15.8500    -6.2000 
  197.7500   415.2770    20.9160     5.1240    15.6760    17.4220    25.7470    -6.2040 
  197.8750   415.2450    20.9290     5.1070    14.6150    14.8800    21.6140    -6.2080 
  198.0000   418.3510    20.9380     5.1690    18.3190    21.4720    12.3160    -6.2680 
  198.1250   424.0470    20.9350     5.2390    21.7210    24.1790    14.1440    -6.3440 
  198.2500   429.1130    20.9320     5.3080    26.4150    31.2890    24.1810    -6.4240 
  198.3750   427.0810    20.9300     5.3190    34.4300    40.1730    22.3680    -6.5900 
  198.5000   418.8090    20.9270     5.2020    35.4220    43.4270    19.9360    -6.7550 
  198.6250   411.5260    20.9240     5.0630    32.7470    41.6440    43.7620    -6.9210 
  198.7500   408.1350    20.9210     4.9010    37.0950    39.7350    38.8910    -7.2100 
  198.8750   409.6510    20.9190     4.7050    46.8630    37.6350    30.8460    -7.5020 
  199.0000   414.2900    20.9000     4.4780    57.3620    55.5060    38.8730    -7.7610 
  199.1250   420.4470    20.8800     4.3710    64.2830    66.9790    47.1120    -7.9700 
  199.2500   426.4830    20.8600     4.4720    65.6340    74.0990    54.7700    -8.1790 
  199.3750   432.3010    20.8390     4.5750    61.3020    75.5890    59.2960    -8.3630 
  199.5000   437.0010    20.8190     4.3990    54.9840    69.8310    63.8750    -8.5200 
  199.6250   438.7490    20.7970     4.5010    44.4110    60.1660    61.0490    -8.6510 
  199.7500   438.3100    20.7600     4.6830    52.1050    53.3430    43.8100    -8.6990 
  199.8750   432.0720    20.7240     4.6300    57.4240    65.5170    40.2950    -8.7470 
  200.0000   423.6740    20.6890     4.4110    61.6980    72.3950    49.0470    -8.6360 
  200.1250   427.0780    20.6720     4.2290    58.2840    65.3630    57.0000    -8.5240 
  200.2500   432.2100    20.6550     4.2990    26.5100    48.9500    65.0040    -8.3910 
  200.3750   436.2510    20.6380     4.5560    20.7000    35.7970    62.2980    -8.2290 
  200.5000   430.9800    20.6200     4.7520    17.6100    30.7000    37.2180    -8.1040 
  200.6250   426.2230    20.6030     4.6270    15.6810    23.5550    35.8520    -8.0520 
  200.7500   430.0590    20.5860     4.5160    16.9150    18.0300    30.8570    -8.0330 
  200.8750   434.9000    20.5690     4.5750    18.4670    18.4760    19.6730    -8.0370 
  201.0000   438.1830    20.5520     4.6650    20.0190    20.7810    15.9560    -8.0760 
  201.1250   436.5060    20.5360     4.7760    21.9900    23.3330    21.3260    -8.1540 
