~V
VERS. 2.00: Ver 2.00
~W
STRT.M 10.0000:
STOP.M 249.0000:
STEP.M 0.1250:
NULL. -999.2500:
UWI. Z117:
~C
DEPT.M :
AC.US/MT :
CALI.CM :
GR.API :
RI. :
RML.OHMM :
RXO.OHMM :
SP.MV :
~A
# ...
  235.0000   429.9750    20.7990     4.4230   113.1100   131.1150    63.0140   -12.3290 
  235.1250   428.7740    20.7910     4.4910   110.3470   130.9230    60.3910   -12.5480 
  235.2500   427.6740    20.7890     4.2920   103.6660   124.4010    86.5960   -12.7720 
  235.3750   424.6780    20.7860     4.1470    95.9870   109.5730    97.8990   -12.9950 
  235.5000   418.8810    20.8000     4.4280    96.1920   113.9530    82.9560   -13.2170 
  235.6250   412.6830    20.8240     4.6380    99.3810   113.4330    62.5420   -13.4380 
  235.7500   406.6750    20.8290     4.8190    98.2820    80.3410    57.9590   -13.6580 
  235.8750   401.6190    20.8260     4.8880    72.5030    84.7200    69.8890   -13.7520 
  236.0000   398.0130    20.8230     4.6690    71.4110    92.5540    66.4140   -13.8470 
  236.1250   395.1700    20.8200     4.6600    81.2770   107.3500    54.9080   -13.9100 
  236.2500   392.4550    20.8180     4.7010   107.0370   120.7130    44.5390   -13.8900 
  236.3750   387.8270    20.8150     4.4740   103.5460   113.2530    37.2850   -13.8230 
  236.5000   382.6900    20.7700     4.2840    98.7760   104.2140    69.8590   -13.5460 
  236.6250   402.0210    20.7150     4.3630    90.2850    96.1190    66.4460   -13.2730 
  236.7500   420.4620    20.6860     4.4730    84.3130    91.1010    62.8200   -13.0460 
  236.8750   436.3200    20.6610     4.4370    80.6370    88.4240    59.0660   -13.1040 
  237.0000   449.3390    20.6360     4.3560    77.8480    97.2180    53.4500   -13.4090 
  237.1250   445.2030    20.6120     4.4320    82.1690   105.0450    49.3180   -13.6030 
  237.2500   435.9860    20.5920     4.5770    89.2040   104.4570    46.3600   -13.7960 
  237.3750   427.2290    20.5890     4.5920    89.1970   103.5920    50.6370   -13.8570 
  237.5000   424.8720    20.5860     4.3680    92.8610   102.7910    58.2710   -13.9100 
  237.6250   426.9490    20.5840     4.3980   124.4740   138.3950    56.6970   -13.8860 
  237.7500   422.2660    20.5810     4.5160   133.5430   142.5080    55.1970   -13.8190 
  237.8750   410.5340    20.5780     4.6250   124.4740   140.1280    65.3250   -13.6300 
  238.0000   400.7880    20.5760     4.6370   133.5430   150.6650    81.6560   -13.5810 
  238.1250   401.1730    20.5730     4.5280   123.5060   141.3270    85.4990   -13.6710 
  238.2500   421.4380    20.5700     4.4080   114.7330   133.7430    81.4720   -13.8560 
  238.3750   453.8260    20.5670     4.3150   106.7790   126.5770    73.4360   -14.0990 
  238.5000   496.2220    20.5650     4.2220   100.5470   121.1380    67.0530   -14.3420 
  238.6250   480.8000    20.5620     4.3480    95.7780   119.2170    63.9400   -14.5640 
  238.7500   420.5050    20.5590     4.5070    96.6850   134.1650    65.8720   -14.6910 
  238.8750   461.9830    20.5560     4.4820   107.4530   162.8620    74.7130   -14.7470 
  239.0000   470.2380    20.5540     4.3460   132.3770   203.9260    89.8520   -14.6820 
  239.1250   443.9610    20.5510     4.3650   167.0520   229.0580    95.7950   -14.5310 
  239.2500   273.7720    20.5480     4.4600   151.6890   172.1300    67.9560   -14.4680 
  239.3750   227.1950    20.5450     4.5130   137.3720   162.8220   159.4900   -14.5190 
  239.5000   212.6240    20.5430     4.2190   151.1570   181.9340   400.4360   -14.5670 
  239.6250   194.8480    20.5400     3.9030   158.8780   202.0970   287.5100   -14.6470 
  239.7500   200.2510    20.5540     3.7260    42.5970   160.0400   122.0880   -14.6970 
  239.8750   209.4670    20.5680     3.7130    22.9170    67.0280   133.5850   -14.7320 
  240.0000   213.2120    20.5820     3.7210     9.8290    32.4130   331.9920   -14.7700 
  240.1250   201.8620    20.5800     3.7250     5.2810     9.5670   252.8470   -14.7870 
  240.2500   196.7680    20.5770     3.4740     2.0100     5.4000   103.2890   -14.7960 
  240.3750   208.9710    20.5750     3.3430     1.8470     4.5410    47.0050   -14.8310 
  240.5000   232.0920    20.5720     3.3480     1.6740     3.9060    13.0350   -14.8490 
  240.6250   272.9180    20.5690     3.3780     1.5090     3.3610    12.0000   -14.8530 
  240.7500   380.0830    20.5710     3.1830     1.3430     3.2470    11.4510     0.0000 
  240.8750   406.2760    20.5970     2.9500     1.1720     3.5540     8.1080     0.0000 
  241.0000   421.9260    20.6120     2.8520     1.0070     3.9840     8.0000     0.0000 
  241.1250   433.7390     0.0000     2.8410     3.4210     4.4410     3.4000     0.0000 
  241.2500   438.9380     0.0000     2.8740     3.4140     5.1550     3.7730     0.0000 
  241.3750   432.3010     0.0000     2.9430     3.4790     5.6530     4.5110     0.0000 
  241.5000   420.0820     0.0000     3.0130     4.0550     5.2850     5.5020     0.0000 
  241.6250   403.7400     0.0000     3.0900     4.7610     4.9430     6.5030     0.0000 
  241.7500   387.7060     0.0000     3.1140     5.5270     5.5230     6.9570     0.0000 
  241.8750   386.0980     0.0000     3.1620     6.0650     6.0590     5.9220     0.0000 
  242.0000   392.5290     0.0000     3.2310     5.9440     6.5140     4.9550     0.0000 
  242.1250   398.5760     0.0000     3.2980     5.7520     6.4960     5.3350     0.0000 
  242.2500   400.6180     0.0000     3.2670     5.7450     6.4400     5.6030     0.0000 
  242.3750   402.6600     0.0000     3.2450     6.0010     6.2480     5.8710     0.0000 
  242.5000   404.7030     0.0000     3.3960     6.4060     6.0820     5.8870     0.0000 
  242.6250   403.7450     0.0000     3.5700     6.5820     5.9540     5.6610     0.0000 
  242.7500   401.8880     0.0000     3.7510     5.5170     5.9280     5.4710     0.0000 
  242.8750   400.6980     0.0000     3.8790     5.5100     5.9260     5.3570     0.0000 
  243.0000   399.6840     0.0000     3.7690     5.5020     5.9230     5.2920     0.0000 
  243.1250   398.8890     0.0000     3.6660     5.5350     6.0900     5.3000     0.0000 
  243.2500   398.4460     0.0000     3.5910     5.8030     6.2920     5.5710     0.0000 
  243.3750   398.1730     0.0000     3.6570     6.3580     6.3190     5.7710     0.0000 
  243.5000   397.9020     0.0000     3.8050     6.7650     6.1590     5.7660     0.0000 
  243.6250   397.6470     0.0000     3.7560     6.0740     5.6150     5.7610     0.0000 
  243.7500   397.3910     0.0000     3.6350     5.2640     5.5100     5.7570     0.0000 
  243.8750   397.1480     0.0000     3.6750     4.6890     5.7510     5.7520     0.0000 
  244.0000   396.9080     0.0000     3.7960     4.5490     5.9570     5.7030     0.0000 
  244.1250   396.7590     0.0000     3.9120     4.5420     6.0020     5.6170     0.0000 
  244.2500   396.7270     0.0000     4.0160     4.5350     5.9990     5.4750     0.0000 
  244.3750   396.6950     0.0000     3.9690     4.5280     5.9780     5.3430     0.0000 
  244.5000   396.6620     0.0000     3.8870     4.5210     5.8970     5.2330     0.0000 
  244.6250   396.6300     0.0000     3.7810     4.5140     5.8910     5.2290     0.0000 
  244.7500   396.5970     0.0000     3.8010     4.5630     5.8880     5.2240     0.0000 
  244.8750   396.5650     0.0000     3.9030     4.7740     5.9300     5.2630     0.0000 
  245.0000   396.5330     0.0000     4.0070     5.4410     6.0090     5.3130     0.0000 
  245.1250   396.5010     0.0000     3.9060     5.8210     6.1030     5.3080     0.0000 
  245.2500   396.4680     0.0000     3.6790     5.8330     6.1810     5.3030     0.0000 
  245.3750   396.4350     0.0000     3.7540     5.2000     6.1780     5.2980     0.0000 
  245.5000   396.4020     0.0000     3.8470     4.9610     6.2220     5.2930     0.0000 
  245.6250   396.3700     0.0000     3.6910     5.2550     6.2740     5.3630     0.0000 
  245.7500   396.3380     0.0000     3.5810     5.7390     6.2980     5.5620     0.0000 
  245.8750   396.3060     0.0000     3.7540     5.9560     6.3700     5.7980     0.0000 
  246.0000   396.2900     0.0000     3.6550     6.0430     6.3670     6.0160     0.0000 
  246.1250   396.5420     0.0000     3.4220     6.1730     6.4500     6.1400     0.0000 
