~V
VERS. 2.00: Ver 2.00
~W
STRT.M 10.0000:
STOP.M 249.0000:
STEP.M 0.1250:
NULL. -999.2500:
UWI. Z117:
~C
DEPT.M :
AC.US/MT :
CALI.CM :
GR.API :
RI. :
RML.OHMM :
RXO.OHMM :
SP.MV :
~A
# ...
   88.7500     0.0000     0.0000     0.0000     0.0000     0.0000     0.0000     0.0000 
   88.8750     0.0000     0.0000     0.0000     0.0000     0.0000     0.0000     0.0000 
   89.0000     0.0000     0.0000     0.0000     0.0000     0.0000     0.0000     0.0000 
   89.1250     0.0000     0.0000     0.0000     0.0000     0.0000     0.0000     0.0000 
   89.2500     0.0000     0.0000     0.0000     0.0000     0.0000     0.0000     0.0000 
   89.3750     0.0000     0.0000     0.0000     0.0000     0.0000     0.0000     0.0000 
   89.5000     0.0000     0.0000     0.0000     0.0000     0.0000     0.0000     0.0000 
   89.6250     0.0000     0.0000     0.0000     0.0000     0.0000     0.0000     0.0000 
   89.7500     0.0000     0.0000     0.0000     0.0000     0.0000     0.0000     0.0000 
   89.8750     0.0000     0.0000     0.0000     0.0000     0.0000     0.0000     0.0000 
   90.0000     0.0000     0.0000     0.0000     0.0000     0.0000     0.0000     0.0000 
   90.1250     0.0000     0.0000     0.0000     0.0000     0.0000     0.0000     0.0000 
   90.2500     0.0000     0.0000     0.0000     0.0000     0.0000     0.0000     0.0000 
   90.3750     0.0000     0.0000     0.0000     0.0000     0.0000     0.0000     0.0000 
   90.5000     0.0000     0.0000     0.0000     0.0000     0.0000     0.0000     0.0000 
   90.6250     0.0000     0.0000     0.0000     0.0000     0.0000     0.0000     0.0000 
   90.7500     0.0000     0.0000     0.0000     0.0000     0.0000     0.0000     0.0000 
   90.8750     0.0000     0.0000     0.0000     0.0000     0.0000     0.0000     0.0000 
   91.0000     0.0000     0.0000     0.0000     0.0000     0.0000     0.0000     0.0000 
   91.1250     0.0000     0.0000     0.0000     0.0000     0.0000     0.0000     0.0000 
   91.2500     0.0000     0.0000     0.0000     0.0000     0.0000     0.0000     0.0000 
   91.3750     0.0000     0.0000     0.0000     0.0000     0.0000     0.0000     0.0000 
   91.5000     0.0000     0.0000     0.0000     0.0000     0.0000     0.0000     0.0000 
   91.6250     0.0000     0.0000     0.0000     0.0000     0.0000     0.0000     0.0000 
   91.7500     0.0000     0.0000     0.0000     0.0000     0.0000     0.0000     0.0000 
   91.8750     0.0000     0.0000     0.0000     0.0000     0.0000     0.0000     0.0000 
   92.0000     0.0000     0.0000     0.0000     0.0000     0.0000     0.0000     0.0000 
   92.1250     0.0000     0.0000     0.0000     0.0000     0.0000     0.0000     0.0000 
   92.2500     0.0000     0.0000     0.0000     0.0000     0.0000     0.0000     0.0000 
   92.3750     0.0000     0.0000     0.0000     0.0000     0.0000     0.0000     0.0000 
   92.5000     0.0000     0.0000     0.0000     0.0000     0.0000     0.0000     0.0000 
   92.6250     0.0000     0.0000     0.0000     0.0000     0.0000     0.0000     0.0000 
   92.7500     0.0000     0.0000     0.0000     0.0000     0.0000     0.0000     0.0000 
   92.8750     0.0000     0.0000     0.0000     0.0000     0.0000     0.0000     0.0000 
   93.0000     0.0000     0.0000     0.0000     0.0000     0.0000     0.0000     0.0000 
   93.1250     0.0000     0.0000     0.0000     0.0000     0.0000     0.0000     0.0000 
   93.2500     0.0000     0.0000     0.0000     0.0000     0.0000     0.0000     0.0000 
   93.3750     0.0000     0.0000     0.0000     0.0000     0.0000     0.0000     0.0000 
   93.5000     0.0000     0.0000     0.0000     0.0000     0.0000     0.0000     0.0000 
   93.6250     0.0000     0.0000     0.0000     0.0000     0.0000     0.0000     0.0000 
   93.7500     0.0000     0.0000     0.0000     0.0000     0.0000     0.0000     0.0000 
   93.8750     0.0000     0.0000     0.0000     0.0000     0.0000     0.0000     0.0000 
   94.0000     0.0000     0.0000     0.0000     0.0000     0.0000     0.0000     0.0000 
   94.1250     0.0000     0.0000     0.0000     0.0000     0.0000     0.0000     0.0000 
   94.2500     0.0000     0.0000     0.0000     0.0000     0.0000     0.0000     0.0000 
   94.3750     0.0000     0.0000     0.0000     0.0000     0.0000     0.0000     0.0000 
   94.5000     0.0000     0.0000     0.0000     0.0000     0.0000     0.0000     0.0000 
   94.6250     0.0000     0.0000     0.0000     0.0000     0.0000     0.0000     0.0000 
   94.7500     0.0000     0.0000     0.0000     0.0000     0.0000     0.0000     0.0000 
   94.8750     0.0000     0.0000     0.0000     0.0000     0.0000     0.0000     0.0000 
   95.0000     0.0000     0.0000     0.0000     0.0000     0.0000     0.0000     0.0000 
   95.1250     0.0000     0.0000     0.0000     0.0000     0.0000     0.0000     0.0000 
   95.2500     0.0000     0.0000     0.0000     0.0000     0.0000     0.0000     0.0000 
   95.3750     0.0000     0.0000     0.0000     0.0000     0.0000     0.0000     0.0000 
   95.5000     0.0000     0.0000     0.0000     0.0000     0.0000     0.0000     0.0000 
   95.6250     0.0000     0.0000     0.0000     0.0000     0.0000     0.0000     0.0000 
   95.7500     0.0000     0.0000     0.0000     0.0000     0.0000     0.0000     0.0000 
   95.8750     0.0000     0.0000     0.0000     0.0000     0.0000     0.0000     0.0000 
   96.0000     0.0000     0.0000     0.0000     0.0000     0.0000     0.0000     0.0000 
   96.1250     0.0000     0.0000     0.0000     0.0000     0.0000     0.0000     0.0000 
   96.2500     0.0000     0.0000     0.0000     0.0000     0.0000     0.0000     0.0000 
   96.3750     0.0000     0.0000     0.0000     0.0000     0.0000     0.0000     0.0000 
   96.5000     0.0000     0.0000     0.0000     0.0000     0.0000     0.0000     0.0000 
   96.6250     0.0000     0.0000     0.0000     0.0000     0.0000     0.0000     0.0000 
   96.7500     0.0000     0.0000     0.0000     0.0000     0.0000     0.0000     0.0000 
   96.8750     0.0000     0.0000     0.0000     0.0000     0.0000     0.0000     0.0000 
   97.0000     0.0000     0.0000     0.0000     0.0000     0.0000     0.0000     0.0000 
   97.1250     0.0000     0.0000     0.0000     0.0000     0.0000     0.0000     0.0000 
   97.2500     0.0000     0.0000     0.0000     0.0000     0.0000     0.0000     0.0000 
   97.3750     0.0000     0.0000     0.0000     0.0000     0.0000     0.0000     0.0000 
   97.5000     0.0000     0.0000     0.0000     0.0000     0.0000     0.0000     0.0000 
   97.6250     0.0000     0.0000     0.0000     0.0000     0.0000     0.0000     0.0000 
   97.7500     0.0000     0.0000     0.0000     0.0000     0.0000     0.0000     0.0000 
   97.8750     0.0000     0.0000     0.0000     0.0000     0.0000     0.0000     0.0000 
   98.0000     0.0000     0.0000     0.0000     0.0000     0.0000     0.0000     0.0000 
   98.1250     0.0000     0.0000     0.0000     0.0000     0.0000     0.0000     0.0000 
   98.2500     0.0000     0.0000     0.0000     0.0000     0.0000     0.0000     0.0000 
   98.3750     0.0000     0.0000     0.0000     0.0000     0.0000     0.0000     0.0000 
   98.5000     0.0000     0.0000     0.0000     0.0000     0.0000     0.0000     0.0000 
   98.6250     0.0000     0.0000     0.0000     0.0000     0.0000     0.0000     0.0000 
   98.7500     0.0000     0.0000     0.0000     0.0000     0.0000     0.0000     0.0000 
   98.8750     0.0000     0.0000     0.0000     0.0000     0.0000     0.0000     0.0000 
   99.0000     0.0000     0.0000     0.0000     0.0000     0.0000     0.0000     0.0000 
   99.1250     0.0000     0.0000     0.0000     0.0000     0.0000     0.0000     0.0000 
   99.2500     0.0000     0.0000     0.0000     0.0000     0.0000     0.0000     0.0000 
   99.3750     0.0000     0.0000     0.0000     0.0000     0.0000     0.0000     0.0000 
   99.5000     0.0000     0.0000     0.0000     0.0000     0.0000     0.0000     0.0000 
   99.6250     0.0000     0.0000     0.0000     0.0000     0.0000     0.0000     0.0000 
   99.7500     0.0000     0.0000     0.0000     0.0000     0.0000     0.0000     0.0000 
   99.8750     0.0000     0.0000     0.0000     0.0000     0.0000     0.0000     0.0000 
