~V
VERS. 2.00: Ver 2.00
~W
STRT.M 10.0000:
STOP.M 249.0000:
STEP.M 0.1250:
NULL. -999.2500:
UWI. Z117:
~C
DEPT.M :
AC.US/MT :
CALI.CM :
GR.API :
RI. :
RML.OHMM :
RXO.OHMM :
SP.MV :
~A
# ...
  133.7500   447.4560    20.9540     4.2270     7.6920     9.2060     9.3950    -9.3160 
  133.8750   458.9380    20.9790     4.1460     7.7330     9.3840     9.2920    -9.2070 
  134.0000   472.5160    20.9990     4.2570     7.9730     9.3920     9.1530    -9.0350 
  134.1250   445.2030    21.0040     4.3760     8.3110     9.1030     8.9240    -8.8210 
  134.2500   438.9660    21.0020     4.4770     8.5700     9.1440     8.7650    -8.6070 
  134.3750   419.8950    20.9370     4.5500     8.6510    10.2160     8.6680    -8.4480 
  134.5000   393.8350    20.8480     4.6110     8.3200    11.1680     8.6270    -8.2980 
  134.6250   351.5070    20.7800     4.6580     8.0400    10.0570     8.6660    -8.1650 
  134.7500   309.1970    20.6990     4.4220     8.8660     9.0350     8.7450    -8.0750 
  134.8750   318.6050    20.5910     4.4840    10.0160     8.3420     8.8750    -7.9990 
  135.0000   359.0130    20.5140     4.5380     9.1660     8.0630     9.0030    -7.9790 
  135.1250   482.5100    20.4820     4.2410     8.2030     8.4970     8.9980    -7.9700 
  135.2500   476.1650    20.4990     4.0880     7.7360     9.4610     8.8600    -8.0320 
  135.3750   543.6230    20.5160     4.0810     7.5990    10.3250     8.5700    -8.0930 
  135.5000   551.3520    20.6700     4.1570     7.7180    11.1960     8.4100    -8.1710 
  135.6250   482.2860    20.8330     4.2420     8.1980    11.8370     8.5250    -8.2600 
  135.7500   496.9060    20.9440     4.2820     9.1170    11.3790     9.1320    -8.3500 
  135.8750   541.9760    21.0550     4.1730     9.7460     9.8510     9.0200    -8.3930 
  136.0000   417.2890    21.0660     4.0970     9.0870     8.8130     8.4230    -8.4120 
  136.1250   423.0640    20.9830     3.9510     7.9160     8.4530     7.7630    -8.4320 
  136.2500   430.7570    20.8050     3.9700     7.5280     8.9360     7.8780    -8.4300 
  136.3750   440.7300    20.6430     4.0600     7.7770     9.6130     8.8100    -8.4030 
  136.5000   419.1580    20.5390     4.1340     8.2960    10.1490    10.0190    -8.3770 
  136.6250   408.6180    20.5510     4.0690     8.7840    10.3270    11.0580    -8.3190 
  136.7500   419.9860    20.6890     4.1050     9.0630    10.3450    10.3350    -8.1590 
  136.8750   433.1850    20.8260     4.1910     9.2040    10.0090     9.7530    -8.0000 
  137.0000   444.0730    20.9630     4.3090     8.7360     9.8650     9.2260    -7.8020 
  137.1250   439.8730    21.0530     4.4580     8.4070     9.7330     9.0940    -7.5650 
  137.2500   430.0100    21.0800     4.6270     8.7540     9.7430     9.0820    -7.3290 
  137.3750   430.3840    21.0870     4.8100     9.1000     9.8660     9.3680    -6.9170 
  137.5000   433.5890    21.0790     4.6830     9.1680     9.9280     9.6890    -6.3980 
  137.6250   436.3590    20.9890     4.5580     9.1610     9.9020    10.0230    -5.8710 
  137.7500   436.3280    20.9170     4.4210     9.0980     8.7370    10.0600    -5.2300 
  137.8750   435.4470    20.8850     4.3210     8.9880     7.0580     9.5270    -4.5900 
  138.0000   432.7620    20.8690     4.3380     8.4620     5.7650     8.6600    -3.8700 
  138.1250   433.8800    20.8660     4.4680     7.0970     5.7890     6.7910    -3.1500 
  138.2500   435.8280    20.9780     4.5440     5.7180     7.1030     3.7160    -2.4370 
  138.3750   429.2240    21.1240     4.6260     4.5670     8.3610     3.7750    -1.7280 
  138.5000   418.0290    21.2690     4.8020     5.1350    10.4070     4.8490    -1.4230 
  138.6250   401.5970    21.4150     4.9510     6.8360    15.4010     6.4220    -1.1460 
  138.7500   381.9310    21.5610     4.6940    10.2680    21.7350     8.3770    -0.9570 
  138.8750   361.4300    21.5920     4.2920    19.2940    26.9310    11.9150    -0.9540 
  139.0000   273.8270    21.5840     4.1490    23.9920    24.9030    21.4870    -0.9580 
  139.1250   231.2740    21.4370     4.1720    21.7600    17.9750    31.5390    -0.9620 
  139.2500   271.8630    21.2880     4.2710    16.3450    12.8400    33.4470    -0.9890 
  139.3750   302.4350    21.1390     4.4060    12.8710    14.5780     9.5930    -1.0610 
  139.5000   302.6370    21.0150     4.6050    11.2000    16.8010    12.5780    -1.2020 
  139.6250   297.8960    20.9380     4.8680    12.4430    11.7860    18.7930    -1.3140 
  139.7500   298.5790    20.8750     4.6990    13.8750    14.2690    22.1340    -1.4200 
  139.8750   307.2570    20.8460     4.5240    11.7410    11.7860    10.4070    -1.5740 
  140.0000   317.8130    20.8250     4.5350    12.2570    14.2690    13.0870    -1.7320 
  140.1250   286.6720    20.8230     4.6260    15.1680    17.6390    17.1600    -1.8020 
  140.2500   282.6860    20.8560     4.2180    15.9670    17.6360    19.2170    -1.8720 
  140.3750   288.0080    20.9400     4.1880    17.3800    19.0800    13.7130    -1.8930 
  140.5000   293.4820    20.9860     4.3290    19.7370    21.4770    18.3990    -1.8970 
  140.6250   288.7830    21.0130     4.4840    21.8820    24.3470    22.9500    -1.8900 
  140.7500   276.6630    21.0130     4.3460    23.6090    25.8770    18.0190    -1.8720 
  140.8750   267.1540    20.9930     4.1990    21.7290    23.2070    24.8240    -1.8280 
  141.0000   262.3000    20.9610     4.1450    19.7620    20.2540    28.6500    -1.7040 
  141.1250   275.6120    20.9540     4.2020    17.5200    17.9200    15.8200    -1.5610 
  141.2500   288.4670    20.9510     4.3800    15.8520    17.7470    19.2640    -1.3800 
  141.3750   301.5150    20.9480     4.5740    15.8910    19.2670    19.4500    -1.2290 
  141.5000   315.6520    21.0090     4.7240    18.4070    21.8950    15.7020    -1.0910 
  141.6250   307.8690    21.0860     4.9240    20.9280    25.0190    21.5710    -0.9310 
  141.7500   291.9790    21.1950     4.8530    23.1180    25.2370    33.3250    -0.7580 
  141.8750   269.4690    21.3040     4.6550    20.8530    22.2720    30.0340    -0.5830 
  142.0000   255.3420    21.3880     4.4500    18.6560    19.7040    17.5360    -0.4010 
  142.1250   273.5930    21.4420     4.5290    17.4920    17.7140    16.0470    -0.2200 
  142.2500   292.3400    21.4390     4.6140    16.8020    17.0540    21.7190    -0.1030 
  142.3750   287.6470    21.4370     4.6620    16.2630    18.7570    39.7740     0.0130 
  142.5000   269.0760    21.4340     4.4620    18.2710    21.8130    17.1070     0.1270 
  142.6250   248.5560    21.4310     4.3640    21.2550    25.0760    28.4050     0.2200 
  142.7500   240.4950    21.3650     4.2370    20.2440    24.3100    21.4940     0.3140 
  142.8750   245.4150    21.2890     4.1400    18.7140    21.6650    23.3490     0.4080 
  143.0000   257.1090    21.2370     4.3140    16.8330    19.5970    14.3800     0.5180 
  143.1250   267.0300    21.1920     4.4970    15.7100    17.6800    16.4680     0.6270 
  143.2500   276.9510    21.1630     4.5450    14.8630    16.3090    20.2030     0.7370 
  143.3750   287.8130    21.1600     4.0510    15.1310    16.4380    26.6480     0.8700 
  143.5000   299.0110    21.1570     3.7700    16.7150    17.7790    35.1010     1.0030 
  143.6250   287.3790    21.1540     3.5600    18.3400    19.5380    18.5720     1.1320 
  143.7500   252.9750    21.1520     3.4150    19.9660    21.1750    13.2790     1.2250 
  143.8750   234.4560    21.1570     3.4650    21.5910    23.8550    20.9930     1.3190 
  144.0000   238.3040    21.1760     3.5670    20.5150    21.6330    15.9290     1.4110 
  144.1250   250.7140    21.1940     3.6900    17.4450    17.8610    17.7300     1.4890 
  144.2500   261.1520    21.1920     3.8170    17.8360    19.0130    15.3520     1.5680 
  144.3750   265.0350    21.1890     3.9360    16.1200    18.7420    11.9240     1.6210 
  144.5000   252.3080    21.1860     4.0410    14.3390    15.1230    13.1170     1.6610 
  144.6250   254.5630    21.1840     4.1430    16.1900    16.8280    25.4090     1.7000 
  144.7500   261.3210    21.1810     4.2360    18.6670    20.5640    38.8870     1.7370 
  144.8750   263.9530    21.1640     4.1640    19.0130    22.1240    32.8730     1.7740 
