~V
VERS. 2.00: Ver 2.00
~W
STRT.M 10.0000:
STOP.M 249.0000:
STEP.M 0.1250:
NULL. -999.2500:
UWI. Z117:
~C
DEPT.M :
AC.US/MT :
CALI.CM :
GR.API :
RI. :
RML.OHMM :
RXO.OHMM :
SP.MV :
~A
# ...
  201.2500   427.8220    20.5190     4.9310    20.1290    23.3970    28.2640    -8.2310 
  201.3750   422.3140    20.5110     5.0110    17.3960    20.7580    21.8940    -8.3030 
  201.5000   421.8370    20.5220     5.0670    19.8460    22.7780    20.2630    -8.3310 
  201.6250   422.2500    20.5330     5.0950    22.8070    26.5220    21.4680    -8.3600 
  201.7500   425.8220    20.5440     5.0490    22.2380    24.6930    21.7770    -8.3890 
  201.8750   429.2830    20.5550     4.9310    19.6570    22.7590    27.0370    -8.4210 
  202.0000   433.7630    20.5650     4.8050    23.5540    27.2520    26.3000    -8.4920 
  202.1250   435.8280    20.5760     4.6670    27.2750    32.6770    22.0320    -8.5630 
  202.2500   436.1070    20.5870     4.5210    30.2810    35.4080    29.8920    -8.6340 
  202.3750   429.4340    20.5960     4.4480    28.7830    32.6610    33.1460    -8.6830 
  202.5000   422.5920    20.6060     4.5320    23.1230    27.9070    40.3000    -8.6990 
  202.6250   419.1440    20.6150     4.6510    17.3060    22.4000    34.4400    -8.7150 
  202.7500   420.5810    20.6240     4.7640    19.9880    20.0040    24.5080    -8.7310 
  202.8750   424.2100    20.6330     4.7770    24.7840    25.5420    19.4490    -8.7420 
  203.0000   427.0070    20.6420     4.8300    29.6800    33.7210    34.3320    -8.7360 
  203.1250   427.3630    20.6510     4.9220    33.1280    39.0990    46.2650    -8.7300 
  203.2500   426.7010    20.6600     4.8940    35.9600    41.7820    42.2790    -8.7240 
  203.3750   425.1240    20.6690     4.6090    37.5270    42.8580    38.4730    -8.7180 
  203.5000   420.8400    20.6780     4.4960    37.8720    42.9800    39.6760    -8.7380 
  203.6250   413.1470    20.6870     4.5730    36.4040    42.1340    40.2450    -8.8390 
  203.7500   410.7210    20.6960     4.7180    33.0630    39.6510    39.9690    -8.9400 
  203.8750   415.8890    20.7050     4.5950    28.8450    35.5400    41.2730    -9.0470 
  204.0000   423.7180    20.7100     4.4790    31.1330    33.0480    37.6910    -9.1770 
  204.1250   426.3300    20.7130     4.4880    38.0010    39.9670    29.0680    -9.3060 
  204.2500   418.2450    20.7170     4.5480    69.6390    51.5380    30.1290    -9.4360 
  204.3750   406.4780    20.7200     4.3820    80.9360    86.3900    47.9230    -9.5940 
  204.5000   413.3740    20.7240     4.3960    87.1050   102.0520    73.3390    -9.7670 
  204.6250   464.9500    20.7270     4.4910    82.9660   101.0850    94.6960    -9.9400 
  204.7500   483.2680    20.7310     4.0890    77.5230    97.6480    81.8560   -10.1240 
  204.8750   414.8980    20.7350     4.1970    68.9030    91.7690    76.0250   -10.3220 
  205.0000   422.8940    20.7370     4.3460    59.1550    85.1450    81.3370   -10.5200 
  205.1250   431.0050    20.7390     4.5280    43.8860    71.3590    61.6440   -10.6930 
  205.2500   439.2070    20.7420     4.7150    46.7600    50.1330    65.4910   -10.8200 
  205.3750   447.1340    20.7440     4.7160    50.0410    54.7900    66.9620   -10.9470 
  205.5000   452.0130    20.7460     4.5410    51.0890    59.4400    45.0010   -11.0770 
  205.6250   441.4670    20.7480     4.2040    45.6480    58.0100    45.0740   -11.2260 
  205.7500   428.2000    20.7510     4.0900    40.1430    54.4320    58.2290   -11.3750 
  205.8750   419.1610    20.7530     4.1450    37.6790    48.8460    61.0930   -11.4710 
  206.0000   415.6150    20.7550     4.2640    40.6140    44.6110    57.3080   -11.4930 
  206.1250   415.5030    20.7570     4.3730    46.5400    45.9500    48.6800   -11.5150 
  206.2500   420.4270    20.7580     4.2410    56.0700    56.5030    43.0920   -11.4670 
  206.3750   428.2410    20.7550     4.0350    65.9470    68.1620    39.1180   -11.3850 
  206.5000   454.2140    20.7520     4.0840    69.6930    76.9240    55.9230   -11.3040 
  206.6250   508.4530    20.7500     4.1520    93.1760    75.9690    71.9020   -11.2320 
  206.7500   544.8020    20.7470     4.0650    89.9010   100.6580    69.2590   -11.1640 
  206.8750   566.9380    20.7440     3.8780    83.8140   107.2880    65.2950   -11.0980 
  207.0000   563.3380    20.7410     3.9650    75.7050   102.1450    75.1850   -11.0830 
  207.1250   552.6340    20.7390     4.1140    37.0010    78.2780    88.3000   -11.0680 
  207.2500   561.9420    20.7360     4.1960    31.4310    61.9390    86.8970   -11.1020 
  207.3750   578.4070    20.7330     4.2340    28.7120    32.2270    81.6140   -11.1890 
  207.5000   536.4120    20.7310     4.3280    26.4870    31.4260    27.3360   -11.2780 
  207.6250   458.0810    20.7530     4.4720    25.7280    31.3030    27.1250   -11.4010 
  207.7500   446.2530    20.7770     4.5240    27.8030    33.8220    29.0220   -11.5250 
  207.8750   439.4750    20.8010     4.4490    33.2500    39.2590    34.3360   -11.6590 
  208.0000   434.1360    20.8310     4.3300    50.4390    59.5340    37.1980   -11.8410 
  208.1250   430.1430    20.9250     4.2380    53.6710    64.0210    38.6630   -12.0230 
  208.2500   427.7300    21.0190     4.2000    55.1210    65.5840    59.8140   -12.2020 
  208.3750   429.7720    21.1130     4.3650    67.4460    69.5800    56.0870   -12.3600 
  208.5000   437.0300    21.2060     4.5760    66.5830    77.1250    62.1600   -12.5180 
  208.6250   447.4920    21.3000     4.5910    64.9870    76.4770    68.3980   -12.6760 
  208.7500   459.0470    21.3890     4.4440    62.9620    73.9200    71.0620   -12.7820 
  208.8750   470.5210    21.4770     4.1790    60.7270    71.1550    71.4800   -12.8840 
  209.0000   462.0170    21.4880     3.8150   103.6220    69.2470    67.0480   -12.9850 
  209.1250   448.5780    21.4400     3.9050   111.9330    79.2730    59.8220   -13.0340 
  209.2500   441.2580    21.3550     4.0150   109.3310   120.3850    68.2690   -13.0740 
  209.3750   443.4780    21.1930     4.1030   103.4650   127.8120    76.8050   -13.1080 
  209.5000   449.6070    20.9740     3.9730    95.3940   125.2050   107.0840   -13.0940 
  209.6250   452.6830    20.7330     3.8430    75.3260   120.5050    93.8420   -13.0800 
  209.7500   452.9700    20.5800     3.7480    56.3180    96.9780    71.9290   -13.0090 
  209.8750   449.1260    20.4640     3.7030    47.3630    52.3580    51.1310   -12.8480 
  210.0000   443.1110    20.4210     3.7850    48.5580    66.2760    46.6490   -12.6880 
  210.1250   436.5840    20.4550     3.9320    82.9780    80.1940    46.2920   -12.5180 
  210.2500   430.4600    20.5890     3.9560    93.5010    94.1120    58.7580   -12.3490 
  210.3750   424.3360    20.7220     3.8640    97.9230   112.8730    74.9740   -12.1870 
  210.5000   424.4340    20.8560     3.7960   110.2770   128.2240    77.7650   -12.0370 
  210.6250   426.4510    20.8870     3.8310   107.5860   130.8680    96.4540   -11.9050 
  210.7500   426.7110    20.9070     3.9100   102.9620   128.6830    93.4530   -11.8650 
  210.8750   421.7620    20.9120     4.0100    92.1050   110.8880    90.2480   -11.8250 
  211.0000   413.4500    20.9090     4.1360    75.8110    94.4090   112.3610   -11.8260 
  211.1250   408.6640    20.9060     4.1480    61.1750    77.9300   101.8240   -11.8300 
  211.2500   405.4090    20.9040     3.8740    64.8730    71.8030    83.5220   -11.8340 
  211.3750   404.4400    20.9010     3.8700    73.4860    91.8820    64.9850   -11.8380 
  211.5000   406.6820    20.8620     3.9620    96.9780   114.6600    76.1490   -11.8420 
  211.6250   419.1780    20.8170     4.0070   137.4810   126.9920   102.0230   -11.8460 
  211.7500   456.2600    20.7720     3.9190   148.5700   151.3220   108.4540   -11.7920 
  211.8750   496.1320    20.7270     3.9800   146.3480   174.6570    99.4480   -11.7080 
  212.0000   518.2660    20.6820     4.0580   142.5700   169.4930    98.2120   -11.5860 
  212.1250   527.0350    20.6370     3.8930   137.1110   162.9110   106.6980   -11.4100 
  212.2500   504.0600    20.5910     3.7560   132.2320   143.0330   115.9820   -11.1460 
  212.3750   465.2120    20.5680     3.7540   115.2130   113.6920   116.3180   -10.7890 
