~V
VERS. 2.00: Ver 2.00
~W
STRT.M 10.0000:
STOP.M 249.0000:
STEP.M 0.1250:
NULL. -999.2500:
UWI. Z117:
~C
DEPT.M :
AC.US/MT :
CALI.CM :
GR.API :
RI. :
RML.OHMM :
RXO.OHMM :
SP.MV :
~A
# ...
  100.0000     0.0000     0.0000     0.0000     0.0000     0.0000     0.0000     0.0000 
  100.1250     0.0000     0.0000     0.0000     0.0000     0.0000     0.0000     0.0000 
  100.2500     0.0000     0.0000     0.0000     0.0000     0.0000     0.0000     0.0000 
  100.3750     0.0000     0.0000     0.0000     0.0000     0.0000     0.0000     0.0000 
  100.5000     0.0000     0.0000     0.0000     0.0000     0.0000     0.0000     0.0000 
  100.6250     0.0000     0.0000     0.0000     0.0000     0.0000     0.0000     0.0000 
  100.7500     0.0000     0.0000     0.0000     0.0000     0.0000     0.0000     0.0000 
  100.8750     0.0000     0.0000     0.0000     0.0000     0.0000     0.0000     0.0000 
  101.0000     0.0000     0.0000     0.0000     0.0000     0.0000     0.0000     0.0000 
  101.1250     0.0000     0.0000     0.0000     0.0000     0.0000     0.0000     0.0000 
  101.2500     0.0000     0.0000     0.0000     0.0000     0.0000     0.0000     0.0000 
  101.3750     0.0000     0.0000     0.0000     0.0000     0.0000     0.0000     0.0000 
  101.5000     0.0000     0.0000     0.0000     0.0000     0.0000     0.0000     0.0000 
  101.6250     0.0000     0.0000     0.0000     0.0000     0.0000     0.0000     0.0000 
  101.7500     0.0000     0.0000     0.0000     0.0000     0.0000     0.0000     0.0000 
  101.8750     0.0000     0.0000     0.0000     0.0000     0.0000     0.0000     0.0000 
  102.0000     0.0000     0.0000     0.0000     0.0000     0.0000     0.0000     0.0000 
  102.1250     0.0000     0.0000     0.0000     0.0000     0.0000     0.0000     0.0000 
  102.2500     0.0000     0.0000     0.0000     0.0000     0.0000     0.0000     0.0000 
  102.3750     0.0000     0.0000     0.0000     0.0000     0.0000     0.0000     0.0000 
  102.5000     0.0000     0.0000     0.0000     0.0000     0.0000     0.0000     0.0000 
  102.6250     0.0000     0.0000     0.0000     0.0000     0.0000     0.0000     0.0000 
  102.7500     0.0000     0.0000     0.0000     0.0000     0.0000     0.0000     0.0000 
  102.8750     0.0000     0.0000     0.0000     0.0000     0.0000     0.0000     0.0000 
  103.0000     0.0000     0.0000     0.0000     0.0000     0.0000     0.0000     0.0000 
  103.1250     0.0000     0.0000     0.0000     0.0000     0.0000     0.0000     0.0000 
  103.2500     0.0000     0.0000     0.0000     0.0000     0.0000     0.0000     0.0000 
  103.3750     0.0000     0.0000     0.0000     0.0000     0.0000     0.0000     0.0000 
  103.5000     0.0000     0.0000     0.0000     0.0000     0.0000     0.0000     0.0000 
  103.6250     0.0000     0.0000     0.0000     0.0000     0.0000     0.0000     0.0000 
  103.7500     0.0000     0.0000     0.0000     0.0000     0.0000     0.0000     0.0000 
  103.8750     0.0000     0.0000     0.0000     0.0000     0.0000     0.0000     0.0000 
  104.0000     0.0000     0.0000     0.0000     0.0000     0.0000     0.0000     0.0000 
  104.1250     0.0000     0.0000     0.0000     0.0000     0.0000     0.0000     0.0000 
  104.2500     0.0000     0.0000     0.0000     0.0000     0.0000     0.0000     0.0000 
  104.3750     0.0000     0.0000     0.0000     0.0000     0.0000     0.0000     0.0000 
  104.5000     0.0000     0.0000     0.0000     0.0000     0.0000     0.0000     0.0000 
  104.6250     0.0000     0.0000     0.0000     0.0000     0.0000     0.0000     0.0000 
  104.7500     0.0000     0.0000     0.0000     0.0000     0.0000     0.0000     0.0000 
  104.8750     0.0000     0.0000     0.0000     0.0000     0.0000     0.0000     0.0000 
  105.0000     0.0000     0.0000     0.0000     0.0000     0.0000     0.0000     0.0000 
  105.1250     0.0000     0.0000     0.0000     0.0000     0.0000     0.0000     0.0000 
  105.2500     0.0000     0.0000     0.0000     0.0000     0.0000     0.0000     0.0000 
  105.3750     0.0000     0.0000     0.0000     0.0000     0.0000     0.0000     0.0000 
  105.5000     0.0000     0.0000     0.0000     0.0000     0.0000     0.0000     0.0000 
  105.6250     0.0000     0.0000     0.0000     0.0000     0.0000     0.0000     0.0000 
  105.7500     0.0000     0.0000     0.0000     0.0000     0.0000     0.0000     0.0000 
  105.8750     0.0000     0.0000     0.0000     0.0000     0.0000     0.0000     0.0000 
  106.0000     0.0000     0.0000     0.0000     0.0000     0.0000     0.0000     0.0000 
  106.1250     0.0000     0.0000     0.0000     0.0000     0.0000     0.0000     0.0000 
  106.2500     0.0000     0.0000     0.0000     0.0000     0.0000     0.0000     0.0000 
  106.3750     0.0000     0.0000     0.0000     0.0000     0.0000     0.0000     0.0000 
  106.5000     0.0000     0.0000     0.0000     0.0000     0.0000     0.0000     0.0000 
  106.6250     0.0000     0.0000     0.0000     0.0000     0.0000     0.0000     0.0000 
  106.7500     0.0000     0.0000     0.0000     0.0000     0.0000     0.0000     0.0000 
  106.8750     0.0000     0.0000     0.0000     0.0000     0.0000     0.0000     0.0000 
  107.0000     0.0000     0.0000     0.0000     0.0000     0.0000     0.0000     0.0000 
  107.1250     0.0000     0.0000     0.0000     0.0000     0.0000     0.0000     0.0000 
  107.2500     0.0000     0.0000     0.0000     0.0000     0.0000     0.0000     0.0000 
  107.3750     0.0000     0.0000     0.0000     0.0000     0.0000     0.0000     0.0000 
  107.5000     0.0000     0.0000     0.0000     0.0000     0.0000     0.0000     0.0000 
  107.6250     0.0000     0.0000     0.0000     0.0000     0.0000     0.0000     0.0000 
  107.7500     0.0000     0.0000     0.0000     0.0000     0.0000     0.0000     0.0000 
  107.8750     0.0000     0.0000     0.0000     0.0000     0.0000     0.0000     0.0000 
  108.0000     0.0000     0.0000     0.0000     0.0000     0.0000     0.0000     0.0000 
  108.1250     0.0000     0.0000     0.0000     0.0000     0.0000     0.0000     0.0000 
  108.2500     0.0000     0.0000     0.0000     0.0000     0.0000     0.0000     0.0000 
  108.3750     0.0000     0.0000     0.0000     0.0000     0.0000     0.0000     0.0000 
  108.5000     0.0000     0.0000     0.0000     0.0000     0.0000     0.0000     0.0000 
  108.6250     0.0000     0.0000     0.0000     0.0000     0.0000     0.0000     0.0000 
  108.7500     0.0000     0.0000     0.0000     0.0000     0.0000     0.0000     0.0000 
  108.8750     0.0000     0.0000     0.0000     0.0000     0.0000     0.0000     0.0000 
  109.0000     0.0000     0.0000     0.0000     0.0000     0.0000     0.0000     0.0000 
  109.1250     0.0000     0.0000     0.0000     0.0000     0.0000     0.0000     0.0000 
  109.2500     0.0000     0.0000     0.0000     0.0000     0.0000     0.0000     0.0000 
  109.3750     0.0000     0.0000     0.0000     0.0000     0.0000     0.0000     0.0000 
  109.5000     0.0000     0.0000     0.0000     0.0000     0.0000     0.0000     0.0000 
  109.6250     0.0000     0.0000     0.0000     0.0000     0.0000     0.0000     0.0000 
  109.7500     0.0000     0.0000     0.0000     0.0000     0.0000     0.0000     0.0000 
  109.8750     0.0000     0.0000     0.0000     0.0000     0.0000     0.0000     0.0000 
  110.0000   435.2080    21.0970     4.3170     6.5570     7.4160     8.3960    -9.7780 
  110.1250   441.1960    21.0020     4.4140     6.9590     7.6230     8.3910   -10.1690 
  110.2500   447.3540    20.9570     4.5290     7.0500     7.5850     8.5130   -10.6130 
  110.3750   454.1270    20.9120     4.5090     6.7550     7.3680     8.5780   -10.9620 
  110.5000   461.7930    20.8840     4.2960     6.4010     7.1330     8.4450   -11.0750 
  110.6250   465.4770    20.8570     4.2810     6.1900     6.9950     8.0860    -9.7780 
  110.7500   463.0610    20.8510     4.4600     6.1260     6.9370     7.7740   -10.1690 
  110.8750   444.4740    20.8480     4.6080     6.3100     6.9960     7.7710   -10.6130 
  111.0000   429.2850    20.9370     4.3590     6.6150     7.2940     8.1750   -10.9620 
  111.1250   422.4050    21.0310     4.3830     6.9470     7.7210     8.5780   -11.0750 
