~V
VERS. 2.00: Ver 2.00
~W
STRT.M 10.0000:
STOP.M 249.0000:
STEP.M 0.1250:
NULL. -999.2500:
UWI. Z117:
~C
DEPT.M :
AC.US/MT :
CALI.CM :
GR.API :
RI. :
RML.OHMM :
RXO.OHMM :
SP.MV :
~A
# ...
  223.7500   429.0560    20.9570     5.5790     2.9980     3.3750     3.3210     2.3800 
  223.8750   425.0120    21.0300     5.7190     3.4410     4.0720     2.1380     2.5760 
  224.0000   423.0250    21.1030     5.8560     3.9530     4.4630     3.1910     2.6840 
  224.1250   422.5340    21.1760     5.9340     4.6190     4.9710     4.5840     2.7730 
  224.2500   423.3510    21.2070     5.5770     5.0450     5.3480     4.7060     2.8610 
  224.3750   418.2480    21.2340     5.3900     5.4490     5.7260     5.0610     2.9300 
  224.5000   409.1830    21.2600     5.2760     5.7540     5.9850     5.7440     2.9840 
  224.6250   399.0380    21.2600     5.0340     5.6420     6.0860     6.0850     3.0390 
  224.7500   391.9020    21.2150     4.8330     5.3480     5.9120     6.0330     3.0760 
  224.8750   390.7530    21.1690     4.7680     4.9960     5.3480     5.5000     3.0540 
  225.0000   397.8150    21.0260     4.9070     4.8260     4.8730     5.2200     3.0320 
  225.1250   406.1960    20.8820     5.0720     4.6530     4.4270     4.9660     2.9730 
  225.2500   414.6610    20.7520     5.2520     4.3360     4.1090     4.7370     2.8760 
  225.3750   421.7390    20.6630     5.2500     4.1520     3.9190     4.5260     2.7800 
  225.5000   430.2910    20.6030     5.1800     4.0490     3.8530     4.2930     2.6610 
  225.6250   439.3900    20.5640     5.1800     4.0390     3.8700     4.1010     2.4840 
  225.7500   444.1350    20.5280     5.2700     4.1100     4.1010     3.9420     2.3070 
  225.8750   438.4800    20.4900     5.3300     4.1800     4.5020     3.7840     2.0860 
  226.0000   431.1250    20.4800     5.3570     4.2500     4.8660     3.6820     1.8470 
  226.1250   425.5060    20.4990     5.2540     4.5700     5.2080     3.6770     1.6080 
  226.2500   423.5430    20.6130     5.1040     4.8960     5.5450     4.4150     1.2010 
  226.3750   420.7430    20.7270     4.9460     5.1500     5.7210     5.2070     0.7880 
  226.5000   415.3170    20.8420     4.7940     5.2410     5.9750     5.1440     0.3780 
  226.6250   408.2890    20.9560     4.6500     5.2100     6.1430     5.5940    -0.0300 
  226.7500   403.7620    21.0700     4.5250     5.1340     5.9390     6.5510    -0.4370 
  226.8750   412.2000    21.1840     4.6520     4.9950     5.4450     6.3370    -0.9110 
  227.0000   425.7730    21.2980     4.8690     4.9140     5.0520     5.3180    -1.4540 
  227.1250   424.2940    21.3170     5.0420     4.9070     4.8280     5.3490    -1.9980 
  227.2500   419.1850    21.1400     5.1740     4.8110     5.0460     5.8440    -2.5390 
  227.3750   417.6010    20.9650     5.2890     4.9510     6.3190     5.5810    -3.0540 
  227.5000   416.6360    20.7910     5.4010     5.5560     8.6470     5.1020    -3.5680 
  227.6250   406.8440    20.6120     5.5260     7.2100    12.2740     5.2150    -4.0680 
  227.7500   395.7510    20.4750     5.5870     9.3390    19.0220     7.6090    -4.4980 
  227.8750   383.7290    20.4210     5.3990    12.9850    25.8650    13.2130    -4.9280 
  228.0000   379.2510    20.3670     5.0430    21.8110    31.8670    12.8820    -5.3670 
  228.1250   384.8030    20.3140     4.5920    32.3160    45.8000    20.7110    -5.8310 
  228.2500   389.5140    20.2780     4.2550    38.1480    64.0350    32.3680    -6.2940 
  228.3750   383.7750    20.2750     3.9950    43.4880    72.2210    51.7670    -6.7140 
  228.5000   371.8610    20.2730     3.8330    48.8460    78.7130    47.8930    -7.1350 
  228.6250   353.9180    20.2780     3.8500    60.9950    84.0060    46.0830    -7.5610 
  228.7500   341.9010    20.3030     4.0690    69.8820    88.4560    61.9110    -7.9900 
  228.8750   334.7690    20.3280     4.3570    77.0860    93.0800    56.9910    -8.3420 
  229.0000   346.5510    20.3530     4.2680    79.0350    86.5320    51.5540    -8.6530 
  229.1250   362.3200    20.3810     4.1330    70.7950    80.4570    70.5860    -8.9540 
  229.2500   378.9490    20.4100     4.0380    67.7050    75.7090    66.2000    -9.2420 
  229.3750   394.4160    20.4550     4.0140    83.4980    98.0840    58.1060    -9.5370 
  229.5000   409.4320    20.5000     4.1670    81.1490    96.4120    45.8610    -9.8480 
  229.6250   419.7380    20.5450     4.3160    78.6350    93.2990    70.9730   -10.0850 
  229.7500   415.1430    20.5690     4.2670    85.2330    90.2510    54.5330   -10.2570 
  229.8750   409.0370    20.5880     4.1810   100.6240   101.5870    55.4230   -10.4680 
  230.0000   402.3980    20.6080     4.1300   108.1920   116.8210    70.2120   -10.5770 
  230.1250   397.1550    20.6270     4.1740   108.8970   127.9300    77.5410   -10.5660 
  230.2500   396.4630    20.6420     4.2850   103.3980   130.2380    75.2250   -10.4490 
  230.3750   405.1280    20.6400     4.3600    94.6480   125.4850    91.8920   -10.2600 
  230.5000   403.6400    20.6370     4.3010    86.6290   113.0540    72.4550   -10.0030 
  230.6250   395.3310    20.6340     4.2060    95.8200   100.5660    64.4680    -9.7230 
  230.7500   390.8270    20.6320     4.1320    93.5100   111.1520    51.3670    -9.2990 
  230.8750   403.6090    20.6290     4.0830    84.7670   108.7480    80.7710    -8.8740 
  231.0000   440.9500    20.6260     4.1110    78.3220   100.8580    76.6650    -8.5820 
  231.1250   491.1340    20.6230     4.2840    73.8230    89.3500    67.1840    -8.2990 
  231.2500   472.7450    20.6210     4.5620    68.4470    78.2550    58.4410    -8.0820 
  231.3750   445.3660    20.6180     4.6730    58.4400    67.3400    48.3840    -8.0150 
  231.5000   403.1210    20.6150     4.5870    59.7720    68.4630    39.6080    -8.1760 
  231.6250   396.0900    20.6120     4.4540    70.7300    78.0820    35.2750    -8.4040 
  231.7500   427.5800    20.6100     4.5420    89.2650   100.1480    40.6100    -8.6580 
  231.8750   516.3120    20.6070     4.7710    87.3350   103.1260    62.2710    -8.9260 
  232.0000   525.8340    20.6040     4.7610    85.3390    99.6380    58.3530    -9.1680 
  232.1250   534.5000    20.6010     4.6410    96.4700    97.0150    52.3170    -9.3770 
  232.2500   541.1630    20.5990     4.0010   118.0400   109.7050    47.0110    -9.5860 
  232.3750   529.7390    20.5960     3.9470   117.7290   123.3770    43.7640    -9.8270 
  232.5000   508.1030    20.5930     4.0550   114.3280   138.6500    49.6180   -10.0670 
  232.6250   444.7570    20.5980     4.1890   102.7170   134.6410    68.3640   -10.3020 
  232.7500   356.1020    20.6280     4.3230    71.5370   121.0390    95.7600   -10.5370 
  232.8750   360.9540    20.6570     4.3880    54.5730   100.9170   106.2390   -10.7260 
  233.0000   396.9250    20.6860     4.2030    49.4150    80.7960    82.7860   -10.9030 
  233.1250   422.4210    20.7150     3.9960    47.9370    60.6740    59.3330   -11.0610 
  233.2500   424.2900    20.7490     3.8450    55.3830    61.2730    39.1040   -11.3060 
  233.3750   413.3570    20.7880     3.7780    67.6680    73.3510    32.8770   -11.5650 
  233.5000   408.1250    20.8270     3.8760    86.4330    88.5640    58.0180   -11.8080 
  233.6250   424.0090    20.8240     4.0030    92.5690    98.5970    56.7940   -12.0640 
  233.7500   417.9280    20.8210     4.0150    91.8810   105.4440    62.7990   -12.3330 
  233.8750   396.4240    20.8250     4.0060    91.3140   104.5380    57.5100   -12.6440 
  234.0000   399.2130    20.8430     4.1100    93.3210   107.9790    64.7350   -12.7920 
  234.1250   408.1280    20.8620     4.1900    96.7050   111.2480    60.4150   -12.8860 
  234.2500   416.1660    20.8550     4.1120    98.6290   113.2480    53.9150   -12.9590 
  234.3750   423.5790    20.8460     4.0510    99.3610   114.3860    47.4150   -12.8190 
  234.5000   430.9910    20.8370     4.1300    99.7810   115.7040    62.3210   -12.6570 
  234.6250   438.1480    20.8270     4.2810    99.4370   116.8630    60.2770   -12.4470 
  234.7500   434.9810    20.8180     4.3060    98.7950   116.0890    57.7990   -12.2370 
  234.8750   431.8150    20.8090     4.2870    98.0960   114.6260    65.3420   -12.2070 
