~V
VERS. 2.00: Ver 2.00
~W
STRT.M 10.0000:
STOP.M 249.0000:
STEP.M 0.1250:
NULL. -999.2500:
UWI. Z117:
~C
DEPT.M :
AC.US/MT :
CALI.CM :
GR.API :
RI. :
RML.OHMM :
RXO.OHMM :
SP.MV :
~A
# ...
  111.2500   420.7130    21.1240     4.5520     7.2490     8.1390     8.9080   -11.0540 
  111.3750   438.3280    21.2180     4.7220     7.3440     8.6070     9.1870   -10.9660 
  111.5000   462.9480    21.3120     4.3380     7.5600     8.7830     9.3590   -10.7180 
  111.6250   277.2970    21.4550     4.2240     8.2060     8.9390     9.3910   -10.4950 
  111.7500   265.1920    21.6230     4.2760     8.8330     9.4590     8.8440   -10.3590 
  111.8750   276.4830    21.7670     4.3470     9.3710    10.2140     8.3970   -10.2740 
  112.0000   330.1200    21.5680     4.1590     8.3390    11.0410     8.4280   -10.2470 
  112.1250   358.1140    21.2060     4.2910     7.5430    10.6890     9.0360   -10.4350 
  112.2500   509.5030    21.0140     4.4110     7.1150     8.8370     9.1850   -10.5230 
  112.3750   526.7880    20.9720     4.5360     7.0280     8.0130     9.3370   -10.5520 
  112.5000   496.1830    20.9660     4.3760     7.0350     8.0770     9.5000   -10.5560 
  112.6250   457.9550    20.9800     4.2670     7.2140     8.2150     9.9570   -10.4110 
  112.7500   458.2960    21.0040     4.3330     7.3540     8.4010    10.8660   -10.2390 
  112.8750   472.3520    21.1040     4.3910     7.4500     8.6240     9.4040   -10.0340 
  113.0000   486.6160    21.2340     4.4370     7.4900     8.7610     8.8740    -9.8060 
  113.1250   461.1000    21.2580     4.4830     7.2660     8.8040     9.1500    -9.5790 
  113.2500   454.1380    21.2560     4.5150     6.5670     8.7300    10.5120    -9.3850 
  113.3750   453.1450    21.2530     4.2170     6.1870     8.4200    13.0440    -9.1900 
  113.5000   462.3710    21.2500     4.3050     5.8270     7.7860    15.6810    -9.0150 
  113.6250   478.4110    21.2250     4.4900     5.5180     7.2010     9.0100    -8.8460 
  113.7500   497.9220    21.1990     4.6470     5.3780     6.8030     7.3950    -8.6780 
  113.8750   491.7700    21.2250     4.3310     5.6780     6.4510     6.5990    -8.5160 
  114.0000   490.9520    21.2660     4.2630     6.1350     6.4940     7.6210    -8.3760 
  114.1250   499.5620    21.3270     4.3480     6.6260     7.1980     8.6230    -8.3800 
  114.2500   492.5480    21.3870     4.4100     7.1420     7.8330     9.4820    -8.6000 
  114.3750   464.7140    21.4230     4.1920     7.4110     8.4600    10.1920    -9.0200 
  114.5000   434.6680    21.4580     4.0050     7.3600     8.9710     9.9730    -9.5250 
  114.6250   407.6540    21.4940     3.8530     7.1690     9.3050     9.5040   -10.0010 
  114.7500   401.6970    21.5290     3.9120     6.9500     9.0290     9.5290   -10.4060 
  114.8750   442.7670    21.5260     4.0010     6.7870     8.0930    10.9610   -10.7800 
  115.0000   462.5580    21.4470     4.1010     6.7780     7.8780    13.0370   -11.0300 
  115.1250   450.5100    21.2270     4.1350     6.7710     7.9490    10.4660   -11.2800 
  115.2500   440.4790    20.9280     4.2410     6.9300     8.3340     7.9370   -11.4460 
  115.3750   446.3700    20.7490     4.4620     7.1480     8.6230     8.7890   -11.5890 
  115.5000   453.2880    20.7110     4.5880     7.1470     8.2370     9.5690   -11.6400 
  115.6250   454.1960    20.7450     4.5120     7.1400     7.9490     8.9270   -11.6910 
  115.7500   443.3220    20.8290     4.4530     7.0610     8.4170     7.3390   -11.7210 
  115.8750   440.8920    20.9050     4.6310     6.9270     8.8450     7.5920   -11.7490 
  116.0000   444.9490    20.9790     4.8290     6.9200     8.5370     8.7700   -11.7220 
  116.1250   448.7880    21.0520     4.7220     7.2370     8.2920     9.3610   -11.6850 
  116.2500   449.4650    21.1260     4.5490     7.4450     8.2380     9.4360   -11.5890 
  116.3750   444.9170    21.1770     4.4650     7.4950     8.3690     9.4310   -11.4130 
  116.5000   440.0520    21.2230     4.2520     7.4880     8.6050     9.4260   -11.1720 
  116.6250   435.1350    21.2330     4.1970     7.4810     8.6340     9.6030   -10.8660 
  116.7500   431.4560    21.2300     4.2900     7.3870     8.5570     9.7130   -10.5540 
  116.8750   478.0600    21.2280     4.3960     7.2560     8.2840     9.6210   -10.2330 
  117.0000   507.0250    21.2250     4.4380     7.1360     8.0150     9.2990    -9.9110 
  117.1250   528.0050    21.2280     4.3150     7.0540     7.8320     9.0070    -9.5780 
  117.2500   549.8550    21.2500     4.3910     7.0470     7.8760     8.8060    -9.2270 
  117.3750   551.1920    21.2720     4.3710     7.1770     8.6250     9.7140    -8.8750 
  117.5000   331.4220    21.2960     4.1770     7.7920    10.0820    25.4540    -8.5390 
  117.6250   347.5190    21.3250     4.2730     8.9070    11.5280    82.5730    -8.2750 
  117.7500   375.5880    21.3720     4.2930    10.0910    12.9130    23.2780    -8.0110 
  117.8750   401.2670    21.4300     4.1640     9.7620    11.9400     8.9700    -7.8590 
  118.0000   255.1840    21.5550     4.2010    10.1950    12.3250     8.3450    -7.7530 
  118.1250   289.3320    21.6790     4.3160    11.0530    13.5700     7.7190    -7.7100 
  118.2500   345.8710    21.8040     4.4250    11.9110    14.8840     7.4190    -7.6690 
  118.3750   358.6800    21.8070     4.5490    11.7330    11.0290     7.4620    -7.6520 
  118.5000   367.1520    21.7570     4.3870     8.4010     7.7210     7.9110    -7.6350 
  118.6250   429.2690    21.6710     4.3730     6.9810     7.0830     8.6680    -7.6980 
  118.7500   440.9370    21.5410     4.4410     6.7620     7.2110     9.3070    -7.7980 
  118.8750   446.0690    21.4150     4.2990     6.8420     7.4360     9.2010    -7.8990 
  119.0000   445.0000    21.3020     4.1840     7.0590     7.6830     8.7560    -8.0050 
  119.1250   454.0480    21.2030     4.2130     7.2000     7.9210     8.5330    -8.1120 
  119.2500   463.3680    21.1290     4.2270     7.3400     8.0760     8.9460    -8.1640 
  119.3750   454.3320    21.0670     4.0560     7.4800     8.1760     9.3590    -8.1920 
  119.5000   441.8790    21.0320     3.9180     7.5150     8.1560     9.7720    -8.0940 
  119.6250   450.1980    21.0150     3.9850     7.5080     7.8830     9.3630    -7.9130 
  119.7500   459.9050    21.0120     4.0530     7.3690     7.5240     8.7330    -7.4960 
  119.8750   469.5840    21.0090     4.1250     7.1360     7.2640     9.1130    -7.0560 
  120.0000   474.9570    21.0070     4.2650     6.8420     7.1070     9.3860    -6.5430 
  120.1250   467.7530    21.0250     4.3910     6.6830     7.0530     7.4440    -6.0580 
  120.2500   446.9300    21.0440     4.4810     6.7230     7.1180     7.0950    -5.5960 
  120.3750   450.0050    21.0650     4.2870     6.8750     7.4390     9.0080    -5.1620 
  120.5000   453.0820    21.0890     4.1610     7.2550     7.8770     9.1720    -4.7570 
  120.6250   443.1720    21.1340     4.2840     7.4080     8.0900     9.1670    -4.3900 
  120.7500   435.8250    21.1890     4.6540     7.4900     8.1740     9.1620    -3.8130 
  120.8750   439.4970    21.2750     4.7530     7.5350     8.2560     8.4920    -3.2720 
  121.0000   443.4160    21.3920     4.9500     7.5550     8.5240     7.5990    -2.7070 
  121.1250   332.5400    21.5060     5.1890     8.4740     9.5160     7.2710    -2.1020 
  121.2500   322.1410    21.5770     5.3070     9.6460    11.0510    10.8850    -1.5630 
  121.3750   428.3650    21.6450     5.5370     7.0370    10.5570    17.2540    -1.0250 
  121.5000   462.0850    21.6960     5.7460     4.6810     4.4850    26.3560    -0.4620 
  121.6250   449.9090    21.7400     5.9010     4.3250     4.1930     7.5910    -0.0570 
  121.7500   422.0810    21.7600     6.0550     4.6980     4.8590     3.8430     0.5030 
  121.8750   426.3640    21.7810     6.1890     4.8740     5.4420     4.6860     0.8920 
  122.0000   432.5250    21.7290     6.1820     4.7110     5.1970     5.0470     1.0420 
  122.1250   437.0280    21.6740     5.7320     4.3170     4.7510     4.9840     0.9210 
  122.2500   441.0540    21.6400     5.7480     4.0200     4.5660     4.9560     0.7370 
  122.3750   445.0460    21.6060     5.8110     4.1220     4.8650     3.4990     0.3070 
