~V
VERS. 2.00: Ver 2.00
~W
STRT.M 10.0000:
STOP.M 249.0000:
STEP.M 0.1250:
NULL. -999.2500:
UWI. Z117:
~C
DEPT.M :
AC.US/MT :
CALI.CM :
GR.API :
RI. :
RML.OHMM :
RXO.OHMM :
SP.MV :
~A
   10.0000     0.0000     0.0000     0.0000     0.0000     0.0000     0.0000     0.0000 
   10.1250     0.0000     0.0000     0.0000     0.0000     0.0000     0.0000     0.0000 
   10.2500     0.0000     0.0000     0.0000     0.0000     0.0000     0.0000     0.0000 
   10.3750     0.0000     0.0000     0.0000     0.0000     0.0000     0.0000     0.0000 
   10.5000     0.0000     0.0000     0.0000     0.0000     0.0000     0.0000     0.0000 
   10.6250     0.0000     0.0000     0.0000     0.0000     0.0000     0.0000     0.0000 
   10.7500     0.0000     0.0000     0.0000     0.0000     0.0000     0.0000     0.0000 
   10.8750     0.0000     0.0000     0.0000     0.0000     0.0000     0.0000     0.0000 
   11.0000     0.0000     0.0000     0.0000     0.0000     0.0000     0.0000     0.0000 
   11.1250     0.0000     0.0000     0.0000     0.0000     0.0000     0.0000     0.0000 
   11.2500     0.0000     0.0000     0.0000     0.0000     0.0000     0.0000     0.0000 
   11.3750     0.0000     0.0000     0.0000     0.0000     0.0000     0.0000     0.0000 
   11.5000     0.0000     0.0000     0.0000     0.0000     0.0000     0.0000     0.0000 
   11.6250     0.0000     0.0000     0.0000     0.0000     0.0000     0.0000     0.0000 
   11.7500     0.0000     0.0000     0.0000     0.0000     0.0000     0.0000     0.0000 
   11.8750     0.0000     0.0000     0.0000     0.0000     0.0000     0.0000     0.0000 
   12.0000     0.0000     0.0000     0.0000     0.0000     0.0000     0.0000     0.0000 
   12.1250     0.0000     0.0000     0.0000     0.0000     0.0000     0.0000     0.0000 
   12.2500     0.0000     0.0000     0.0000     0.0000     0.0000     0.0000     0.0000 
   12.3750     0.0000     0.0000     0.0000     0.0000     0.0000     0.0000     0.0000 
   12.5000     0.0000     0.0000     0.0000     0.0000     0.0000     0.0000     0.0000 
   12.6250     0.0000     0.0000     0.0000     0.0000     0.0000     0.0000     0.0000 
   12.7500     0.0000     0.0000     0.0000     0.0000     0.0000     0.0000     0.0000 
   12.8750     0.0000     0.0000     0.0000     0.0000     0.0000     0.0000     0.0000 
   13.0000     0.0000     0.0000     0.0000     0.0000     0.0000     0.0000     0.0000 
   13.1250     0.0000     0.0000     0.0000     0.0000     0.0000     0.0000     0.0000 
   13.2500     0.0000     0.0000     0.0000     0.0000     0.0000     0.0000     0.0000 
   13.3750     0.0000     0.0000     0.0000     0.0000     0.0000     0.0000     0.0000 
   13.5000     0.0000     0.0000     0.0000     0.0000     0.0000     0.0000     0.0000 
   13.6250     0.0000     0.0000     0.0000     0.0000     0.0000     0.0000     0.0000 
   13.7500     0.0000     0.0000     0.0000     0.0000     0.0000     0.0000     0.0000 
   13.8750     0.0000     0.0000     0.0000     0.0000     0.0000     0.0000     0.0000 
   14.0000     0.0000     0.0000     0.0000     0.0000     0.0000     0.0000     0.0000 
   14.1250     0.0000     0.0000     0.0000     0.0000     0.0000     0.0000     0.0000 
   14.2500     0.0000     0.0000     0.0000     0.0000     0.0000     0.0000     0.0000 
   14.3750     0.0000     0.0000     0.0000     0.0000     0.0000     0.0000     0.0000 
   14.5000     0.0000     0.0000     0.0000     0.0000     0.0000     0.0000     0.0000 
   14.6250     0.0000     0.0000     0.0000     0.0000     0.0000     0.0000     0.0000 
   14.7500     0.0000     0.0000     0.0000     0.0000     0.0000     0.0000     0.0000 
   14.8750     0.0000     0.0000     0.0000     0.0000     0.0000     0.0000     0.0000 
   15.0000     0.0000     0.0000     0.0000     0.0000     0.0000     0.0000     0.0000 
   15.1250     0.0000     0.0000     0.0000     0.0000     0.0000     0.0000     0.0000 
   15.2500     0.0000     0.0000     0.0000     0.0000     0.0000     0.0000     0.0000 
   15.3750     0.0000     0.0000     0.0000     0.0000     0.0000     0.0000     0.0000 
   15.5000     0.0000     0.0000     0.0000     0.0000     0.0000     0.0000     0.0000 
   15.6250     0.0000     0.0000     0.0000     0.0000     0.0000     0.0000     0.0000 
   15.7500     0.0000     0.0000     0.0000     0.0000     0.0000     0.0000     0.0000 
   15.8750     0.0000     0.0000     0.0000     0.0000     0.0000     0.0000     0.0000 
   16.0000     0.0000     0.0000     0.0000     0.0000     0.0000     0.0000     0.0000 
   16.1250     0.0000     0.0000     0.0000     0.0000     0.0000     0.0000     0.0000 
   16.2500     0.0000     0.0000     0.0000     0.0000     0.0000     0.0000     0.0000 
   16.3750     0.0000     0.0000     0.0000     0.0000     0.0000     0.0000     0.0000 
   16.5000     0.0000     0.0000     0.0000     0.0000     0.0000     0.0000     0.0000 
   16.6250     0.0000     0.0000     0.0000     0.0000     0.0000     0.0000     0.0000 
   16.7500     0.0000     0.0000     0.0000     0.0000     0.0000     0.0000     0.0000 
   16.8750     0.0000     0.0000     0.0000     0.0000     0.0000     0.0000     0.0000 
   17.0000     0.0000     0.0000     0.0000     0.0000     0.0000     0.0000     0.0000 
   17.1250     0.0000     0.0000     0.0000     0.0000     0.0000     0.0000     0.0000 
   17.2500     0.0000     0.0000     0.0000     0.0000     0.0000     0.0000     0.0000 
   17.3750     0.0000     0.0000     0.0000     0.0000     0.0000     0.0000     0.0000 
   17.5000     0.0000     0.0000     0.0000     0.0000     0.0000     0.0000     0.0000 
   17.6250     0.0000     0.0000     0.0000     0.0000     0.0000     0.0000     0.0000 
   17.7500     0.0000     0.0000     0.0000     0.0000     0.0000     0.0000     0.0000 
   17.8750     0.0000     0.0000     0.0000     0.0000     0.0000     0.0000     0.0000 
   18.0000     0.0000     0.0000     0.0000     0.0000     0.0000     0.0000     0.0000 
   18.1250     0.0000     0.0000     0.0000     0.0000     0.0000     0.0000     0.0000 
   18.2500     0.0000     0.0000     0.0000     0.0000     0.0000     0.0000     0.0000 
   18.3750     0.0000     0.0000     0.0000     0.0000     0.0000     0.0000     0.0000 
   18.5000     0.0000     0.0000     0.0000     0.0000     0.0000     0.0000     0.0000 
   18.6250     0.0000     0.0000     0.0000     0.0000     0.0000     0.0000     0.0000 
   18.7500     0.0000     0.0000     0.0000     0.0000     0.0000     0.0000     0.0000 
   18.8750     0.0000     0.0000     0.0000     0.0000     0.0000     0.0000     0.0000 
   19.0000     0.0000     0.0000     0.0000     0.0000     0.0000     0.0000     0.0000 
   19.1250     0.0000     0.0000     0.0000     0.0000     0.0000     0.0000     0.0000 
   19.2500     0.0000     0.0000     0.0000     0.0000     0.0000     0.0000     0.0000 
   19.3750     0.0000     0.0000     0.0000     0.0000     0.0000     0.0000     0.0000 
   19.5000     0.0000     0.0000     0.0000     0.0000     0.0000     0.0000     0.0000 
   19.6250     0.0000     0.0000     0.0000     0.0000     0.0000     0.0000     0.0000 
   19.7500     0.0000     0.0000     0.0000     0.0000     0.0000     0.0000     0.0000 
   19.8750     0.0000     0.0000     0.0000     0.0000     0.0000     0.0000     0.0000 
   20.0000     0.0000     0.0000     0.0000     0.0000     0.0000     0.0000     0.0000 
   20.1250     0.0000     0.0000     0.0000     0.0000     0.0000     0.0000     0.0000 
   20.2500     0.0000     0.0000     0.0000     0.0000     0.0000     0.0000     0.0000 
   20.3750     0.0000     0.0000     0.0000     0.0000     0.0000     0.0000     0.0000 
   20.5000     0.0000     0.0000     0.0000     0.0000     0.0000     0.0000     0.0000 
   20.6250     0.0000     0.0000     0.0000     0.0000     0.0000     0.0000     0.0000 
   20.7500     0.0000     0.0000     0.0000     0.0000     0.0000     0.0000     0.0000 
   20.8750     0.0000     0.0000     0.0000     0.0000     0.0000     0.0000     0.0000 
   21.0000     0.0000     0.0000     0.0000     0.0000     0.0000     0.0000     0.0000 
   21.1250     0.0000     0.0000     0.0000     0.0000     0.0000     0.0000     0.0000 
