~V
VERS. 2.00: Ver 2.00
~W
STRT.M 10.0000:
STOP.M 249.0000:
STEP.M 0.1250:
NULL. -999.2500:
UWI. Z117:
~C
DEPT.M :
AC.US/MT :
CALI.CM :
GR.API :
RI. :
RML.OHMM :
RXO.OHMM :
SP.MV :
~A
# ...
  156.2500   395.2080    22.8090     5.3930     4.1590     4.4300     3.7420     1.8960 
  156.3750   368.1350    22.4630     5.5140     4.6330     4.8330     4.6030     1.8230 
  156.5000   354.7490    22.1060     5.4670     4.8470     5.3170     5.5810     1.7510 
  156.6250   351.5510    21.7500     5.3500     4.7910     4.4500     6.3800     1.6820 
  156.7500   413.2550    21.6240     5.3420     3.9930     3.3790     4.7650     1.6130 
  156.8750   422.7150    21.5180     5.3970     3.1410     3.1040     3.3310     1.5440 
  157.0000   415.9310    21.4620     5.4980     2.4770     3.4010     2.4950     1.5190 
  157.1250   407.4870    21.4210     5.5840     2.2710     3.9000     3.1130     1.4980 
  157.2500   401.0850    21.4190     5.7180     2.3530     3.4220     3.8340     1.4780 
  157.3750   406.1350    21.4160     5.6380     2.5950     2.7080     3.5210     1.4740 
  157.5000   412.6060    21.4110     5.4450     2.6470     2.4390     3.0700     1.4700 
  157.6250   417.3310    21.3790     5.2970     2.5910     2.2780     2.9860     1.4660 
  157.7500   416.9910    21.3570     5.2360     2.4950     2.2760     2.9810     1.4620 
  157.8750   415.8640    21.3540     5.2410     2.4050     2.7150     3.2510     1.4580 
  158.0000   415.0090    21.3510     5.2780     2.3290     3.1230     3.6620     1.4620 
  158.1250   414.5680    21.3480     5.3280     2.2590     3.1750     3.5980     1.4920 
  158.2500   415.3390    21.3200     5.4040     2.2230     3.1730     3.2910     1.5220 
  158.3750   416.6910    21.2920     5.5260     2.2780     3.1700     3.0240     1.5660 
  158.5000   414.5100    21.2890     5.6930     2.4670     3.1680     2.9370     1.6350 
  158.6250   404.5900    21.2860     5.8640     2.8600     3.2890     3.0440     1.7030 
  158.7500   391.6490    21.2840     6.0170     3.2250     3.6890     3.5970     1.7550 
  158.8750   384.0520    21.2810     6.0020     3.4690     4.1580     3.7070     1.7980 
  159.0000   376.4120    21.3410     5.7160     3.6900     4.3710     3.4370     1.8400 
  159.1250   369.7770    21.4290     5.2990     3.8890     4.4650     3.4360     1.8900 
  159.2500   371.9380    21.5910     5.4220     3.9400     4.1960     4.1980     1.9510 
  159.3750   389.1930    21.8430     5.6110     3.9330     3.7550     5.2110     2.0110 
  159.5000   397.5530    22.0950     5.8000     3.9260     4.0990     5.3380     2.0600 
  159.6250   402.2060    22.3580     5.8180     3.9110     4.4260     4.5530     2.0870 
  159.7500   404.1240    22.6200     5.8010     3.6380     4.3710     3.8640     2.1140 
  159.8750   403.1730    22.8530     5.9700     3.3250     4.1580     3.4720     2.1440 
  160.0000   399.3080    22.7250     6.1700     2.9830     3.9130     3.3980     2.1960 
  160.1250   396.4930    22.3750     6.2180     2.5960     3.6910     3.5800     2.2490 
  160.2500   394.1850    22.0690     6.0120     2.5890     3.4780     3.8710     2.3010 
  160.3750   391.4520    21.8350     5.7460     2.5820     3.3210     3.7410     2.3360 
  160.5000   390.0300    21.7060     5.5820     2.6720     3.2830     3.3690     2.3620 
  160.6250   398.9460    21.6280     5.4870     2.6670     3.2460     2.9510     2.3870 
  160.7500   410.3310    21.5500     5.4450     2.9160     3.2010     2.8640     2.4020 
  160.8750   411.3410    21.7440     5.5150     2.9510     3.1460     2.9220     2.3860 
  161.0000   407.8950    21.9150     5.6050     2.9440     3.0170     3.1370     2.3700 
  161.1250   404.7690    21.9970     5.7320     2.9370     3.4290     3.4090     2.3530 
  161.2500   407.4150    21.9770     5.8630     2.9300     3.5520     3.4370     2.3280 
  161.3750   414.1850    21.7980     6.0020     2.8740     3.6660     3.3940     2.2730 
  161.5000   416.6620    21.6820     6.1380     2.7430     3.5460     3.3280     2.2180 
  161.6250   416.1300    21.6000     6.2640     2.6480     2.9470     3.3240     2.1550 
  161.7500   423.3030    21.4980     6.3850     2.6030     2.6490     3.3190     2.0790 
  161.8750   431.3820    21.4290     6.3530     2.7140     2.8080     3.2720     2.0020 
  162.0000   437.2920    21.4570     6.2180     3.0370     3.4350     3.0200     1.8830 
  162.1250   434.2390    21.4850     6.0660     3.4770     3.5990     3.0840     1.7340 
  162.2500   429.2330    21.5140     5.9280     3.4690     3.5270     3.3860     1.5850 
  162.3750   425.7890    21.5420     5.9730     3.4620     3.3900     3.8820     1.4890 
  162.5000   422.8170    21.5700     6.0690     3.1400     3.2100     3.9220     1.4010 
  162.6250   421.8810    21.5980     5.7400     2.8460     3.0270     3.5130     1.3130 
  162.7500   421.8490    21.6460     5.8070     2.6440     2.8840     3.0610     1.2260 
  162.8750   422.1470    21.7010     5.8620     2.5380     2.8790     2.8710     1.1420 
  163.0000   422.2830    21.7560     5.5780     2.5520     2.9630     2.7240     1.0580 
  163.1250   420.6260    21.8110     5.6030     2.6350     3.1390     2.6240     0.9730 
  163.2500   415.6710    21.8660     5.7030     2.7310     3.3730     2.5690     0.9390 
  163.3750   411.6050    21.8970     5.8050     2.8080     3.4430     2.6600     0.9350 
  163.5000   408.3440    21.8940     5.8400     2.8010     3.4720     2.8600     0.9310 
  163.6250   411.8610    21.8510     5.7150     2.7230     3.4690     3.1150     0.9270 
  163.7500   421.5740    21.8000     5.4960     2.5770     3.4670     3.1420     0.9230 
  163.8750   423.2520    21.7170     5.3620     2.4420     3.4620     3.0690     0.9190 
  164.0000   422.2680    21.6230     5.3300     2.3740     3.4070     3.0340     0.9300 
  164.1250   428.3150    21.5550     5.4050     2.3670     3.3520     3.5480     0.9430 
  164.2500   435.4920    21.5210     5.5020     2.3600     3.2920     4.0480     0.9560 
  164.3750   438.3850    21.5180     5.6140     2.3530     3.2530     3.9230     0.9940 
  164.5000   428.4490    21.6580     5.4390     2.4950     3.2500     3.6580     1.0340 
  164.6250   413.8970    21.8410     5.3020     2.7610     3.7310     3.5030     1.0740 
  164.7500   406.2570    21.9570     5.4640     3.1980     4.9550     3.5690     1.1190 
  164.8750   389.2520    22.0330     5.6360     4.2270     6.2830     3.8710     1.1660 
  165.0000   357.2710    22.0200     5.8280     6.1300    11.9050     4.9690     1.2130 
  165.1250   324.9130    21.6560     6.0070    11.4160    16.3570     7.4230     1.2560 
  165.2500   405.9560    21.3350     6.1700     9.4390     7.7660    21.4390     1.2960 
  165.3750   456.1940    21.1910     6.3150     6.5260     4.7980    24.0950     1.3360 
  165.5000   442.3840    21.4480     5.9990     3.6980     3.8900    18.4910     1.3670 
  165.6250   423.3320    21.7420     5.4400     2.7610     3.1460     3.0850     1.3780 
  165.7500   411.4780    22.0310     5.2280     2.5720     3.0240     3.9510     1.3880 
  165.8750   411.8990    22.2060     4.9420     2.8240     3.0270     4.5410     1.3990 
  166.0000   415.5060    22.2140     4.8490     3.0070     3.1270     3.4050     1.3800 
  166.1250   407.8360    21.9300     4.8230     3.1330     3.2040     2.3660     1.3600 
  166.2500   399.9550    21.5280     4.8850     3.1400     3.3450     1.9580     1.3400 
  166.3750   404.0830    21.8520     4.9760     3.0540     3.4490     2.2630     1.3190 
  166.5000   414.6320    22.2030     5.0760     2.8410     3.5090     2.7060     1.2980 
  166.6250   428.5620    22.4510     5.2120     2.6010     3.5760     2.9320     1.2770 
  166.7500   439.7340    22.6330     5.3510     2.4150     3.6090     2.8500     1.2370 
  166.8750   448.0170    22.6880     5.3980     2.4080     3.6060     2.6330     1.1960 
  167.0000   446.4010    22.6850     5.2210     2.4010     3.5180     2.3990     1.1610 
  167.1250   435.4680    22.6710     5.0370     2.3940     3.4010     2.2070     1.1410 
  167.2500   422.2880    22.5770     5.3200     2.3860     3.1470     2.1170     1.1210 
  167.3750   411.5990    22.3110     5.4070     2.4390     2.9690     2.3060     1.1040 
