~V
VERS. 2.00: Ver 2.00
~W
STRT.M 10.0000:
STOP.M 249.0000:
STEP.M 0.1250:
NULL. -999.2500:
UWI. Z117:
~C
DEPT.M :
AC.US/MT :
CALI.CM :
GR.API :
RI. :
RML.OHMM :
RXO.OHMM :
SP.MV :
~A
# ...
  178.7500   555.3030    21.4890     5.3760     7.1990     7.8040     7.4010    -7.3340 
  178.8750   556.6740    21.5080     5.6680     7.1920     7.6250     6.9410    -7.5690 
  179.0000   549.3780    21.5050     5.7930     7.0590     7.1560     6.6020    -7.8030 
  179.1250   468.6640    21.5020     5.6430     6.5930     6.6600     6.1850    -8.1040 
  179.2500   462.9000    21.5000     5.4430     5.9640     6.7760     5.6520    -8.4850 
  179.3750   452.7710    21.4970     5.2940     5.5940     8.0650     5.1760    -8.8920 
  179.5000   435.5550    21.4940     5.1800     6.2110     9.9520     6.8840    -9.3440 
  179.6250   418.2950    21.4920     5.0510     7.8980    13.9820    11.9750    -9.7810 
  179.7500   405.8540    21.4890     4.8400    11.1120    20.3790    16.7690   -10.1730 
  179.8750   403.5530    21.4860     4.6480    14.5020    24.8950    21.1070   -10.5660 
  180.0000   409.9670    21.4830     4.6530    19.7340    28.4090    25.3730   -11.0000 
  180.1250   416.8100    21.4810     4.8850    26.5700    32.0650    28.4870   -11.4420 
  180.2500   424.0490    21.4780     5.0740    33.2470    34.5440    30.0050   -11.8470 
  180.3750   430.8490    21.4690     4.5360    36.2510    35.4220    30.9780   -12.2230 
  180.5000   434.6420    21.4540     4.6460    36.3950    35.3440    33.3940   -12.6070 
  180.6250   425.5500    21.4380     4.7560    36.3330    35.2640    36.5660   -13.0050 
  180.7500   413.8350    21.4230     4.8610    36.2700    35.1840    36.6260   -13.4020 
  180.8750   406.6400    21.3830     4.5470    35.8160    38.7510    33.5020   -13.7790 
  181.0000   410.8960    21.3170     4.0680    35.1560    42.6710    29.2600   -14.1560 
  181.1250   416.7150    21.2510     4.0730    39.1090    47.9160    30.7200   -14.4960 
  181.2500   416.3700    21.2010     4.0930    48.4340    62.0080    40.5910   -14.8280 
  181.3750   406.6840    21.1500     4.2160    58.3650    81.3240    52.6310   -15.1270 
  181.5000   410.4060    21.1000     4.3760    69.6680    95.1900    61.4040   -15.3720 
  181.6250   418.4160    21.0260     4.4320    79.9900   103.3140    70.6720   -15.6140 
  181.7500   424.8810    20.9480     4.4990    92.2420   111.5830    74.3960   -15.8310 
  181.8750   430.6920    20.8710     4.5660   105.6610   130.5410    72.0970   -16.0480 
  182.0000   433.3660    20.7930     4.5300   111.0540   139.9230    68.2570   -16.2490 
  182.1250   427.1680    20.7160     4.3610   112.5450   140.2940    69.5310   -16.4510 
  182.2500   422.1580    20.6630     4.2380   116.1170   143.2750    67.2930   -16.5850 
  182.3750   417.6340    20.6470     4.1360   123.0670   156.4430    63.4520   -16.6990 
  182.5000   412.5570    20.6300     4.1110   138.6410   171.1310    74.0240   -16.8050 
  182.6250   408.8990    20.6140     4.1720   150.9040   183.7250    72.1290   -16.9030 
  182.7500   413.7130    20.5930     4.2360   156.0960   196.5850    69.9250   -16.9800 
  182.8750   422.5100    20.5700     4.3030   153.8740   194.6540    73.2690   -17.0280 
  183.0000   430.6460    20.5510     4.3660   155.0700   178.0110    73.3940   -17.0680 
  183.1250   432.2610    20.5480     4.3550   163.6560   188.3270    69.4780   -17.0720 
  183.2500   426.3530    20.5450     4.2440   168.9960   193.2400    64.1590   -17.0760 
  183.3750   421.5160    20.5570     4.1300   170.9160   183.2210    59.8470   -17.0440 
  183.5000   417.3020    20.5790     4.1450   169.9280   173.6590    63.9850   -17.0100 
  183.6250   414.2790    20.6010     4.1840   164.4770   172.2140    66.9380   -16.9770 
  183.7500   411.6410    20.6220     4.1170   158.8740   172.7510    65.2120   -16.9470 
  183.8750   409.3740    20.6400     3.8690   153.4540   173.6910    63.5740   -16.9160 
  184.0000   420.0710    20.6540     3.8300   150.2380   176.5370    62.2340   -16.8620 
  184.1250   430.1350    20.6670     3.9480   149.4750   179.6570    73.3090   -16.7800 
  184.2500   418.9090    20.6830     4.1400   152.0980   180.2570    71.1160   -16.6990 
  184.3750   413.5540    20.7110     4.3310   153.3110   177.9330    68.5070   -16.6260 
  184.5000   422.9010    20.7380     4.2170   150.5030   173.4480    65.9360   -16.5600 
  184.6250   431.8060    20.7660     4.0360   145.1320   166.2760    69.7690   -16.4940 
  184.7500   440.4240    20.7980     4.1510   140.1050   161.2890    72.7350   -16.4250 
  184.8750   431.5460    20.8310     4.3950   136.2430   157.6830    75.4910   -16.3140 
  185.0000   418.8270    20.8630     4.5410   134.2590   156.9800    72.2530   -16.2020 
  185.1250   411.5060    20.8960     4.4190   138.8320   167.2890    75.4470   -16.0900 
  185.2500   416.3320    20.9190     4.2640   149.1050   180.9030    71.0370   -15.9720 
  185.3750   423.2450    20.9330     4.1700   161.0510   198.9520    72.8790   -15.8280 
  185.5000   429.7030    20.9470     4.2110   176.5380   216.3480    80.9170   -15.6840 
  185.6250   427.9170    20.9700     4.0140   196.8220   238.8600    80.5680   -15.5400 
  185.7500   422.3830    21.0020     3.6770   220.6500   259.9490    88.4670   -15.3820 
  185.8750   417.0440    21.0350     3.7070   239.7510   277.6730    93.1090   -15.1630 
  186.0000   412.3980    21.0600     3.8100   236.2740   267.9560    91.3090   -14.9450 
  186.1250   417.0330    21.0800     3.9090   219.3750   229.6990    87.0040   -14.7270 
  186.2500   425.7420    21.0950     3.8530   203.8430   234.6260    91.2060   -14.5030 
  186.3750   427.4860    21.1020     3.6850   196.2820   242.9960    77.3790   -14.2580 
  186.5000   420.2130    21.1090     3.7520   200.3810   249.0690    81.8950   -14.0120 
  186.6250   413.3620    21.1150     3.8760   206.6590   233.1600    91.2230   -13.7670 
  186.7500   408.2570    21.1220     4.0230   198.5630   205.7410    88.2330   -13.5220 
  186.8750   409.5410    21.1280     4.1560   168.3140   170.0860    78.6870   -13.3250 
  187.0000   428.9980    21.1270     4.2360   136.2730   143.3050    58.4970   -13.1270 
  187.1250   446.3390    21.1240     4.1290   123.6200   144.0680    34.7060   -12.9300 
  187.2500   441.9080    21.1210     3.9440   146.5810   167.6760    19.7690   -12.7860 
  187.3750   433.3230    21.1180     3.7940   168.3010   194.6850    68.0700   -12.7510 
  187.5000   423.5240    21.1160     3.6460   180.1170   217.1800    65.1680   -12.7170 
  187.6250   417.2880    21.1130     3.7000   158.7450   219.9090    56.6820   -12.7580 
  187.7500   434.7880    21.1100     3.8450   141.3940   203.4530    55.7580   -12.8240 
  187.8750   451.4820    21.1080     3.9940   138.4250   176.6510    59.1730   -12.8890 
  188.0000   455.2750    21.1050     4.1550   153.2630   159.4760    64.1180   -12.9440 
  188.1250   444.7050    21.1020     4.0040   170.3320   185.3630    71.5810   -12.9900 
  188.2500   432.8790    21.1080     3.7500   189.1510   214.4050    89.1630   -13.0360 
  188.3750   420.7670    21.1220     3.6390   197.5290   239.4420    66.2860   -13.0820 
  188.5000   412.8570    21.1360     3.7340   175.5250   195.5350    64.1390   -13.0860 
  188.6250   406.6940    21.1700     3.9350   159.1530   174.7640    61.3340   -13.0900 
  188.7500   408.2530    21.2310     4.0990   155.1420   185.5680    61.8200   -13.0940 
  188.8750   413.3880    21.2920     4.2450   158.1120   198.3140    66.7500   -13.0910 
  189.0000   417.3360    21.3830     4.3350   161.2460   191.9490    70.8390   -13.0490 
  189.1250   414.2840    21.5750     4.3570   131.2170   138.2540    75.0800   -13.0060 
  189.2500   406.3620    21.7670     4.3900   105.2260   108.4960    75.5740   -12.9640 
  189.3750   400.3430    21.8710     4.4620    93.5220    99.4460    67.7920   -12.8930 
  189.5000   396.9650    21.8110     4.2260    90.3660    98.3500    60.8420   -12.8200 
  189.6250   403.2710    21.7500     4.2460    93.2670   104.2050    56.3320   -12.7470 
  189.7500   411.7790    21.6890     4.3730    98.5430   110.0600    55.4840   -12.6400 
  189.8750   417.7210    21.5400     4.3200   105.5830   119.4050    69.7940   -12.5210 
