~V
VERS. 2.00: Ver 2.00
~W
STRT.M 10.0000:
STOP.M 249.0000:
STEP.M 0.1250:
NULL. -999.2500:
UWI. Z117:
~C
DEPT.M :
AC.US/MT :
CALI.CM :
GR.API :
RI. :
RML.OHMM :
RXO.OHMM :
SP.MV :
~A
# ...
   66.2500     0.0000     0.0000     0.0000     0.0000     0.0000     0.0000     0.0000 
   66.3750     0.0000     0.0000     0.0000     0.0000     0.0000     0.0000     0.0000 
   66.5000     0.0000     0.0000     0.0000     0.0000     0.0000     0.0000     0.0000 
   66.6250     0.0000     0.0000     0.0000     0.0000     0.0000     0.0000     0.0000 
   66.7500     0.0000     0.0000     0.0000     0.0000     0.0000     0.0000     0.0000 
   66.8750     0.0000     0.0000     0.0000     0.0000     0.0000     0.0000     0.0000 
   67.0000     0.0000     0.0000     0.0000     0.0000     0.0000     0.0000     0.0000 
   67.1250     0.0000     0.0000     0.0000     0.0000     0.0000     0.0000     0.0000 
   67.2500     0.0000     0.0000     0.0000     0.0000     0.0000     0.0000     0.0000 
   67.3750     0.0000     0.0000     0.0000     0.0000     0.0000     0.0000     0.0000 
   67.5000     0.0000     0.0000     0.0000     0.0000     0.0000     0.0000     0.0000 
   67.6250     0.0000     0.0000     0.0000     0.0000     0.0000     0.0000     0.0000 
   67.7500     0.0000     0.0000     0.0000     0.0000     0.0000     0.0000     0.0000 
   67.8750     0.0000     0.0000     0.0000     0.0000     0.0000     0.0000     0.0000 
   68.0000     0.0000     0.0000     0.0000     0.0000     0.0000     0.0000     0.0000 
   68.1250     0.0000     0.0000     0.0000     0.0000     0.0000     0.0000     0.0000 
   68.2500     0.0000     0.0000     0.0000     0.0000     0.0000     0.0000     0.0000 
   68.3750     0.0000     0.0000     0.0000     0.0000     0.0000     0.0000     0.0000 
   68.5000     0.0000     0.0000     0.0000     0.0000     0.0000     0.0000     0.0000 
   68.6250     0.0000     0.0000     0.0000     0.0000     0.0000     0.0000     0.0000 
   68.7500     0.0000     0.0000     0.0000     0.0000     0.0000     0.0000     0.0000 
   68.8750     0.0000     0.0000     0.0000     0.0000     0.0000     0.0000     0.0000 
   69.0000     0.0000     0.0000     0.0000     0.0000     0.0000     0.0000     0.0000 
   69.1250     0.0000     0.0000     0.0000     0.0000     0.0000     0.0000     0.0000 
   69.2500     0.0000     0.0000     0.0000     0.0000     0.0000     0.0000     0.0000 
   69.3750     0.0000     0.0000     0.0000     0.0000     0.0000     0.0000     0.0000 
   69.5000     0.0000     0.0000     0.0000     0.0000     0.0000     0.0000     0.0000 
   69.6250     0.0000     0.0000     0.0000     0.0000     0.0000     0.0000     0.0000 
   69.7500     0.0000     0.0000     0.0000     0.0000     0.0000     0.0000     0.0000 
   69.8750     0.0000     0.0000     0.0000     0.0000     0.0000     0.0000     0.0000 
   70.0000     0.0000     0.0000     0.0000     0.0000     0.0000     0.0000     0.0000 
   70.1250     0.0000     0.0000     0.0000     0.0000     0.0000     0.0000     0.0000 
   70.2500     0.0000     0.0000     0.0000     0.0000     0.0000     0.0000     0.0000 
   70.3750     0.0000     0.0000     0.0000     0.0000     0.0000     0.0000     0.0000 
   70.5000     0.0000     0.0000     0.0000     0.0000     0.0000     0.0000     0.0000 
   70.6250     0.0000     0.0000     0.0000     0.0000     0.0000     0.0000     0.0000 
   70.7500     0.0000     0.0000     0.0000     0.0000     0.0000     0.0000     0.0000 
   70.8750     0.0000     0.0000     0.0000     0.0000     0.0000     0.0000     0.0000 
   71.0000     0.0000     0.0000     0.0000     0.0000     0.0000     0.0000     0.0000 
   71.1250     0.0000     0.0000     0.0000     0.0000     0.0000     0.0000     0.0000 
   71.2500     0.0000     0.0000     0.0000     0.0000     0.0000     0.0000     0.0000 
   71.3750     0.0000     0.0000     0.0000     0.0000     0.0000     0.0000     0.0000 
   71.5000     0.0000     0.0000     0.0000     0.0000     0.0000     0.0000     0.0000 
   71.6250     0.0000     0.0000     0.0000     0.0000     0.0000     0.0000     0.0000 
   71.7500     0.0000     0.0000     0.0000     0.0000     0.0000     0.0000     0.0000 
   71.8750     0.0000     0.0000     0.0000     0.0000     0.0000     0.0000     0.0000 
   72.0000     0.0000     0.0000     0.0000     0.0000     0.0000     0.0000     0.0000 
   72.1250     0.0000     0.0000     0.0000     0.0000     0.0000     0.0000     0.0000 
   72.2500     0.0000     0.0000     0.0000     0.0000     0.0000     0.0000     0.0000 
   72.3750     0.0000     0.0000     0.0000     0.0000     0.0000     0.0000     0.0000 
   72.5000     0.0000     0.0000     0.0000     0.0000     0.0000     0.0000     0.0000 
   72.6250     0.0000     0.0000     0.0000     0.0000     0.0000     0.0000     0.0000 
   72.7500     0.0000     0.0000     0.0000     0.0000     0.0000     0.0000     0.0000 
   72.8750     0.0000     0.0000     0.0000     0.0000     0.0000     0.0000     0.0000 
   73.0000     0.0000     0.0000     0.0000     0.0000     0.0000     0.0000     0.0000 
   73.1250     0.0000     0.0000     0.0000     0.0000     0.0000     0.0000     0.0000 
   73.2500     0.0000     0.0000     0.0000     0.0000     0.0000     0.0000     0.0000 
   73.3750     0.0000     0.0000     0.0000     0.0000     0.0000     0.0000     0.0000 
   73.5000     0.0000     0.0000     0.0000     0.0000     0.0000     0.0000     0.0000 
   73.6250     0.0000     0.0000     0.0000     0.0000     0.0000     0.0000     0.0000 
   73.7500     0.0000     0.0000     0.0000     0.0000     0.0000     0.0000     0.0000 
   73.8750     0.0000     0.0000     0.0000     0.0000     0.0000     0.0000     0.0000 
   74.0000     0.0000     0.0000     0.0000     0.0000     0.0000     0.0000     0.0000 
   74.1250     0.0000     0.0000     0.0000     0.0000     0.0000     0.0000     0.0000 
   74.2500     0.0000     0.0000     0.0000     0.0000     0.0000     0.0000     0.0000 
   74.3750     0.0000     0.0000     0.0000     0.0000     0.0000     0.0000     0.0000 
   74.5000     0.0000     0.0000     0.0000     0.0000     0.0000     0.0000     0.0000 
   74.6250     0.0000     0.0000     0.0000     0.0000     0.0000     0.0000     0.0000 
   74.7500     0.0000     0.0000     0.0000     0.0000     0.0000     0.0000     0.0000 
   74.8750     0.0000     0.0000     0.0000     0.0000     0.0000     0.0000     0.0000 
   75.0000     0.0000     0.0000     0.0000     0.0000     0.0000     0.0000     0.0000 
   75.1250     0.0000     0.0000     0.0000     0.0000     0.0000     0.0000     0.0000 
   75.2500     0.0000     0.0000     0.0000     0.0000     0.0000     0.0000     0.0000 
   75.3750     0.0000     0.0000     0.0000     0.0000     0.0000     0.0000     0.0000 
   75.5000     0.0000     0.0000     0.0000     0.0000     0.0000     0.0000     0.0000 
   75.6250     0.0000     0.0000     0.0000     0.0000     0.0000     0.0000     0.0000 
   75.7500     0.0000     0.0000     0.0000     0.0000     0.0000     0.0000     0.0000 
   75.8750     0.0000     0.0000     0.0000     0.0000     0.0000     0.0000     0.0000 
   76.0000     0.0000     0.0000     0.0000     0.0000     0.0000     0.0000     0.0000 
   76.1250     0.0000     0.0000     0.0000     0.0000     0.0000     0.0000     0.0000 
   76.2500     0.0000     0.0000     0.0000     0.0000     0.0000     0.0000     0.0000 
   76.3750     0.0000     0.0000     0.0000     0.0000     0.0000     0.0000     0.0000 
   76.5000     0.0000     0.0000     0.0000     0.0000     0.0000     0.0000     0.0000 
   76.6250     0.0000     0.0000     0.0000     0.0000     0.0000     0.0000     0.0000 
   76.7500     0.0000     0.0000     0.0000     0.0000     0.0000     0.0000     0.0000 
   76.8750     0.0000     0.0000     0.0000     0.0000     0.0000     0.0000     0.0000 
   77.0000     0.0000     0.0000     0.0000     0.0000     0.0000     0.0000     0.0000 
   77.1250     0.0000     0.0000     0.0000     0.0000     0.0000     0.0000     0.0000 
   77.2500     0.0000     0.0000     0.0000     0.0000     0.0000     0.0000     0.0000 
   77.3750     0.0000     0.0000     0.0000     0.0000     0.0000     0.0000     0.0000 
