~V
VERS. 2.00: Ver 2.00
~W
STRT.M 10.0000:
STOP.M 249.0000:
STEP.M 0.1250:
NULL. -999.2500:
UWI. Z117:
~C
DEPT.M :
AC.US/MT :
CALI.CM :
GR.API :
RI. :
RML.OHMM :
RXO.OHMM :
SP.MV :
~A
# ...
  145.0000   247.7640    21.1410     4.0470    16.6630    17.9280    15.2910     1.7490 
  145.1250   250.1700    21.1220     3.9030    14.7640    15.6500    17.3450     1.7230 
  145.2500   275.7990    21.1190     3.9210    13.3620    14.3290    18.4840     1.5850 
  145.3750   291.8440    21.1160     3.9940    12.1980    14.2690    10.9470     1.4080 
  145.5000   285.5300    21.1140     4.0790    11.4290    15.8480    12.8630     1.2240 
  145.6250   278.2570    21.1110     4.0710    12.3760    17.6400    14.9460     1.0090 
  145.7500   272.6600    21.1080     3.9210    13.8260    17.1690    12.9940     0.7930 
  145.8750   274.1450    21.1050     3.9390    14.4250    13.8650    15.0410     0.6230 
  146.0000   288.9860    21.1030     4.1090    12.4670    15.4240    11.9550     0.4850 
  146.1250   292.5980    21.1020     4.2590    12.5540    17.5480    14.0020     0.3470 
  146.2500   288.4830    21.1160     4.3480    13.8430    17.0790    17.0780     0.2550 
  146.3750   282.1330    21.1310     4.0950    15.1520    15.2980    20.6840     0.1630 
  146.5000   278.5740    21.1450     4.1870    14.8390    16.3320    15.7000     0.1380 
  146.6250   281.8380    21.1590     4.2720    13.8630    17.2590    13.7470     0.1340 
  146.7500   292.8800    21.1740     4.3170    14.4640    15.9180    14.2740     0.2270 
  146.8750   302.6730    21.1880     4.0310    14.5810    15.4890    15.9340     0.3390 
  147.0000   310.6190    21.2020     4.0580    13.4650    16.5000    12.9210     0.4610 
  147.1250   318.4480    21.2170     4.0950    13.4440    17.5000    11.7790     0.6110 
  147.2500   309.6840    21.2250     4.0720    14.6630    16.9800    14.5380     0.7760 
  147.3750   285.2140    21.2010     4.0100    15.3390    17.3580    17.8040     0.9690 
  147.5000   268.8100    21.1770     4.0340    15.4790    18.8060    14.3090     1.0610 
  147.6250   260.9940    21.1100     4.1130    17.6180    21.5960    22.0830     1.0800 
  147.7500   253.9540    21.0280     4.0690    19.8020    24.3950    27.2580     1.0890 
  147.8750   248.3190    20.9550     4.0690    22.2930    26.6540    28.3180     1.0850 
  148.0000   243.4570    20.9260     4.2170    21.3080    24.7870    24.7260     1.0810 
  148.1250   242.9800    20.9030     4.3760    19.6630    22.2630    19.4260     1.0770 
  148.2500   249.1400    20.9000     4.5130    18.1370    19.1760    14.4260     1.0800 
  148.3750   256.6120    20.9050     4.6280    17.5990    19.5540    17.8860     1.1000 
  148.5000   264.3550    20.9420     4.7380    18.9090    21.7060    18.7510     1.1570 
  148.6250   272.4000    20.9790     4.7980    20.2240    21.7690    15.4580     1.3430 
  148.7500   277.8530    20.9920     4.8850    20.7620    24.1990    25.6230     1.5290 
  148.8750   275.3360    20.9890     4.7390    20.1910    22.9940    23.4720     1.7150 
  149.0000   266.3060    20.9860     4.0700    21.7460    23.5520    20.9820     1.8920 
  149.1250   253.9600    20.9830     4.1500    24.6720    28.1280    18.4370     1.9130 
  149.2500   241.2400    20.9810     4.2170    27.0920    31.5860    36.0980     1.9200 
  149.3750   228.5270    20.9780     3.8680    27.7040    29.1990    37.8870     1.8330 
  149.5000   222.9790    21.0020     3.8830    25.3700    24.5040    29.9060     1.7490 
  149.6250   232.9680    21.0440     3.9960    21.5270    19.9520    26.3270     1.6740 
  149.7500   253.1610    21.1280     4.1050    18.2300    17.1930    29.4850     1.6110 
  149.8750   265.0930    21.2260     4.0850    15.8730    16.6390    12.0540     1.5790 
  150.0000   267.7110    21.3390     3.8820    14.9940    16.8530    14.1310     1.5770 
  150.1250   267.8090    21.4000     3.8240    14.6510    17.4920    14.2790     1.6030 
  150.2500   265.8980    21.4410     3.9160    15.4080    18.8780    16.2920     1.6780 
  150.3750   262.0920    21.4820     4.0110    17.5360    20.5760    21.1120     1.7610 
  150.5000   256.5470    21.5220     3.9630    19.9060    22.3060    19.3080     1.8590 
  150.6250   249.1660    21.5630     3.8300    19.7660    24.1470    19.6690     1.9440 
  150.7500   245.0640    21.6040     3.9170    17.6540    21.8020    19.8970     1.9740 
  150.8750   243.8440    21.6450     4.0780    15.3800    18.3350    18.3140     1.9150 
  151.0000   253.8230    21.6570     4.2410    13.2340    15.8180    25.5770     1.8270 
  151.1250   271.9070    21.6540     4.0160    11.5570    13.7680    20.3490     1.6440 
  151.2500   289.0430    21.6510     3.7650    10.4110    12.6460    10.9240     1.4600 
  151.3750   299.7770    21.6320     3.8570     9.9170    12.0660     8.4930     1.2670 
  151.5000   309.2110    21.5740     3.9680    10.0480    11.7720     9.9250     1.0740 
  151.6250   317.5550    21.5150     4.0360    10.6590    11.7730    10.9640     0.9360 
  151.7500   318.9490    21.4400     3.9800    11.7250    12.7340     9.9210     0.8000 
  151.8750   309.3990    21.3520     3.9540    13.7230    13.9210     9.3330     0.6980 
  152.0000   267.8910    21.2780     4.0530    16.6330    20.5870    10.5820     0.6110 
  152.1250   236.2090    21.2750     4.1540    21.0360    27.1750    37.9240     0.5730 
  152.2500   218.0520    21.2890     4.2980    26.4470    28.6220    33.4960     0.5490 
  152.3750   210.9440    21.3570     4.3970    25.1130    26.0640    24.4530     0.5450 
  152.5000   214.2600    21.4740     4.3730    22.8760    22.5440    34.4450     0.5910 
  152.6250   223.3750    21.6040     4.2950    19.7700    20.4850    29.6370     0.6500 
  152.7500   237.1370    21.6610     4.2350    18.1170    24.9140    16.3440     0.7580 
  152.8750   233.1450    21.7070     4.2170    30.0630    39.4670    26.3080     0.8600 
  153.0000   211.8780    21.7150     4.2970    37.9290    41.8730    47.3920     0.9510 
  153.1250   194.6480    21.7120     4.4000    33.8800    32.5740    67.5910     1.0340 
  153.2500   234.0840    21.6460     4.5120    28.8090    20.9530    23.7670     1.0960 
  153.3750   309.8270    21.5520     4.6590     5.9530     9.6400     9.3980     1.1590 
  153.5000   439.2460    21.4710     4.9140     3.3750     4.5750     2.7730     1.2740 
  153.6250   441.0230    21.4050     5.1290     2.9850     3.0560     1.8880     1.3890 
  153.7500   432.9100    21.3930     5.3950     2.6680     2.6580     1.6550     1.4880 
  153.8750   423.2720    21.4040     5.5880     2.3170     3.2160     1.9430     1.5870 
  154.0000   411.1990    21.5610     5.5330     2.3860     3.7910     2.4150     1.6860 
  154.1250   399.7770    21.9040     5.6530     2.7890     4.3030     2.9200     1.7850 
  154.2500   388.8300    22.2920     5.9070     3.3230     4.5690     3.4250     1.8800 
  154.3750   377.8830    22.6800     6.0740     3.8420     4.7250     3.8010     1.9540 
  154.5000   369.4840    23.0690     5.9460     4.0650     4.3690     3.7860     2.0270 
  154.6250   382.3390    23.0880     5.7550     3.5620     3.5360     3.3380     2.0830 
  154.7500   397.6050    22.6380     5.5770     3.0150     3.0180     2.8910     2.1270 
  154.8750   412.2810    22.3960     5.5630     2.4550     2.9920     2.6490     2.1630 
  155.0000   425.4360    22.1660     5.7060     2.1130     3.3540     2.5940     2.1910 
  155.1250   435.7410    22.0180     5.8740     1.9880     4.0210     2.8290     2.2200 
  155.2500   445.3680    21.9090     5.9970     2.0560     4.4480     3.3250     2.2350 
  155.3750   438.2550    21.8710     5.7280     2.4820     4.4760     3.6280     2.2310 
  155.5000   408.6500    21.8970     5.7260     2.9700     3.9240     3.6780     2.2270 
  155.6250   416.8250    22.1260     5.9050     3.3520     3.6280     3.4110     2.2030 
  155.7500   430.4670    22.5820     5.8520     3.3450     3.6250     3.1520     2.1800 
  155.8750   435.5690    23.0170     5.3510     3.3380     3.6640     3.0850     2.1310 
  156.0000   428.9190    23.1880     5.2040     3.3990     3.7570     3.0490     2.0500 
  156.1250   422.3240    23.0980     5.2980     3.7330     3.9910     3.1740     1.9690 
