~V
VERS. 2.00: Ver 2.00
~W
STRT.M 20.0000:
STOP.M 252.0000:
STEP.M 0.1250:
NULL. -999.2500:
UWI. Z118:
~C
DEPT.M :
RML.OHMM :
RI. :
RXO.OHMM :
GR.API :
AC.US/MT :
SP.MV :
CALI.CM :
DEN.GM/CC :
CNL.V/V :
~A
# ...
  184.2500    20.0680    19.0780    23.5650     6.1880   422.6230    -6.2690    22.2090     0.0000     0.0000 
  184.3750    21.8340    17.8570    25.5090     6.3170   424.5600    -6.0780    22.1310     0.0000     0.0000 
  184.5000    19.7730    16.7650    21.1090     6.2780   420.2770    -5.8870    22.0940     0.0000     0.0000 
  184.6250    18.6750    15.9070    18.6910     6.0380   417.8630    -5.7940    22.3230     0.0000     0.0000 
  184.7500    17.7870    16.4940    18.1270     6.2320   420.3770    -5.8030    22.7020     0.0000     0.0000 
  184.8750    17.3880    18.0940    17.7450     6.4510   418.0360    -5.8430    22.7840     0.0000     0.0000 
  185.0000    18.9990    19.4070    19.4880     6.5320   412.6350    -5.9080    22.8310     0.0000     0.0000 
  185.1250    21.0960    20.6920    19.8250     6.3650   409.1400    -5.9730    22.8280     0.0000     0.0000 
  185.2500    23.0960    21.8720    23.3390     6.3990   407.0790    -6.0380    22.7990     0.0000     0.0000 
  185.3750    25.2990    22.2300    24.3610     6.2940   405.2430    -6.1030    22.6680     0.0000     0.0000 
  185.5000    25.4440    21.3260    28.5510     6.1190   403.5400    -6.1680    22.4840     0.0000     0.0000 
  185.6250    24.6600    22.3330    27.0740     6.0360   402.1370    -6.2540    22.4550     0.0000     0.0000 
  185.7500    26.1940    24.5240    27.4350     5.9390   402.5550    -6.3930    22.6970     0.0000     0.0000 
  185.8750    27.4210    26.4690    25.9220     5.7780   404.4520    -6.5310    22.7010     0.0000     0.0000 
  186.0000    24.6310    28.7460    26.5940     5.8610   407.3250    -6.7030    22.3200     0.0000     0.0000 
  186.1250    33.2090    31.5240    30.6400     6.0090   409.2950    -6.9010    22.0380     0.0000     0.0000 
  186.2500    33.7140    34.8750    33.3190     6.0930   409.9690    -7.0370    22.2270     0.0000     0.0000 
  186.3750    33.6540    37.4100    36.0620     5.8400   409.9380    -7.1890    22.2200     0.0000     0.0000 
  186.5000    38.1870    38.3450    38.8110     5.4670   409.9080    -7.3710    22.1950     0.0000     0.0000 
  186.6250    39.5050    39.4060    35.4310     5.4640   409.8770    -7.5540    22.1420     0.0000     0.0000 
  186.7500    37.2340    39.0800    36.8350     5.4590   409.3460    -7.7400    22.2930     0.0000     0.0000 
  186.8750    34.4130    37.8100    38.8550     5.1860   410.8120    -7.9460    22.3450     0.0000     0.0000 
  187.0000    35.5990    35.9660    34.7700     5.0600   411.7800    -8.1520    22.3820     0.0000     0.0000 
  187.1250    44.8760    38.3840    33.1170     5.0040   411.2780    -8.3330    22.3640     0.0000     0.0000 
  187.2500    61.2940    41.2890    33.5620     4.8600   407.6620    -8.4990    22.2830     0.0000     0.0000 
  187.3750    79.7730    56.1690    34.2830     4.8100   405.0650    -8.6820    22.0880     0.0000     0.0000 
  187.5000    93.9390    67.1200    56.8270     4.6160   410.6010    -8.8920    21.8210     0.0000     0.0000 
  187.6250   101.6690    78.3150    66.1630     4.5210   416.9130    -9.1010    21.9880     0.0000     0.0000 
  187.7500   106.3860    87.5670    70.8010     4.6700   420.7970    -9.3110    22.3770     0.0000     0.0000 
  187.8750   114.4090    92.6820    72.6770     4.8160   421.0460    -9.5220    22.4970     0.0000     0.0000 
  188.0000   121.4440    96.3360    73.4140     4.8850   418.4730    -9.7340    22.4860     0.0000     0.0000 
  188.1250   112.8620    96.4690    71.9620     4.6880   417.0980    -9.9770    22.3160     0.0000     0.0000 
  188.2500   105.1190    91.0020    74.7310     4.9610   417.9250   -10.2370    22.2900     0.0000     0.0000 
  188.3750   112.8960    93.2290    78.8710     5.0960   419.9220   -10.4970    22.4480     0.0000     0.0000 
  188.5000   115.2400    96.5640    78.2300     4.9850   418.6570   -10.7570    22.3650     0.0000     0.0000 
  188.6250   115.1790    98.3690    72.3130     4.8590   415.3130   -11.0170    22.1930     0.0000     0.0000 
  188.7500   124.0320   104.7910    76.8060     4.8270   412.8110   -11.2640    22.1480     0.0000     0.0000 
  188.8750   133.6130   110.0270    78.7250     4.9040   412.3100   -11.4700    22.1950     0.0000     0.0000 
  189.0000   138.4100   112.6460    76.5790     4.9290   412.2780   -11.6760    22.3300     0.0000     0.0000 
  189.1250   132.4620   109.9710    78.6280     4.8630   413.2730   -11.8810    22.3300     0.0000     0.0000 
  189.2500   145.5230   107.7750    84.1170     4.8850   416.2550   -12.0270    22.2770     0.0000     0.0000 
  189.3750   159.2670   116.7530    85.5670     4.7920   416.3100   -12.0900    22.3240     0.0000     0.0000 
  189.5000   172.2800   130.5650    77.4720     4.7420   415.4200   -12.1530    22.3090     0.0000     0.0000 
  189.6250   186.4400   133.1930    84.0160     4.8040   415.2500   -12.2170    22.1680     0.0000     0.0000 
  189.7500   177.0860   130.5200    97.7440     4.7320   416.7940   -12.2400    22.0270     0.0000     0.0000 
  189.8750   168.6470   125.9440   104.3730     4.8220   419.1260   -12.2490    21.9700     0.0000     0.0000 
  190.0000   162.4860   123.5180    97.5770     4.7630   420.2780   -12.3330    21.9880     0.0000     0.0000 
  190.1250   159.2500   123.7370    91.8570     4.8010   420.4850   -12.4990    22.0220     0.0000     0.0000 
  190.2500   161.4820   124.7190    90.3910     4.7100   419.2760   -12.6650    22.0330     0.0000     0.0000 
  190.3750   163.1110   125.0380    83.1960     4.6190   418.1460   -12.8310    21.9000     0.0000     0.0000 
  190.5000   170.3160   126.4740    79.4770     4.6810   419.7760   -12.9970    21.9470     0.0000     0.0000 
  190.6250   178.3370   132.8720    80.5330     4.8290   417.9500   -13.1630    21.8790     0.0000     0.0000 
  190.7500   184.6170   136.6930    84.1520     4.9010   415.5730   -13.3300    21.6290     0.0000     0.0000 
  190.8750   190.1440   138.4550    84.2710     4.9730   413.1460   -13.4960    21.5380     0.0000     0.0000 
  191.0000   198.6910   139.4710    84.7160     5.0690   417.6280   -13.6500    21.5350     0.0000     0.0000 
  191.1250   192.0770   140.0800    86.5060     5.1520   421.4520   -13.7960    21.7750     0.0000     0.0000 
  191.2500   177.8420   135.8290    88.6580     5.0900   422.7000   -13.8050    21.8780     0.0000     0.0000 
  191.3750   162.5900   128.9090    87.5620     4.9670   421.8240   -13.7090    21.8750     0.0000     0.0000 
  191.5000   151.2940   109.5700    84.3490     4.9480   419.5240   -13.5430    21.8720     0.0000     0.0000 
  191.6250   146.3980   106.7560    79.2450     5.1020   415.8320   -13.3760    21.9620     0.0000     0.0000 
  191.7500   144.2760   105.3130    74.2520     5.2400   414.0890   -13.2100    22.2160     0.0000     0.0000 
  191.8750   139.0850   102.6980    73.7320     5.1790   415.5670   -13.0440    22.0190     0.0000     0.0000 
  192.0000   126.7230    97.1760    74.5740     4.9980   418.7320   -12.9350    21.8600     0.0000     0.0000 
  192.1250   113.0460    91.1240    75.8770     4.9250   414.2450   -12.8480    21.8570     0.0000     0.0000 
  192.2500    99.3720    78.7520    75.7000     5.0770   409.0330   -12.7720    22.0290     0.0000     0.0000 
  192.3750    86.6540    65.9980    69.2760     5.2150   407.3940   -12.7030    22.0500     0.0000     0.0000 
  192.5000    81.9330    65.2090    61.2730     5.3560   406.2630   -12.6340    21.9970     0.0000     0.0000 
  192.6250    85.6300    65.0150    57.9810     5.4420   409.8900   -12.5450    22.0410     0.0000     0.0000 
  192.7500    90.9760    66.1540    56.0320     5.5110   414.9690   -12.4570    22.1610     0.0000     0.0000 
  192.8750    93.2600    67.7480    55.2610     5.3380   416.5780   -12.3680    22.1880     0.0000     0.0000 
  193.0000    93.2010    69.1580    58.2830     5.2460   416.3750   -12.2790    22.3350     0.0000     0.0000 
  193.1250    93.9080    70.2030    63.3680     5.2250   414.7430   -12.1900    22.3370     0.0000     0.0000 
  193.2500   102.5200    71.1700    65.6260     5.1110   417.2570   -12.0860    22.1300     0.0000     0.0000 
