~V
VERS. 2.00: Ver 2.00
~W
STRT.M 20.0000:
STOP.M 252.0000:
STEP.M 0.1250:
NULL. -999.2500:
UWI. Z118:
~C
DEPT.M :
RML.OHMM :
RI. :
RXO.OHMM :
GR.API :
AC.US/MT :
SP.MV :
CALI.CM :
DEN.GM/CC :
CNL.V/V :
~A
# ...
  111.2500     6.4530     5.4850     6.9930     5.4660   470.2440   -11.8150    22.1000     0.0000     0.0000 
  111.3750     6.3450     5.6230     7.6030     5.4960   482.0420   -11.5280    22.1900     0.0000     0.0000 
  111.5000     6.1350     5.6170     8.2990     5.6050   498.7090   -11.5520    22.3370     0.0000     0.0000 
  111.6250     6.2080     5.4120     7.5400     5.7000   511.2030   -11.8490    22.3400     0.0000     0.0000 
  111.7500     6.4280     5.4060     6.4870     5.7120   516.0680   -11.6960    22.2100     0.0000     0.0000 
  111.8750     6.1020     5.3090     7.1620     5.6320   520.7160   -11.1560    22.1350     0.0000     0.0000 
  112.0000     5.8860     5.2620    12.4990     5.7750   511.5210   -10.6160    22.2010     0.0000     0.0000 
  112.1250     6.6840     5.5310    14.6310     5.6720   495.8980    -9.9900    22.2280     0.0000     0.0000 
  112.2500     6.9130     5.7810     7.9760     5.5220   473.0240    -9.4540    22.2250     0.0000     0.0000 
  112.3750     6.0240     5.5070     6.3530     5.4310   483.0320    -8.9480    22.2220     0.0000     0.0000 
  112.5000     5.3060     4.9240     5.7360     5.3580   494.9930    -8.5750    22.0690     0.0000     0.0000 
  112.6250     5.3480     4.4700     5.7440     5.2990   502.4940    -8.3280    22.0990     0.0000     0.0000 
  112.7500     5.7920     4.5330     6.0060     5.2040   502.7710    -8.2480    22.2630     0.0000     0.0000 
  112.8750     6.2200     4.8290     6.5060     4.9300   503.5940    -8.2530    22.2600     0.0000     0.0000 
  113.0000     6.5700     5.2760     6.6220     4.9860   506.1350    -8.2620    22.2400     0.0000     0.0000 
  113.1250     6.5250     5.3390     6.6160     5.0200   502.4090    -8.4430    22.0560     0.0000     0.0000 
  113.2500     6.2170     4.9520     6.6110     5.0220   500.6650    -8.9520    21.8010     0.0000     0.0000 
  113.3750     6.3810     4.8500     6.2320     5.0760   501.4080    -9.5850    21.8470     0.0000     0.0000 
  113.5000     6.6260     5.1560     6.6470     5.1100   499.3120   -10.1650    22.0370     0.0000     0.0000 
  113.6250     6.7430     5.4760     7.3940     5.0540   493.9590   -10.1550    22.0910     0.0000     0.0000 
  113.7500     6.7420     5.7150     7.3960     5.0370   487.0110   -10.0280    22.1380     0.0000     0.0000 
  113.8750     6.8140     5.6230     7.4240     4.9150   481.1350    -9.9010    22.0850     0.0000     0.0000 
  114.0000     6.8260     5.8920     7.7040     4.9160   477.1250    -9.9810    22.3110     0.0000     0.0000 
  114.1250     6.8200     6.1440     7.7820     5.0070   476.8970   -10.1390    22.4250     0.0000     0.0000 
  114.2500     6.6360     6.3860     7.8310     5.2420   476.8280   -10.3580    22.4580     0.0000     0.0000 
  114.3750     6.1200     5.4280     7.4080     5.3720   474.5240   -10.5770    22.3150     0.0000     0.0000 
  114.5000     4.9590     4.6220     6.2840     5.5080   468.7440   -10.7530    22.2200     0.0000     0.0000 
  114.6250     4.1320     3.8090     5.9180     5.6410   463.6860   -10.3690    22.2610     0.0000     0.0000 
  114.7500     5.3590     4.6400     9.4470     5.7660   455.1770    -9.3610    22.3030     0.0000     0.0000 
  114.8750     7.8430     6.1750    20.0550     5.4730   382.5050    -8.1590    22.2230     0.0000     0.0000 
  115.0000    10.2520     7.7100    31.7630     5.3320   330.3370    -7.1020    22.2820     0.0000     0.0000 
  115.1250    12.5600     9.2460    43.4710     5.2300   321.3840    -5.9750    22.3300     0.0000     0.0000 
  115.2500    10.9960     9.2490    31.8760     5.1320   348.3800    -5.1130    22.2510     0.0000     0.0000 
  115.3750     7.7200     7.2640     7.3090     5.0820   368.3770    -6.4240    22.4440     0.0000     0.0000 
  115.5000     6.3450     6.2290     7.2190     5.1030   450.5300    -8.5210    22.5440     0.0000     0.0000 
  115.6250     6.8040     6.3210     7.2820     5.0940   479.7540   -10.0690    22.5200     0.0000     0.0000 
  115.7500     6.9750     6.4170     7.4100     4.8870   481.0060   -11.2510    22.3410     0.0000     0.0000 
  115.8750     7.1140     6.3970     7.3480     5.0180   476.6870   -12.1980    22.4780     0.0000     0.0000 
  116.0000     7.1340     6.2510     7.0970     4.9990   471.3350   -12.6800    22.3820     0.0000     0.0000 
  116.1250     7.0950     6.0100     7.2170     5.1590   469.7400   -13.0790    22.4450     0.0000     0.0000 
  116.2500     6.9310     6.0450     8.0250     5.0770   469.3780   -13.4790    22.5260     0.0000     0.0000 
  116.3750     6.7440     6.0810     8.3420     4.9290   471.8820   -13.8790    22.4360     0.0000     0.0000 
  116.5000     6.4990     6.0830     7.5790     4.9900   476.1670   -14.1360    22.2700     0.0000     0.0000 
  116.6250     6.3870     5.9470     7.5720     5.1300   480.1640   -14.0050    22.5450     0.0000     0.0000 
  116.7500     6.2710     5.7850     7.3360     5.2010   483.2320   -13.2770    22.6140     0.0000     0.0000 
  116.8750     6.0830     5.5760     6.9750     5.1740   481.0050   -12.5490    22.6100     0.0000     0.0000 
  117.0000     6.3640     5.3630     6.3580     5.2380   478.7960   -11.8210    22.3930     0.0000     0.0000 
  117.1250     6.6010     5.5620     6.3480     5.2240   480.1860   -11.1340    22.2690     0.0000     0.0000 
  117.2500     6.6920     5.7620     6.7100     5.1280   481.4420   -10.7290    22.3020     0.0000     0.0000 
  117.3750     6.7960     6.1110     7.1380     5.2820   480.4390   -10.4310    22.2490     0.0000     0.0000 
  117.5000     6.9480     6.2010     7.4630     5.2970   478.1870   -10.6570    22.3210     0.0000     0.0000 
  117.6250     6.8700     6.2310     7.1440     5.4410   475.4280   -11.1680    22.3420     0.0000     0.0000 
  117.7500     6.1530     5.7980     6.3150     5.5020   472.3810   -11.9430    22.3390     0.0000     0.0000 
  117.8750     5.3660     5.0910     6.2610     5.4210   471.6840   -12.3870    22.2360     0.0000     0.0000 
  118.0000     4.6390     4.3580     6.4830     5.3980   468.9340   -11.2870    22.2540     0.0000     0.0000 
  118.1250     4.5780     3.8850     6.7680     5.5470   466.9140   -10.2380    22.2800     0.0000     0.0000 
  118.2500     5.1960     4.0420     6.1570     5.5400   473.0360    -9.2330    22.2270     0.0000     0.0000 
  118.3750     5.8740     5.0560     6.0300     5.5390   478.1010    -8.2270    22.2740     0.0000     0.0000 
  118.5000     6.3230     6.0300     6.4940     5.3350   474.0160    -7.5810    22.2710     0.0000     0.0000 
  118.6250     6.4090     5.8700     6.8420     5.2550   463.5540    -7.1550    22.2180     0.0000     0.0000 
  118.7500     6.0500     5.4820     6.5740     5.1260   450.9630    -7.6010    22.2700     0.0000     0.0000 
  118.8750     6.4500     5.6140     6.8400     4.9970   445.5980    -9.5170    22.3620     0.0000     0.0000 
  119.0000     7.0590     5.8680     7.0570     5.1580   452.8560   -11.0040    22.2300     0.0000     0.0000 
  119.1250     7.1830     5.8620     6.5060     5.2320   460.6710   -11.5590    22.2060     0.0000     0.0000 
  119.2500     7.0840     5.8560     6.7310     4.9600   469.7910   -11.5670    22.2930     0.0000     0.0000 
  119.3750     6.7190     5.7510     7.1520     4.9130   474.7230   -11.3520    22.1920     0.0000     0.0000 
  119.5000     6.4520     5.7680     7.0850     4.9120   477.1580   -11.5010    22.0970     0.0000     0.0000 
  119.6250     6.5290     5.8390     6.9540     4.7930   477.5220   -12.2780    22.0440     0.0000     0.0000 
  119.7500     6.7390     5.7960     6.5520     4.8730   476.0260   -13.1590    22.0410     0.0000     0.0000 
  119.8750     6.6170     5.8040     7.1000     4.9760   473.6110   -13.5030    21.9880     0.0000     0.0000 
  120.0000     6.4370     5.9530     7.3270     5.0960   472.4360   -13.8470    21.9840     0.0000     0.0000 
  120.1250     6.5230     5.9270     7.3210     5.0280   471.4840   -14.0450    22.0310     0.0000     0.0000 
  120.2500     6.6190     5.6930     7.1410     4.9870   467.8620   -13.6640    21.9780     0.0000     0.0000 
