~V
VERS. 2.00: Ver 2.00
~W
STRT.M 20.0000:
STOP.M 252.0000:
STEP.M 0.1250:
NULL. -999.2500:
UWI. Z118:
~C
DEPT.M :
RML.OHMM :
RI. :
RXO.OHMM :
GR.API :
AC.US/MT :
SP.MV :
CALI.CM :
DEN.GM/CC :
CNL.V/V :
~A
# ...
  220.7500    67.9630    68.5900    91.6160     4.4540   405.1330   -17.1510    21.9510     0.0000     0.0000 
  220.8750   118.1860    97.3840   117.7610     4.4630   408.2860   -17.1260    21.9480     0.0000     0.0000 
  221.0000   146.5400   113.4060   142.8850     4.3530   410.7090   -17.0220    21.9450     0.0000     0.0000 
  221.1250   153.3720   109.4280   159.0670     4.2920   412.7470   -16.9180    21.9420     0.0000     0.0000 
  221.2500   125.3660    90.6790   168.0410     4.4870   409.9410   -16.8140    21.9890     0.0000     0.0000 
  221.3750    95.9960    68.3520    64.8020     4.5890   403.8270   -16.6610    21.9860     0.0000     0.0000 
  221.5000    63.2080    46.0240    34.7790     4.6490   393.2190   -16.4890    21.9830     0.0000     0.0000 
  221.6250    34.5100    31.6880    22.0740     4.6500   381.3280   -16.4710    21.9790     0.0000     0.0000 
  221.7500    21.5980    26.7240    20.0740     4.6960   369.8450   -16.4960    21.9270     0.0000     0.0000 
  221.8750    18.2220    22.8330    22.4610     4.7720   386.4790   -16.5200    21.8330     0.0000     0.0000 
  222.0000    15.7390    22.4650    28.9470     4.8330   410.3980   -16.5730    21.7710     0.0000     0.0000 
  222.1250    16.7880    27.0490    42.5960     4.8020   414.0370   -16.6490    21.8590     0.0000     0.0000 
  222.2500    26.8860    36.5480    54.7800     4.5660   406.1010   -16.6980    22.0640     0.0000     0.0000 
  222.3750    36.7720    40.5230    61.0710     4.5000   399.7910   -16.6870    22.0610     0.0000     0.0000 
  222.5000    42.3440    42.5000    65.5770     4.6020   406.4360   -16.6750    21.9610     0.0000     0.0000 
  222.6250    46.9050    44.3700    74.7250     4.5450   413.7220   -16.6640    21.8420     0.0000     0.0000 
  222.7500    51.0570    46.3420    62.5130     4.5320   415.4970   -16.6530    21.7020     0.0000     0.0000 
  222.8750    56.0500    48.4160    40.5540     4.4720   413.0790   -16.6280    21.6490     0.0000     0.0000 
  223.0000    53.6410    45.1210    14.1010     4.3890   410.2230   -16.5750    21.8730     0.0000     0.0000 
  223.1250    48.9880    41.5740    23.9990     4.4580   407.8520   -16.5820    22.1420     0.0000     0.0000 
  223.2500    44.0810    37.6430    34.7930     4.6510   407.7230   -16.6150    22.0840     0.0000     0.0000 
  223.3750    40.3680    33.5500    45.8040     4.7950   406.2320   -16.6480    21.9410     0.0000     0.0000 
  223.5000    37.9150    35.7060    58.3300     4.9300   400.8910   -16.6810    21.7900     0.0000     0.0000 
  223.6250    41.1290    39.4230    69.0060     4.9010   393.6120   -16.7280    21.5810     0.0000     0.0000 
  223.7500    40.2880    39.3260    76.8040     4.8160   386.3950   -16.7890    21.4210     0.0000     0.0000 
  223.8750    37.7370    35.8320    48.4460     4.6940   377.4630   -16.7740    21.2620     0.0000     0.0000 
  224.0000    41.0020    39.6040    48.3600     4.6140   371.0430   -16.7050    21.1020     0.0000     0.0000 
  224.1250    44.4850    41.8740    54.2320     4.7180   366.8630   -16.4050    21.4670     0.0000     0.0000 
  224.2500    30.0520    32.0170    38.8340     4.6230   363.1710   -15.9600    21.5660     0.0000     0.0000 
  224.3750    22.8890    22.2310    16.4470     4.8270   363.4170   -15.4960    21.5860     0.0000     0.0000 
  224.5000    19.9810    27.9740    22.7820     4.9020   372.1050   -15.0320    21.5160     0.0000     0.0000 
  224.6250    32.3940    31.0670    43.2840     4.8160   367.4840   -14.6020    21.3580     0.0000     0.0000 
  224.7500    28.7910    25.8490    55.9180     4.9030   358.2650   -14.2240    21.2370     0.0000     0.0000 
  224.8750    19.8280    18.3580    30.5210     4.9390   363.5510   -13.9870    21.0890     0.0000     0.0000 
  225.0000    15.3100    19.0350    19.3130     4.7570   389.9710   -13.7990    20.9710     0.0000     0.0000 
  225.1250    20.1480    22.2230    28.0960     4.5610   405.8890   -14.1990    20.8950     0.0000     0.0000 
  225.2500    26.1380    26.2200    40.6170     4.4670   402.2750   -14.6460    21.3850     0.0000     0.0000 
  225.3750    28.0690    25.3950    54.5280     4.5690   363.2150   -15.0400    21.8530     0.0000     0.0000 
  225.5000    20.5240    20.1640    34.0410     4.6570   365.0600   -15.4030    22.1140     0.0000     0.0000 
  225.6250    15.2350    18.5420    19.9150     4.7430   382.3410   -15.6230    22.3800     0.0000     0.0000 
  225.7500    16.2600    21.9100    24.2010     4.6490   402.5150   -15.7660    22.3380     0.0000     0.0000 
  225.8750    20.8630    23.8400    31.6080     4.6300   419.9500   -15.6370    22.2200     0.0000     0.0000 
  226.0000    20.8070    23.4970    28.4660     4.5430   401.8860   -15.8040    22.1070     0.0000     0.0000 
  226.1250    19.7500    25.4810    24.8710     4.3740   374.3380   -16.1280    22.0690     0.0000     0.0000 
  226.2500    23.0890    30.9890    37.3730     4.2800   351.0180   -16.3070    22.2420     0.0000     0.0000 
  226.3750    38.7810    47.0670    65.6770     4.3410   320.2720   -16.4610    22.5550     0.0000     0.0000 
  226.5000    88.4630    91.5650   142.6960     4.4460   258.6290   -16.1390    22.6080     0.0000     0.0000 
  226.6250   143.5060   101.4010   179.1930     4.5880   214.1270   -14.7970    22.5290     0.0000     0.0000 
  226.7500   171.7090   126.3910   218.5770     4.7550   206.2150   -13.4550    22.4060     0.0000     0.0000 
  226.8750   189.5600   154.7370   260.7520     4.8970   207.3540   -12.1020    22.5990     0.0000     0.0000 
  227.0000   162.1120   114.4900   304.6000     4.9850   204.9140   -10.7500    22.5640     0.0000     0.0000 
  227.1250   110.6030    69.1040   376.3480     5.1950   208.2570    -9.4220    22.4580     0.0000     0.0000 
  227.2500    51.8920    29.3660   205.5980     5.6240   227.2940    -8.3640    22.3920     0.0000     0.0000 
  227.3750     7.5370     9.9730    84.7450     5.9340   265.4090    -7.4310    22.3870     0.0000     0.0000 
  227.5000     4.2130     7.4210    11.2920     6.1980   315.9520    -6.5990    22.4840     0.0000     0.0000 
  227.6250     4.1110     7.6740     5.5990     6.3300   375.1880    -5.9770    22.3310     0.0000     0.0000 
  227.7500     6.3370     8.2080     7.2770     6.3990   398.2640    -5.3190    22.2780     0.0000     0.0000 
  227.8750     7.9750     7.9820     8.4680     6.4220   409.0640    -4.5950    22.1250     0.0000     0.0000 
  228.0000     7.9130     7.5800     5.5410     6.2690   403.9760    -4.0080    22.2840     0.0000     0.0000 
  228.1250     6.7870     7.1810     6.8240     6.1600   405.2350    -3.4160    22.4800     0.0000     0.0000 
  228.2500     5.8050     7.0640     8.1830     6.0040   404.9320    -2.7700    22.6320     0.0000     0.0000 
  228.3750     7.3840     8.0570     5.3800     6.0530   394.2720    -2.1230    22.6620     0.0000     0.0000 
  228.5000     9.4060     9.0970     8.9990     5.9280   378.5050    -1.5790    22.5320     0.0000     0.0000 
  228.6250     9.6060    10.1870    14.1300     5.7620   365.3450    -1.7160    22.4620     0.0000     0.0000 
  228.7500     9.5490    11.4200    10.1730     5.4700   353.9900    -2.0030    22.3250     0.0000     0.0000 
  228.8750     9.4900    11.9670    14.1300     5.3650   360.3620    -2.7730    22.1020     0.0000     0.0000 
  229.0000     9.3610    11.3290    13.7590     5.2710   372.1200    -3.7740    21.8360     0.0000     0.0000 
  229.1250     7.2130    12.9100     8.4050     5.2580   376.7690    -4.6820    21.7600     0.0000     0.0000 
  229.2500     8.8480    18.0160     6.1020     5.2980   378.7170    -5.4470    21.8730     0.0000     0.0000 
  229.3750    17.9100    24.6660    18.1150     5.3150   364.9940    -6.0500    21.9780     0.0000     0.0000 
  229.5000    26.9700    28.0230    31.7540     5.1320   318.7170    -6.8070    21.8290     0.0000     0.0000 
  229.6250    35.0190    29.9530    41.8000     5.2070   285.9850    -7.5680    21.5750     0.0000     0.0000 
  229.7500    36.5460    30.8600    43.2140     5.0860   276.2320    -7.9090    21.4800     0.0000     0.0000 
