~V
VERS. 2.00: Ver 2.00
~W
STRT.M 20.0000:
STOP.M 252.0000:
STEP.M 0.1250:
NULL. -999.2500:
UWI. Z118:
~C
DEPT.M :
RML.OHMM :
RI. :
RXO.OHMM :
GR.API :
AC.US/MT :
SP.MV :
CALI.CM :
DEN.GM/CC :
CNL.V/V :
~A
# ...
  138.6250     9.1710     7.4350     8.3830     6.2150   382.9060    -5.1270    22.1250     0.0000     0.0000 
  138.7500     9.2680     6.3450     8.7620     6.1510   376.9960    -4.5490    22.1220     0.0000     0.0000 
  138.8750     7.8400     6.0470     6.6100     5.9730   382.2920    -3.9720    22.4970     0.0000     0.0000 
  139.0000     7.2180     6.6090     6.9590     6.0450   394.7750    -3.0950    22.7060     0.0000     0.0000 
  139.1250     7.3320     6.2390     7.4050     6.1150   399.1170    -2.3580    22.8120     0.0000     0.0000 
  139.2500     5.9150     4.5900     6.7510     6.1840   402.2590    -1.6260    22.8410     0.0000     0.0000 
  139.3750     4.9450     4.0630     5.4880     6.2610   405.3660    -0.9250    22.7060     0.0000     0.0000 
  139.5000     5.5230     5.6530     4.9710     5.9820   400.1410    -0.4560    22.7890     0.0000     0.0000 
  139.6250     6.2780     6.6710     5.8820     5.7900   394.9430    -0.1510    22.7690     0.0000     0.0000 
  139.7500     7.3830     7.3460     7.2160     5.7030   394.6170     0.1470    22.6230     0.0000     0.0000 
  139.8750     8.5210     7.9740     8.2580     5.7430   396.7820     0.4450    22.4780     0.0000     0.0000 
  140.0000     8.5940     7.7910     7.6800     5.8670   396.0010     0.5710    22.3870     0.0000     0.0000 
  140.1250    10.0890    11.5960    10.4140     6.0370   380.4930     0.6260    22.3130     0.0000     0.0000 
  140.2500    15.7650    18.5620    21.4320     6.0940   346.7410     0.4790    22.2850     0.0000     0.0000 
  140.3750    25.3860    25.1660    25.5960     5.9600   260.9300    -0.0650    22.3820     0.0000     0.0000 
  140.5000    33.1410    26.6060    47.2430     5.8810   244.1570    -0.5620    22.3790     0.0000     0.0000 
  140.6250    35.5860    21.6590    60.0890     6.2210   270.1340    -1.0510    22.5440     0.0000     0.0000 
  140.7500    17.1450    12.7780    41.1700     6.3800   295.2170    -1.5410    22.6120     0.0000     0.0000 
  140.8750    12.0420     9.2260    11.3730     6.4770   365.0300    -1.8760    22.5240     0.0000     0.0000 
  141.0000     9.6150     8.0770     8.0810     6.2230   389.5740    -1.8540    22.3810     0.0000     0.0000 
  141.1250     8.4250     8.2470     7.3280     6.2940   387.3350    -1.5100    22.3630     0.0000     0.0000 
  141.2500     8.1210     8.6300     8.1860     6.0770   378.2140    -1.1770    22.4320     0.0000     0.0000 
  141.3750     9.2060     9.4080     9.5480     5.9740   366.3030    -0.9160    22.5070     0.0000     0.0000 
  141.5000    10.8950    10.9620    10.7950     6.0170   349.5410    -0.7650    22.4530     0.0000     0.0000 
  141.6250    13.4290    13.4620    14.4930     5.7770   327.0630    -0.6630    22.3670     0.0000     0.0000 
  141.7500    16.2150    15.3360    15.3310     5.6840   306.6580    -0.6060    22.3980     0.0000     0.0000 
  141.8750    18.4410    16.8200    19.7880     5.7600   298.0060    -0.5500    22.3100     0.0000     0.0000 
  142.0000    20.0000    17.8700    22.2390     5.8960   295.4290    -0.5120    22.2420     0.0000     0.0000 
  142.1250    20.7400    17.2000    20.8760     5.8380   299.8050    -0.5720    22.2440     0.0000     0.0000 
  142.2500    18.9810    16.3830    16.9200     5.9660   310.4030    -0.7290    22.4350     0.0000     0.0000 
  142.3750    18.9190    16.3670    18.4250     5.9610   306.0880    -0.9250    22.4820     0.0000     0.0000 
  142.5000    22.7940    20.5690    21.4650     5.8360   288.7350    -1.1210    22.3670     0.0000     0.0000 
  142.6250    25.3150    22.3200    21.8160     5.7250   279.3860    -1.3160    22.3300     0.0000     0.0000 
  142.7500    25.4900    21.4040    20.0460     5.6260   273.3300    -1.4360    22.4160     0.0000     0.0000 
  142.8750    26.4670    22.9400    24.3280     5.6860   272.0220    -1.2530    22.4200     0.0000     0.0000 
  143.0000    27.3730    23.3760    24.6530     5.4910   265.3970    -1.1060    22.3670     0.0000     0.0000 
  143.1250    26.9040    23.0920    27.9920     5.5000   257.5250    -1.0950    22.3640     0.0000     0.0000 
  143.2500    27.9220    23.1130    31.2830     5.5260   267.4390    -1.1500    22.3610     0.0000     0.0000 
  143.3750    24.7670    20.9420    24.1330     5.3600   278.5680    -1.2990    22.1890     0.0000     0.0000 
  143.5000    22.3440    19.3350    22.3430     5.2850   288.6530    -1.4030    22.3990     0.0000     0.0000 
  143.6250    21.3420    18.4500    23.4920     5.2260   296.1480    -1.3400    22.2440     0.0000     0.0000 
  143.7500    21.3360    18.5120    21.4130     5.0770   293.7700    -1.2290    21.9260     0.0000     0.0000 
  143.8750    21.8780    19.1830    18.6880     5.0410   298.5670    -0.9610    21.8960     0.0000     0.0000 
  144.0000    21.3680    17.8580    20.2190     5.1660   299.6960    -0.9260    22.0170     0.0000     0.0000 
  144.1250    19.7530    16.6380    17.4680     5.1660   294.2920    -1.0390    22.0320     0.0000     0.0000 
  144.2500    18.7720    16.0720    17.9270     5.0160   286.8680    -1.1970    21.9370     0.0000     0.0000 
  144.3750    18.7480    16.1950    17.5790     4.9590   279.1360    -1.4180    21.9990     0.0000     0.0000 
  144.5000    20.2660    17.7890    18.6790     5.0030   284.4410    -1.3920    22.2800     0.0000     0.0000 
  144.6250    21.8550    18.8990    19.1240     5.1650   290.5900    -1.1170    22.1740     0.0000     0.0000 
  144.7500    22.7760    19.8480    21.1670     5.1430   285.9280    -0.7900    21.9910     0.0000     0.0000 
  144.8750    23.7620    20.2770    22.8250     5.2320   273.4040    -0.3170    21.8510     0.0000     0.0000 
  145.0000    24.1420    19.0800    23.5230     5.1270   278.6530    -0.0690    21.8190     0.0000     0.0000 
  145.1250    21.8230    17.6200    18.6380     5.0940   292.6260    -0.2660    21.8340     0.0000     0.0000 
  145.2500    21.0370    17.7820    18.6690     5.1860   303.6070    -0.4640    22.1760     0.0000     0.0000 
  145.3750    21.4970    17.9130    17.3240     5.0380   304.2740    -0.7720    22.5220     0.0000     0.0000 
  145.5000    20.9450    17.5630    15.6500     5.0040   298.2090    -0.9280    22.6830     0.0000     0.0000 
  145.6250    20.4090    17.8900    16.4710     5.0830   294.8050    -0.8950    22.7750     0.0000     0.0000 
  145.7500    21.1810    17.7750    19.7370     4.9320   294.4590    -0.7850    22.7980     0.0000     0.0000 
  145.8750    21.4090    16.8870    19.2400     4.9060   287.0570    -0.5910    22.6110     0.0000     0.0000 
  146.0000    19.7930    15.9010    17.2490     4.9330   283.2470    -0.3210    22.4930     0.0000     0.0000 
  146.1250    17.9270    14.8370    15.5330     4.8360   288.7260    -0.1070    22.5380     0.0000     0.0000 
  146.2500    17.7730    15.8660    15.7480     4.7560   280.9330     0.0850    22.6860     0.0000     0.0000 
  146.3750    19.9940    17.9900    21.0260     4.7780   267.9280     0.2770    22.6830     0.0000     0.0000 
  146.5000    23.1870    19.3800    34.6840     4.8580   257.7850     0.4650    22.6800     0.0000     0.0000 
  146.6250    23.2230    18.3150    37.5730     4.9470   264.2230     0.6610    22.8370     0.0000     0.0000 
  146.7500    19.8770    16.8470    18.4840     4.8460   272.0680     0.9210    22.8740     0.0000     0.0000 
  146.8750    19.9760    16.3870    21.1680     4.8430   275.5170     1.1400    22.7390     0.0000     0.0000 
  147.0000    20.7560    17.1840    23.7540     4.7710   269.5500     1.3110    22.6180     0.0000     0.0000 
  147.1250    19.7680    16.3950    19.9240     4.7820   283.6890     1.4660    22.6150     0.0000     0.0000 
  147.2500    18.5310    15.2830    16.8200     4.6870   293.7810     1.6210    22.6620     0.0000     0.0000 
  147.3750    17.6050    14.4890    13.7300     4.7590   302.5940     1.6800    22.6590     0.0000     0.0000 
  147.5000    17.3550    14.1350    13.7920     4.8650   309.6280     1.7210    22.6060     0.0000     0.0000 
  147.6250    16.9960    13.8730    12.2460     4.8400   304.2390     1.7400    22.6810     0.0000     0.0000 
