~V
VERS. 2.00: Ver 2.00
~W
STRT.M 20.0000:
STOP.M 252.0000:
STEP.M 0.1250:
NULL. -999.2500:
UWI. Z118:
~C
DEPT.M :
RML.OHMM :
RI. :
RXO.OHMM :
GR.API :
AC.US/MT :
SP.MV :
CALI.CM :
DEN.GM/CC :
CNL.V/V :
~A
# ...
  239.0000     6.5470     5.6670     6.7500     6.0270   435.0510     0.8020    22.5080     0.0000     0.0000 
  239.1250     6.3960     5.5920     6.5790     6.1030   445.1210     0.7690    22.3980     0.0000     0.0000 
  239.2500     6.1280     5.6030     6.1740     6.3540   453.7630     0.7060    22.3950     0.0000     0.0000 
  239.3750     6.1580     5.7730     5.9880     6.4900   458.8930     0.5720    22.3910     0.0000     0.0000 
  239.5000     6.2170     5.7670     6.3860     6.3930   462.9060     0.4370    22.5460     0.0000     0.0000 
  239.6250     5.9810     5.6370     6.3030     6.6160   464.8460     0.3120    22.7350     0.0000     0.0000 
  239.7500     5.7060     5.5560     5.8720     6.8310   465.0110     0.2770    22.6410     0.0000     0.0000 
  239.8750     5.4860     5.5330     6.0680     6.7660   463.3310     0.2500    22.5310     0.0000     0.0000 
  240.0000     5.4800     5.4450     5.7060     6.6250   460.1450     0.2570    22.4760     0.0000     0.0000 
  240.1250     5.5760     5.4330     5.4520     6.5860   454.1590     0.2650    22.5320     0.0000     0.0000 
  240.2500     5.5540     5.3200     6.0780     6.6530   446.5930     0.3050    22.6730     0.0000     0.0000 
  240.3750     5.4610     5.2280     6.1470     6.4820   440.2170     0.6330    22.7150     0.0000     0.0000 
  240.5000     5.3530     5.3320     5.9690     6.2310   439.0960     0.8610    22.7130     0.0000     0.0000 
  240.6250     5.2450     5.7180     5.5320     5.9770   438.2040     0.9710    22.7010     0.0000     0.0000 
  240.7500     5.2390     6.6400     5.2610     5.7080   435.2270     1.0820    22.4930     0.0000     0.0000 
  240.8750     6.1930     9.6010     5.9620     5.3640   430.1820     1.1920    22.3130     0.0000     0.0000 
  241.0000    12.5300    28.8960     9.2180     4.8040   415.5750     1.2290    22.1150     0.0000     0.0000 
  241.1250    28.6650    46.0940    22.8370     4.5100   388.1260     1.0100    22.0490     0.0000     0.0000 
  241.2500    46.2590    57.7530    47.3130     4.3020   343.6500     0.5840    22.2230     0.0000     0.0000 
  241.3750    60.6790    52.3010    71.7890     4.1520   276.9790     0.1580    22.4550     0.0000     0.0000 
  241.5000    67.4800    44.5310    94.7370     3.9710   266.7370    -0.2680    22.5390     0.0000     0.0000 
  241.6250    49.1020    44.0720    98.3470     4.2450   256.4270    -0.6940    22.5330     0.0000     0.0000 
  241.7500    47.0270    56.0310    74.8890     4.4340   273.7150    -1.1130    22.4580     0.0000     0.0000 
  241.8750    53.0780    77.5630    92.3600     4.4840   331.7050    -1.2810    22.3370     0.0000     0.0000 
  242.0000    66.6220    90.6300    55.8580     4.3230   352.9960    -1.3010    22.2270     0.0000     0.0000 
  242.1250   100.7880    85.4700    73.7680     4.3600   357.7000    -1.3230    22.2240     0.0000     0.0000 
  242.2500   102.2710    59.0710    91.6790     4.3290   351.2020    -1.5550    22.2620     0.0000     0.0000 
  242.3750    82.8590    42.3010    95.3180     4.3010   387.8400    -1.9980    22.3180     0.0000     0.0000 
  242.5000    49.1480    43.9670    45.5780     4.3610   442.4180    -2.4330    22.3140     0.0000     0.0000 
  242.6250    39.5900    61.1930    29.8390     4.4150   455.3080    -2.8670    22.2120     0.0000     0.0000 
  242.7500    68.6030    76.3630    35.2980     4.1200   421.0850    -3.2180    22.1230     0.0000     0.0000 
  242.8750    85.2870    91.2900    39.2330     3.7660   322.9570    -3.3830    21.9490     0.0000     0.0000 
  243.0000    96.6110    96.1170    52.3080     3.6540   285.1360    -3.5120    21.7530     0.0000     0.0000 
  243.1250   112.4700    85.0690    65.1460     3.5920   268.1340    -3.4670    22.0290     0.0000     0.0000 
  243.2500   116.7940    65.6870    54.6400     3.7010   308.1460    -3.4110    21.9610     0.0000     0.0000 
  243.3750    88.4800    46.0750    49.8420     3.8250   304.9730    -3.4200    22.0170     0.0000     0.0000 
  243.5000    51.9340    24.5390    74.2680     3.8360   293.6130    -3.4290    22.4400     0.0000     0.0000 
  243.6250    30.6770     8.6370    95.0030     3.7090   299.6560    -3.3230    22.3860     0.0000     0.0000 
  243.7500    12.3100     6.1370    60.3330     3.9280   340.7980    -2.9630    22.3340     0.0000     0.0000 
  243.8750     6.1350     4.3770    25.6630     4.0510   388.3140    -2.2870    22.3310     0.0000     0.0000 
  244.0000     4.6830     3.7630     3.2510     4.0140   418.0310    -1.5290    22.4660     0.0000     0.0000 
  244.1250     3.8240     3.6930     3.5480     3.8320   443.8250    -0.7720    22.4910     0.0000     0.0000 
  244.2500     3.6410     3.6520     3.7620     3.5750   450.0810    -0.0150    22.3690     0.0000     0.0000 
  244.3750     3.6350     3.6460     3.4960     3.4120   445.0880     0.8850    22.2930     0.0000     0.0000 
  244.5000     3.8580     3.6400     3.1520     3.2870   446.9070     1.8060    22.4720     0.0000     0.0000 
  244.6250     4.1850     3.6900     3.6040     3.4580   434.7370     2.8200    22.6120     0.0000     0.0000 
  244.7500     4.6540     4.0210     3.8600     3.6790   412.5230     3.5370    22.5530     0.0000     0.0000 
  244.8750     5.0970     4.6880     4.2390     3.7210   429.2060     3.7910    22.4060     0.0000     0.0000 
  245.0000     5.4570     5.0670     4.2330     3.6360   421.6600     3.8390    22.4030     0.0000     0.0000 
  245.1250     5.9160     5.4310     4.4200     3.6170   415.2480     3.6640    22.4150     0.0000     0.0000 
  245.2500     6.4290     5.6730     5.0300     3.4270   417.0970     3.3960    22.5530     0.0000     0.0000 
  245.3750     6.6900     5.7940     5.3710     3.5000   421.8030     3.0830    22.8100     0.0000     0.0000 
  245.5000     6.8760     5.7880     5.3650     3.6720   419.8560     2.7680    22.8310     0.0000     0.0000 
  245.6250     7.0210     5.7580     5.1250     3.7090   414.9730     2.4530    22.5590     0.0000     0.0000 
  245.7500     7.1300     5.6770     5.1920     3.6300   411.0940     2.1380    22.6360     0.0000     0.0000 
  245.8750     7.0030     5.6600     5.5720     3.7690   411.7850     1.8910    22.5680     0.0000     0.0000 
  246.0000     6.6750     5.5660     5.7480     3.7020   406.7180     1.7760    22.3480     0.0000     0.0000 
  246.1250     6.6020     5.8480     5.7660     3.7580   399.7670     1.8000    22.4550     0.0000     0.0000 
  246.2500     6.8810     5.8450     5.2530     3.8250   393.6680     1.8240    22.6540     0.0000     0.0000 
  246.3750     6.7610     5.6480     5.6890     3.6980   414.4350     1.8440    22.4860     0.0000     0.0000 
  246.5000     6.5390     5.9770     6.0830     3.6630   418.2940     1.5920    22.5100     0.0000     0.0000 
  246.6250     6.6850     6.4040     5.9450     3.6950   416.4730     1.3400    22.8900     0.0000     0.0000 
  246.7500     7.3030     6.7850     5.4680     3.7410   411.8490     1.0590    23.0590     0.0000     0.0000 
  246.8750     7.4810     6.7480     5.9300     3.8530   407.5790     0.7750    22.9360     0.0000     0.0000 
  247.0000     7.4090     5.9970     6.3570     4.0520   403.4500     0.4920    22.6210     0.0000     0.0000 
  247.1250     7.2030     5.4450     6.4590     4.2600   401.7630     0.2090    22.6980     0.0000     0.0000 
  247.2500     6.7430     4.9780     6.0580     4.4630   406.3490    -0.0820    22.2470     0.0000     0.0000 
  247.3750     6.1970     4.9220     6.2310     4.6360   411.1530    -0.1940    21.7790     0.0000     0.0000 
  247.5000     5.5510     5.5190     5.7110     4.8100   414.7410     0.4120    21.7980     0.0000     0.0000 
  247.6250     5.4720     5.7900     4.8250     5.0110   409.5230     1.0370    22.7200     0.0000     0.0000 
  247.7500     6.1480     5.7250     4.9940     5.2630   402.5530     1.6610    22.9550     0.0000     0.0000 
  247.8750     6.3120     5.2750     5.4630     5.4560   396.3640     2.2730    22.9810     0.0000     0.0000 
  248.0000     5.8530     4.8090     6.1190     5.6020   398.1580     2.7040    22.8240     0.0000     0.0000 
