~V
VERS. 2.00: Ver 2.00
~W
STRT.M 20.0000:
STOP.M 252.0000:
STEP.M 0.1250:
NULL. -999.2500:
UWI. Z118:
~C
DEPT.M :
RML.OHMM :
RI. :
RXO.OHMM :
GR.API :
AC.US/MT :
SP.MV :
CALI.CM :
DEN.GM/CC :
CNL.V/V :
~A
# ...
  193.3750    97.1150    69.6240    65.8330     5.1630   417.6760   -11.9520    22.2520     0.0000     0.0000 
  193.5000    85.5310    62.3590    66.7510     5.3170   413.1850   -11.8150    22.4720     0.0000     0.0000 
  193.6250    75.1780    56.1490    67.7600     5.3700   412.3740   -11.6690    22.4470     0.0000     0.0000 
  193.7500    73.5770    56.0190    67.4630     5.3000   414.8630   -11.5230    22.1730     0.0000     0.0000 
  193.8750    84.9500    60.5310    60.2140     5.3640   410.2830   -11.3870    21.8720     0.0000     0.0000 
  194.0000    89.7390    64.5630    55.4230     5.4440   406.5370   -11.2720    22.1710     0.0000     0.0000 
  194.1250    90.6760    66.0310    63.6440     5.2740   408.3060   -11.2120    22.3070     0.0000     0.0000 
  194.2500    90.0200    65.3130    64.8170     5.0910   408.7650   -11.1760    22.2840     0.0000     0.0000 
  194.3750    86.7960    64.6530    63.9090     4.8640   405.5800   -11.1780    22.1510     0.0000     0.0000 
  194.5000    86.9320    65.4250    65.3990     4.7590   401.8950   -11.2290    22.1520     0.0000     0.0000 
  194.6250    86.4160    66.5450    62.8870     4.8450   398.7990   -11.2820    22.3210     0.0000     0.0000 
  194.7500    80.7000    67.8480    60.1650     4.8000   399.1550   -11.4480    22.2940     0.0000     0.0000 
  194.8750    79.1340    66.9740    58.6040     4.8770   403.8750   -11.6150    22.2760     0.0000     0.0000 
  195.0000    94.9910    66.8710    59.3330     4.9310   409.1470   -11.7810    22.5380     0.0000     0.0000 
  195.1250   118.2520    73.9400    56.0410     4.9620   412.1760   -11.9790    22.5820     0.0000     0.0000 
  195.2500   151.4360    84.7490    56.0930     4.8380   413.2380   -12.2090    22.2060     0.0000     0.0000 
  195.3750   190.5390    93.5390    60.9460     4.7640   415.4130   -12.3740    21.8590     0.0000     0.0000 
  195.5000   223.1070   121.8660    90.4930     4.7560   420.8970   -12.5320    21.5800     0.0000     0.0000 
  195.6250   245.3500   150.1490    96.8390     4.6420   429.7290   -12.6910    21.4810     0.0000     0.0000 
  195.7500   260.7730   158.8790   105.7300     4.6210   433.6020   -12.8920    21.8210     0.0000     0.0000 
  195.8750   273.9410   168.8410   110.3720     4.7320   435.5240   -13.0730    21.9640     0.0000     0.0000 
  196.0000   268.8010   171.7450   109.0110     4.7940   432.2270   -13.1860    22.0630     0.0000     0.0000 
  196.1250   258.3780   169.8050   107.8560     4.7070   429.5120   -13.3060    22.0960     0.0000     0.0000 
  196.2500   239.6120   165.9390   108.5200     4.6170   427.2700   -13.4250    22.0880     0.0000     0.0000 
  196.3750   217.7750   146.4540   108.1420     4.6210   428.6930   -13.5140    22.2520     0.0000     0.0000 
  196.5000   194.3720   136.2180   107.6140     4.4410   430.1590   -13.5230    21.8930     0.0000     0.0000 
  196.6250   173.7450   126.1430   101.1920     4.3730   427.8330   -13.4190    21.7780     0.0000     0.0000 
  196.7500   153.5390   123.0350   101.4300     4.3590   424.6470   -13.2590    22.1290     0.0000     0.0000 
  196.8750   152.0700   122.1780    96.3570     4.1840   421.0240   -13.0990    22.2120     0.0000     0.0000 
  197.0000   175.7460   133.8050    95.0010     4.1100   417.7710   -12.9550    22.2360     0.0000     0.0000 
  197.1250   195.6580   142.3180    85.4820     4.1380   416.7400   -12.9640    22.2330     0.0000     0.0000 
  197.2500   204.5130   143.7590    86.9930     4.1520   419.2000   -12.9730    22.1800     0.0000     0.0000 
  197.3750   193.8500   141.1950    94.2310     4.2050   424.7500   -12.9820    22.2710     0.0000     0.0000 
  197.5000   178.6450   136.3290   100.5210     4.1040   425.8780   -12.9900    22.4730     0.0000     0.0000 
  197.6250   169.8070   128.6730   101.5720     4.1070   426.7910   -13.0650    22.4380     0.0000     0.0000 
  197.7500   161.2770   123.6530    96.4210     4.0400   427.0690   -13.1460    22.3050     0.0000     0.0000 
  197.8750   155.7090   120.1630    93.2120     4.0790   426.5820   -13.1860    22.2250     0.0000     0.0000 
  198.0000   158.6620   121.9850    91.0230     4.2120   424.5860   -13.2170    22.2910     0.0000     0.0000 
  198.1250   159.6530   122.5780    91.5310     4.2920   422.1980   -13.1480    22.4080     0.0000     0.0000 
  198.2500   154.4000   118.9470    88.1950     4.3550   424.6920   -13.0030    22.3850     0.0000     0.0000 
  198.3750   151.9110   119.3190    86.6780     4.5020   428.9560   -12.8570    22.2960     0.0000     0.0000 
  198.5000   153.0510   116.1580    85.4660     4.6640   429.4900   -12.7110    22.2340     0.0000     0.0000 
  198.6250   135.3120   107.3640    84.4850     4.7360   427.2740   -12.5500    22.1160     0.0000     0.0000 
  198.7500   130.3910   108.5700    89.4800     4.7550   424.9610   -12.3830    21.8970     0.0000     0.0000 
  198.8750   150.9610   118.9590    85.8390     4.7060   423.2930   -12.2110    21.8410     0.0000     0.0000 
  199.0000   160.6290   125.6370    81.8850     4.8240   424.8030   -12.0330    22.2810     0.0000     0.0000 
  199.1250   128.4460   105.7230    85.2200     4.7730   432.6670   -11.8550    22.4830     0.0000     0.0000 
  199.2500    82.5630    76.9570    92.1750     4.5100   435.5250   -11.6770    22.4300     0.0000     0.0000 
  199.3750    69.6510    71.8470    97.3020     4.4340   434.8970   -11.4980    22.1970     0.0000     0.0000 
  199.5000   104.6510    83.7880    90.3300     4.6230   431.1100   -11.3200    22.3470     0.0000     0.0000 
  199.6250   126.5750   100.7090    73.5430     4.5220   428.2450   -11.1370    22.5710     0.0000     0.0000 
  199.7500   125.8780    99.3220    71.4380     4.5670   431.0630   -10.9320    22.5300     0.0000     0.0000 
  199.8750   117.6070    96.6300    88.6180     4.5400   429.7340   -10.7250    22.4650     0.0000     0.0000 
  200.0000   116.1540    93.5450    85.2440     4.4200   427.5050   -10.4990    22.6070     0.0000     0.0000 
  200.1250   114.4370    92.5710    79.6320     4.3690   425.6830   -10.2720    22.5590     0.0000     0.0000 
  200.2500   119.9340   102.8900    79.8690     4.4760   423.5960   -10.0980    22.4060     0.0000     0.0000 
  200.3750   137.8490   107.5930    86.1630     4.5610   424.4640   -10.0420    22.4030     0.0000     0.0000 
  200.5000   148.5750   111.4410    89.1030     4.6270   431.7840    -9.9860    22.5490     0.0000     0.0000 
  200.6250   134.3980   109.0390    93.7670     4.6950   435.1500    -9.9300    22.5270     0.0000     0.0000 
  200.7500   114.4890   102.1460   101.0150     4.6490   434.7550    -9.9020    22.3870     0.0000     0.0000 
  200.8750    96.8820    88.7650   107.4710     4.5300   430.5560    -9.9110    22.2470     0.0000     0.0000 
  201.0000    78.6440    70.2070    90.6970     4.6010   427.3720    -9.9460    22.0470     0.0000     0.0000 
  201.1250    64.5890    58.3370    82.1460     4.7240   425.7270   -10.0340    21.9680     0.0000     0.0000 
  201.2500    55.5760    57.2530    74.2770     4.8680   426.2560   -10.1210    21.9320     0.0000     0.0000 
  201.3750    84.0230    67.1320    61.5520     5.0730   429.1410   -10.1480    22.0240     0.0000     0.0000 
  201.5000   109.5550    77.0110    60.1590     5.2760   432.6220   -10.1570    22.3250     0.0000     0.0000 
  201.6250    98.7460    83.0050    74.6530     5.4430   430.2020   -10.1650    22.3220     0.0000     0.0000 
  201.7500    67.2220    65.5730    88.0970     5.6230   420.2700    -9.9520    22.2410     0.0000     0.0000 
  201.8750    45.9980    41.1140   114.1980     5.8110   413.1060    -9.5410    22.1660     0.0000     0.0000 
  202.0000    38.2220    36.9430   115.6960     6.0130   407.9770    -9.1300    22.3530     0.0000     0.0000 
  202.1250    31.7550    20.0270    80.4080     6.1630   404.5280    -8.7380    22.3240     0.0000     0.0000 
  202.2500    20.4570    15.4910    53.3160     6.2520   401.4490    -8.3700    22.2220     0.0000     0.0000 
  202.3750    10.4730    13.8730    59.5880     6.1820   399.1140    -7.9990    22.1540     0.0000     0.0000 
