~V
VERS. 2.00: Ver 2.00
~W
STRT.M 20.0000:
STOP.M 252.0000:
STEP.M 0.1250:
NULL. -999.2500:
UWI. Z118:
~C
DEPT.M :
RML.OHMM :
RI. :
RXO.OHMM :
GR.API :
AC.US/MT :
SP.MV :
CALI.CM :
DEN.GM/CC :
CNL.V/V :
~A
# ...
  166.0000     3.4510     3.8880     3.7020     7.1400   419.1360     3.2520    22.8230     0.0000     0.0000 
  166.1250     3.5270     3.9310     4.0650     7.3150   413.7680     3.2550    22.8460     0.0000     0.0000 
  166.2500     4.4210     4.6810     4.7620     7.4470   405.9920     3.1890    22.8430     0.0000     0.0000 
  166.3750     5.1770     4.7680     5.7220     7.4640   397.5600     3.0880    22.7900     0.0000     0.0000 
  166.5000     5.3490     4.5840     5.9560     7.5730   395.5740     2.9870    22.7870     0.0000     0.0000 
  166.6250     5.1350     4.3580     5.9070     7.6290   402.6450     2.8990    22.8000     0.0000     0.0000 
  166.7500     4.7150     4.3550     5.1480     7.5440   409.6000     2.8120    22.8310     0.0000     0.0000 
  166.8750     4.3870     4.7660     4.9600     7.7710   414.6700     2.7490    22.8230     0.0000     0.0000 
  167.0000     4.3060     4.7910     4.8860     7.9880   419.7520     2.7270    22.7750     0.0000     0.0000 
  167.1250     4.6270     4.5700     4.6170     7.8280   426.0730     2.7060    22.7720     0.0000     0.0000 
  167.2500     4.6760     4.3310     4.4750     7.7150   429.2380     2.6850    22.8190     0.0000     0.0000 
  167.3750     4.6800     4.4550     4.6540     7.7510   422.1810     2.6680    22.8150     0.0000     0.0000 
  167.5000     4.9880     5.1900     5.7110     7.2220   413.0480     2.6590    22.7620     0.0000     0.0000 
  167.6250     5.2950     5.7450     5.9700     6.8360   403.8800     2.6050    22.7590     0.0000     0.0000 
  167.7500     5.3980     5.9020     5.9650     6.6690   397.1230     2.4870    22.7950     0.0000     0.0000 
  167.8750     5.5860     5.4840     7.3630     6.6950   408.6840     2.3690    22.8030     0.0000     0.0000 
  168.0000     4.7130     4.4380     5.2000     6.2710   417.3440     2.2510    22.8000     0.0000     0.0000 
  168.1250     4.2490     6.3100     7.5760     6.1140   408.9420     1.9120    22.7470     0.0000     0.0000 
  168.2500     6.8400     8.8710    13.7390     6.0340   349.5560     1.4770    22.6940     0.0000     0.0000 
  168.3750     8.8910    10.7870    17.2630     5.9410   313.2330     0.9730    22.6910     0.0000     0.0000 
  168.5000    11.3000    12.5060    20.6040     5.8330   297.0920     0.3680    22.8380     0.0000     0.0000 
  168.6250    12.8620    12.6350    25.8010     5.7410   299.2460    -0.3760    22.7670     0.0000     0.0000 
  168.7500    13.1540    11.1960    26.5210     5.7720   320.2800    -1.1200    22.4800     0.0000     0.0000 
  168.8750    11.4230     8.9460    19.7730     6.1150   359.6910    -1.8640    22.3010     0.0000     0.0000 
  169.0000     9.3520     7.7720     9.8980     6.2640   390.0410    -2.6080    22.3620     0.0000     0.0000 
  169.1250     7.6440     7.7260     9.2550     6.4150   405.4000    -3.7370    22.5920     0.0000     0.0000 
  169.2500     7.5510     9.2310     9.6990     6.5120   409.3630    -5.1840    22.6690     0.0000     0.0000 
  169.3750     8.2970     8.6070    11.1210     6.5050   406.5060    -6.5180    22.5740     0.0000     0.0000 
  169.5000     9.3070     7.2490    10.1460     6.6450   410.9860    -7.8090    22.3870     0.0000     0.0000 
  169.6250     7.7270     6.9030     8.3240     6.8100   405.0190    -9.0670    22.3110     0.0000     0.0000 
  169.7500     6.9060     6.0340    10.8820     6.9210   399.4220    -9.0700    22.3080     0.0000     0.0000 
  169.8750     6.1660     4.2440    12.7910     7.0280   413.7710    -8.4820    22.3260     0.0000     0.0000 
  170.0000     4.6550     3.4980     4.3320     7.0850   429.9490    -7.2960    22.5480     0.0000     0.0000 
  170.1250     3.8830     3.9390     3.3930     6.9660   435.4620    -6.1420    22.8250     0.0000     0.0000 
  170.2500     4.3330     4.1010     4.0710     7.1950   423.9700    -5.0040    22.8450     0.0000     0.0000 
  170.3750     4.4790     4.2550     4.4090     7.2710   402.0170    -4.0130    22.7650     0.0000     0.0000 
  170.5000     4.5400     4.1670     4.4350     7.1790   398.8190    -3.0400    22.6890     0.0000     0.0000 
  170.6250     4.5300     3.8710     4.4300     7.2840   404.6800    -2.0680    22.8350     0.0000     0.0000 
  170.7500     4.2860     3.6610     4.0770     7.1010   411.1920    -1.0950    22.7200     0.0000     0.0000 
  170.8750     3.9240     3.4360     3.5120     7.0460   420.4850    -0.2560    22.7060     0.0000     0.0000 
  171.0000     3.5070     3.2650     3.7780     7.1680   426.9990     0.5080    22.8340     0.0000     0.0000 
  171.1250     3.2320     2.8840     3.1410     7.1380   432.7160     1.0760    22.8730     0.0000     0.0000 
  171.2500     3.4280     2.7470     2.6930     7.2510   427.7970     1.4590    22.8700     0.0000     0.0000 
  171.3750     3.7120     3.1530     3.3200     6.9510   417.5170     1.6900    22.8670     0.0000     0.0000 
  171.5000     3.9960     3.7930     4.2140     7.0400   405.8170     1.9210    22.8140     0.0000     0.0000 
  171.6250     4.2800     3.9260     4.3730     7.0980   401.4050     2.0550    22.8300     0.0000     0.0000 
  171.7500     4.4440     3.9200     4.4540     6.9790   399.6170     2.0210    22.8580     0.0000     0.0000 
  171.8750     4.4010     3.9150     4.2630     6.8230   401.2920     1.8920    22.8040     0.0000     0.0000 
  172.0000     4.2890     3.8090     4.0780     6.8350   405.8630     1.6400    22.9430     0.0000     0.0000 
  172.1250     4.2090     3.8030     3.9620     7.0850   409.5700     1.4260    22.9440     0.0000     0.0000 
  172.2500     4.2060     4.0020     4.6270     6.8880   410.6210     1.2770    22.8780     0.0000     0.0000 
  172.3750     4.5670     4.2540     5.0280     7.0240   411.2780     1.1290    22.8130     0.0000     0.0000 
  172.5000     4.6240     4.2850     4.9380     7.1580   410.9920     1.0850    22.8390     0.0000     0.0000 
  172.6250     4.4820     4.2790     4.4130     7.0750   410.3750     1.1180    22.8220     0.0000     0.0000 
  172.7500     4.2380     4.1740     4.6110     7.2090   413.7080     0.9950    22.6830     0.0000     0.0000 
  172.8750     4.3190     4.1680     4.4290     7.2800   413.0300     0.8720    22.8250     0.0000     0.0000 
  173.0000     4.4170     4.2430     3.8230     7.2660   407.7000     0.7490    22.9000     0.0000     0.0000 
  173.1250     4.5140     4.4520     4.1550     7.3210   397.6660     0.6260    22.7240     0.0000     0.0000 
  173.2500     5.0570     4.7310     5.0150     7.2140   384.0810     0.5030    22.9010     0.0000     0.0000 
  173.3750     5.2130     4.7430     5.8740     7.2130   374.0890     0.3800    22.9670     0.0000     0.0000 
  173.5000     5.2980     4.0230     6.9580     7.3100   379.7500     0.2530    22.9640     0.0000     0.0000 
  173.6250     4.5910     3.5340     5.7870     7.1050   393.0730     0.1040    22.9530     0.0000     0.0000 
  173.7500     3.8140     3.9580     3.8910     6.9660   407.2830     0.1700    22.8150     0.0000     0.0000 
  173.8750     3.7370     4.0210     3.8860     6.9530   424.0520     0.3260    22.5980     0.0000     0.0000 
  174.0000     3.9130     3.9130     4.2830     7.0730   419.4230     0.5200    22.4500     0.0000     0.0000 
  174.1250     4.0960     3.5950     4.6340     7.0470   417.2170     0.7950    22.3500     0.0000     0.0000 
  174.2500     4.1510     3.2340     4.1500     7.0490   417.5920     0.9030    22.5340     0.0000     0.0000 
  174.3750     4.0020     3.2000     3.8290     7.3230   422.8280     0.7420    22.8210     0.0000     0.0000 
  174.5000     3.4850     3.4340     4.1480     7.4730   425.8710     0.5000    22.8400     0.0000     0.0000 
  174.6250     3.4200     3.8940     4.0450     7.3260   424.0500     0.2770    22.8370     0.0000     0.0000 
  174.7500     3.4270     4.1150     3.9050     7.2960   419.5770     0.1910    22.7750     0.0000     0.0000 
  174.8750     4.2380     4.1750     4.7500     7.2200   415.8740     0.3630    22.6620     0.0000     0.0000 
  175.0000     4.5220     4.1120     4.6900     7.1850   411.6490     0.5800    22.5780     0.0000     0.0000 
