~V
VERS. 2.00: Ver 2.00
~W
STRT.M 20.0000:
STOP.M 252.0000:
STEP.M 0.1250:
NULL. -999.2500:
UWI. Z118:
~C
DEPT.M :
RML.OHMM :
RI. :
RXO.OHMM :
GR.API :
AC.US/MT :
SP.MV :
CALI.CM :
DEN.GM/CC :
CNL.V/V :
~A
# ...
  120.3750     6.4150     5.3790     6.7600     4.9910   461.5200   -13.1790    21.9750     0.0000     0.0000 
  120.5000     5.8940     5.2990     7.1420     4.9460   456.4910   -12.6940    22.0860     0.0000     0.0000 
  120.6250     6.4820     5.7350     7.2990     5.0550   452.4300   -12.2090    22.1570     0.0000     0.0000 
  120.7500     7.2990     5.9590     7.0920     5.0380   452.3170   -11.7250    22.1090     0.0000     0.0000 
  120.8750     7.6060     6.0610     7.1760     5.1340   453.0610   -11.2690    21.9660     0.0000     0.0000 
  121.0000     7.4860     6.0740     7.6390     5.2240   454.0590   -10.8520    21.9600     0.0000     0.0000 
  121.1250     6.9200     5.8480     7.2550     5.2440   453.4710   -10.5970    22.0070     0.0000     0.0000 
  121.2500     6.6440     5.5780     6.9060     5.3840   452.0770   -10.7350    21.9600     0.0000     0.0000 
  121.3750     7.1730     5.9320     7.4490     5.2020   450.4340   -10.9160    21.9010     0.0000     0.0000 
  121.5000     7.3250     6.3080     7.7650     5.1540   450.0950   -10.5830    21.9960     0.0000     0.0000 
  121.6250     7.3650     6.2760     7.6590     5.2560   449.5650   -10.2510    22.0440     0.0000     0.0000 
  121.7500     7.2770     6.1870     7.9330     5.3790   450.0320    -9.9180    22.0410     0.0000     0.0000 
  121.8750     6.8530     6.0810     7.9010     5.4860   448.9570    -9.5910    22.0380     0.0000     0.0000 
  122.0000     7.0140     5.9510     7.2070     5.5890   445.7120    -9.2930    21.9620     0.0000     0.0000 
  122.1250     7.2630     5.9270     7.3860     5.6340   444.7040    -9.2100    21.7730     0.0000     0.0000 
  122.2500     7.1530     6.2400     7.9960     5.6340   450.9350    -9.4040    21.6220     0.0000     0.0000 
  122.3750     7.4320     6.7620     8.1310     5.8360   449.7730    -9.6660    21.4770     0.0000     0.0000 
  122.5000     7.4970     6.9640     7.9890     5.9390   442.7360    -9.9130    21.6430     0.0000     0.0000 
  122.6250     6.9160     6.6150     7.9450     6.0200   447.2690   -10.1320    22.0250     0.0000     0.0000 
  122.7500     6.9790     6.2300     7.4530     6.0930   452.0450   -10.2710    22.1660     0.0000     0.0000 
  122.8750     6.2650     6.0870     7.4600     6.1970   445.2620   -10.4020    22.1630     0.0000     0.0000 
  123.0000     7.7280     6.1360     8.6650     6.4020   436.5180   -10.5290    22.1000     0.0000     0.0000 
  123.1250     9.4170     7.8980    13.9190     6.5080   418.9860    -9.9360    22.0400     0.0000     0.0000 
  123.2500    11.0240     9.8890    21.5890     6.5380   356.9380    -8.8540    21.9720     0.0000     0.0000 
  123.3750    12.0330    11.2310    19.7230     6.6780   260.4890    -7.6660    21.9510     0.0000     0.0000 
  123.5000    12.8090    12.1730    11.5790     6.7950   236.1920    -6.0280    22.2350     0.0000     0.0000 
  123.6250    16.4270    14.1130    14.8630     6.8610   237.7630    -4.7030    22.6400     0.0000     0.0000 
  123.7500    18.6200    16.6960    20.6520     7.0160   240.2920    -3.9480    22.6910     0.0000     0.0000 
  123.8750    20.0360    17.1510    27.5680     7.1420   249.1240    -3.1440    22.6880     0.0000     0.0000 
  124.0000    14.6880    10.9690    31.1950     7.2530   384.6690    -2.2990    22.6350     0.0000     0.0000 
  124.1250     5.6900     6.2020    23.7480     7.2290   403.5820    -1.4540    22.6800     0.0000     0.0000 
  124.2500     4.6860     4.5270     4.9310     7.2750   416.1850    -0.5720    22.7280     0.0000     0.0000 
  124.3750     4.6550     4.5210     4.3160     7.3320   421.7640     0.2260    22.5760     0.0000     0.0000 
  124.5000     5.1300     4.5770     4.9160     7.3160   418.0730     1.0050    22.4520     0.0000     0.0000 
  124.6250     5.7910     5.0730     7.3840     7.1630   406.0020     0.8920    22.2260     0.0000     0.0000 
  124.7500     6.6010     5.9560     9.1760     7.1630   384.0690     0.6190    22.4530     0.0000     0.0000 
  124.8750     7.0500     5.9690     9.2520     7.0450   374.9540     0.3470    22.5710     0.0000     0.0000 
  125.0000     5.8900     4.9250     5.2340     6.9260   389.8840     0.0740    22.7170     0.0000     0.0000 
  125.1250     4.9100     3.8380     4.5000     6.9180   415.6560     0.0170    22.7570     0.0000     0.0000 
  125.2500     4.4370     3.5830     4.7940     6.6980   435.6800     0.5070    22.7540     0.0000     0.0000 
  125.3750     4.4310     3.8350     4.3420     6.5660   433.3630     1.0340    22.5510     0.0000     0.0000 
  125.5000     4.7870     3.8740     4.4390     6.5100   430.4200     1.2550    22.6790     0.0000     0.0000 
  125.6250     5.2150     3.7650     5.1540     6.3880   428.2120     0.9640    22.6580     0.0000     0.0000 
  125.7500     5.9070     4.2570     5.6680     6.3980   427.0790     0.6140    22.3410     0.0000     0.0000 
  125.8750     6.5600     5.0640     5.6610     6.2530   426.5380     0.2610    22.1390     0.0000     0.0000 
  126.0000     7.1170     5.8440     6.5030     6.0470   428.1840    -0.0920    22.1870     0.0000     0.0000 
  126.1250     7.7350     6.2790     6.9160     5.9990   433.4380    -0.4570    22.3830     0.0000     0.0000 
  126.2500     7.2670     6.1650     6.5380     5.8570   440.0360    -0.8920    22.3050     0.0000     0.0000 
  126.3750     6.6520     5.5980     7.4320     5.6230   448.7840    -1.2720    22.1770     0.0000     0.0000 
  126.5000     7.2340     6.3840     7.5870     5.3200   455.2660    -1.5000    22.2970     0.0000     0.0000 
  126.6250     8.6520     7.3260     6.8700     5.0000   458.7570    -1.7270    22.5530     0.0000     0.0000 
  126.7500     9.8070     8.0550    10.2180     4.8160   447.2500    -1.9540    22.3940     0.0000     0.0000 
  126.8750    11.0060     9.0130    13.3310     4.8030   430.7100    -2.1560    22.1650     0.0000     0.0000 
  127.0000    11.1080     9.8730    13.1850     4.9100   433.8000    -2.2220    22.2720     0.0000     0.0000 
  127.1250    10.5540     9.5980    10.4130     4.9420   451.1080    -2.4870    22.3080     0.0000     0.0000 
  127.2500    10.9290     9.2800    10.5370     4.6840   464.4920    -2.9110    22.2270     0.0000     0.0000 
  127.3750    11.1340     9.4220    10.2990     4.7670   468.5280    -3.3340    22.1290     0.0000     0.0000 
  127.5000    10.5610     9.1390    10.1260     4.8460   469.5070    -3.7580    22.0250     0.0000     0.0000 
  127.6250    10.3750     8.8990    10.5230     4.7750   470.5330    -4.1810    21.9960     0.0000     0.0000 
  127.7500    10.7270     8.9820    10.2030     4.8970   469.7700    -4.5070    22.2850     0.0000     0.0000 
  127.8750    10.4770     8.9000     9.6890     5.0610   466.2140    -4.8070    22.3900     0.0000     0.0000 
  128.0000     9.8890     8.6670     9.2980     5.0800   462.8150    -5.0590    22.3870     0.0000     0.0000 
  128.1250     9.6900     8.3380     8.9640     4.9460   465.5260    -5.3040    22.3680     0.0000     0.0000 
  128.2500     9.8930     8.4910     8.7830     4.9930   471.8840    -5.4810    22.3150     0.0000     0.0000 
  128.3750    10.1750     8.7390     9.3700     4.8050   473.0910    -5.6560    22.1590     0.0000     0.0000 
  128.5000     9.8800     8.8190     8.5550     4.8820   468.1020    -5.8300    21.9380     0.0000     0.0000 
  128.6250     9.7360     8.6510     8.5400     5.0190   461.3000    -5.8230    21.7800     0.0000     0.0000 
  128.7500    10.1880     8.4080     9.8570     4.9700   457.7120    -5.7930    21.7690     0.0000     0.0000 
  128.8750    10.8750     8.8080    11.3150     5.1060   453.8490    -5.7080    21.7660     0.0000     0.0000 
  129.0000    11.0160     9.4920    11.9790     5.2400   449.7170    -5.6620    22.0330     0.0000     0.0000 
  129.1250    10.3360     8.6120     9.8370     5.1720   460.2350    -5.6470    22.3090     0.0000     0.0000 
  129.2500     9.8840     8.1850     8.8410     5.2800   473.2120    -5.6320    22.2270     0.0000     0.0000 
  129.3750    10.2820     8.4670     8.7770     5.4150   485.2750    -5.6160    22.0040     0.0000     0.0000 
