~V
VERS. 2.00: Ver 2.00
~W
STRT.M 20.0000:
STOP.M 252.0000:
STEP.M 0.1250:
NULL. -999.2500:
UWI. Z118:
~C
DEPT.M :
RML.OHMM :
RI. :
RXO.OHMM :
GR.API :
AC.US/MT :
SP.MV :
CALI.CM :
DEN.GM/CC :
CNL.V/V :
~A
# ...
  147.7500    16.2500    13.6050    13.0330     4.7010   298.7760     1.7580    22.6800     0.0000     0.0000 
  147.8750    15.9340    14.0140    14.0400     4.6260   294.2360     1.7760    22.6140     0.0000     0.0000 
  148.0000    17.0780    15.1370    14.8950     4.7110   290.7940     1.7240    22.5930     0.0000     0.0000 
  148.1250    18.7960    15.5030    15.3800     4.8050   294.5050     1.6300    22.6220     0.0000     0.0000 
  148.2500    19.9230    15.0440    14.8450     4.9350   296.0280     1.5870    22.6370     0.0000     0.0000 
  148.3750    18.8850    15.5240    14.8690     5.0600   290.1040     1.5520    22.6340     0.0000     0.0000 
  148.5000    18.9820    15.6890    18.6000     5.2000   283.6560     1.5170    22.6660     0.0000     0.0000 
  148.6250    19.2950    15.2730    24.1990     5.3100   278.6760     1.4820    22.7730     0.0000     0.0000 
  148.7500    18.4390    15.4920    26.2130     5.2920   282.9270     1.3750    22.7740     0.0000     0.0000 
  148.8750    19.1870    16.2540    25.2060     5.1920   288.7240     1.2670    22.7110     0.0000     0.0000 
  149.0000    19.6060    15.4220    17.2860     5.4350   294.9180     1.1590    22.6690     0.0000     0.0000 
  149.1250    18.4240    14.5200    17.2990     5.5330   303.3040     1.1180    22.6650     0.0000     0.0000 
  149.2500    17.1310    13.6610    14.3770     5.5750   310.9770     1.0860    22.7620     0.0000     0.0000 
  149.3750    16.6140    14.3950    15.7180     5.5370   312.2250     1.0770    22.7090     0.0000     0.0000 
  149.5000    17.6900    15.9850    14.2250     5.7460   303.6290     0.9940    22.7060     0.0000     0.0000 
  149.6250    18.8030    16.9870    18.3610     5.8400   296.7800     0.8840    22.7030     0.0000     0.0000 
  149.7500    19.6620    16.9120    20.2390     5.8360   297.3740     0.7730    22.7000     0.0000     0.0000 
  149.8750    19.8790    17.1470    22.2810     5.8600   300.5730     0.6630    22.6970     0.0000     0.0000 
  150.0000    21.1480    18.5720    18.3730     5.8520   291.2120     0.5520    22.6940     0.0000     0.0000 
  150.1250    22.4180    20.4670    24.4070     5.8270   276.6900     0.4040    22.6910     0.0000     0.0000 
  150.2500    24.9230    22.2100    27.4900     5.6510   259.5310     0.2990    22.6880     0.0000     0.0000 
  150.3750    26.3640    22.4750    28.3330     5.5730   247.8700     0.2720    22.6850     0.0000     0.0000 
  150.5000    25.5330    23.5800    37.0420     5.4410   243.5770     0.2450    22.6820     0.0000     0.0000 
  150.6250    27.7400    24.9650    45.0470     5.3030   238.6010     0.2860    22.6290     0.0000     0.0000 
  150.7500    29.5270    22.9950    45.6870     5.2270   242.0210     0.3390    22.6310     0.0000     0.0000 
  150.8750    26.3120    21.8010    24.4830     5.3460   254.5390     0.4340    22.6720     0.0000     0.0000 
  151.0000    24.7490    22.2380    27.6420     5.3360   262.4190     0.6310    22.6690     0.0000     0.0000 
  151.1250    25.8210    22.5840    32.2170     5.1180   268.6000     0.9400    22.6160     0.0000     0.0000 
  151.2500    26.5510    20.1190    35.1590     5.2140   270.9280     1.3480    22.6590     0.0000     0.0000 
  151.3750    22.5890    17.9760    24.0680     5.1300   274.2860     1.3760    22.6600     0.0000     0.0000 
  151.5000    20.3310    18.0400    16.6960     4.9810   273.8500     1.4030    22.6570     0.0000     0.0000 
  151.6250    20.3980    17.9950    18.4200     4.8320   274.3850     1.4200    22.7040     0.0000     0.0000 
  151.7500    20.3760    16.3650    20.6630     4.8300   289.6630     1.4110    22.7010     0.0000     0.0000 
  151.8750    18.8750    14.7500    15.9040     4.6540   285.2500     1.4440    22.6980     0.0000     0.0000 
  152.0000    16.5630    13.8860    14.2050     4.7810   281.0160     1.5500    22.6950     0.0000     0.0000 
  152.1250    17.7280    15.0130    15.7110     4.8500   274.9070     1.6550    22.6910     0.0000     0.0000 
  152.2500    19.3210    19.6960    16.5710     4.6590   264.9210     1.8160    22.7200     0.0000     0.0000 
  152.3750    23.2540    22.8230    25.6710     4.6010   251.2010     1.8800    22.7350     0.0000     0.0000 
  152.5000    27.9670    25.0860    31.0780     4.4550   239.3430     1.8840    22.7320     0.0000     0.0000 
  152.6250    29.7980    23.1840    33.4250     4.4790   244.4590     1.8880    22.7290     0.0000     0.0000 
  152.7500    26.7140    20.0840    24.5960     4.4140   255.0080     1.8930    22.7260     0.0000     0.0000 
  152.8750    23.8640    17.2340    22.2930     4.4680   265.9580     1.9570    22.7230     0.0000     0.0000 
  153.0000    21.1650    15.7950    17.7100     4.5560   277.1870     2.0260    22.7570     0.0000     0.0000 
  153.1250    19.8130    18.1460    16.6020     4.6170   282.1260     2.1290    22.8170     0.0000     0.0000 
  153.2500    22.5970    21.3020    25.6820     4.5440   273.8500     2.2410    22.7460     0.0000     0.0000 
  153.3750    24.8180    23.2690    33.5020     4.7650   262.4440     2.3870    22.6110     0.0000     0.0000 
  153.5000    26.3570    21.2910    35.7420     4.8710   255.7990     2.5330    22.5750     0.0000     0.0000 
  153.6250    22.9800    19.0960    21.4710     4.9380   250.2070     2.6790    22.5650     0.0000     0.0000 
  153.7500    22.0840    18.8480    21.1490     4.9740   249.3370     2.7200    22.6510     0.0000     0.0000 
  153.8750    25.2010    22.4970    27.0280     5.0560   251.9690     2.7190    22.5990     0.0000     0.0000 
  154.0000    24.3250    21.2510    26.9370     5.1650   255.2620     2.7100    22.5950     0.0000     0.0000 
  154.1250    21.0900    19.8140    24.2920     5.3120   260.6190     2.6670    22.6210     0.0000     0.0000 
  154.2500    18.3190    18.0200    27.6170     5.3730   268.2440     2.6100    22.6890     0.0000     0.0000 
  154.3750    16.7610    14.9440    13.5810     5.3950   281.2440     2.5540    22.6160     0.0000     0.0000 
  154.5000    16.6920    15.4080    13.5800     5.4330   294.1350     2.4980    22.5830     0.0000     0.0000 
  154.6250    17.9660    17.7880    15.2580     5.5360   285.2870     2.4410    22.6300     0.0000     0.0000 
  154.7500    19.4850    18.6670    16.8660     5.6440   277.0450     2.3610    22.6270     0.0000     0.0000 
  154.8750    18.6130    18.1870    18.5720     5.8090   280.1000     2.2480    22.6240     0.0000     0.0000 
  155.0000    16.3910    17.2170    16.8350     5.8120   281.9760     2.0840    22.7110     0.0000     0.0000 
  155.1250    18.3040    19.9690    18.2260     5.6330   266.7640     1.8700    22.7670     0.0000     0.0000 
  155.2500    23.2760    24.7570    26.3580     5.5910   241.1990     1.6560    22.7640     0.0000     0.0000 
  155.3750    29.3020    26.2220    28.9040     5.7070   234.4740     1.4870    22.6770     0.0000     0.0000 
  155.5000    29.7880    23.7330    30.4930     5.5510   238.0210     1.5960    22.5860     0.0000     0.0000 
  155.6250    26.4460    20.6700    27.8880     5.6930   243.4900     1.8770    22.5550     0.0000     0.0000 
  155.7500    23.2520    18.1300    20.8820     5.8690   248.7930     2.1580    22.5520     0.0000     0.0000 
  155.8750    21.4420    17.2490    22.4880     6.0630   247.7850     2.3830    22.6490     0.0000     0.0000 
  156.0000    17.2420    14.9440    20.4720     6.3140   253.0350     2.5640    22.6460     0.0000     0.0000 
  156.1250    11.8880    11.2680    18.8030     6.4940   269.9100     2.7300    22.6960     0.0000     0.0000 
  156.2500     8.5370     7.7870    17.3080     6.6370   293.7520     2.8750    22.7750     0.0000     0.0000 
  156.3750     6.1750     3.4770    13.5890     6.7710   316.0180     2.9750    22.9060     0.0000     0.0000 
  156.5000     4.6040     3.0700     4.1320     6.8690   360.3210     3.0640    23.0980     0.0000     0.0000 
  156.6250     3.9090     3.0260     3.6580     6.7850   427.8430     3.1530    23.1780     0.0000     0.0000 
  156.7500     3.4900     3.0750     3.7150     6.8840   444.1590     3.2310    23.2130     0.0000     0.0000 
