~V
VERS. 2.00: Ver 2.00
~W
STRT.M 20.0000:
STOP.M 252.0000:
STEP.M 0.1250:
NULL. -999.2500:
UWI. Z118:
~C
DEPT.M :
RML.OHMM :
RI. :
RXO.OHMM :
GR.API :
AC.US/MT :
SP.MV :
CALI.CM :
DEN.GM/CC :
CNL.V/V :
~A
# ...
  211.6250    64.2450    58.2440   107.6380     4.7040   407.0290    -9.1500    22.4260     0.0000     0.0000 
  211.7500    35.3670    36.0440   111.8970     4.8360   404.1040    -9.0910    22.3190     0.0000     0.0000 
  211.8750    17.6360    25.6570   122.8310     4.9310   406.3080    -8.9390    22.2690     0.0000     0.0000 
  212.0000    15.1110    34.8190   116.4810     4.8180   408.9040    -8.7510    22.2160     0.0000     0.0000 
  212.1250    35.1640    53.0610    43.6340     4.6650   411.9970    -8.5310    22.2750     0.0000     0.0000 
  212.2500    59.1850    57.8420    34.0340     4.5110   408.6370    -8.4550    22.3500     0.0000     0.0000 
  212.3750    74.2470    60.1130    38.2300     4.4370   404.6810    -8.7460    22.2890     0.0000     0.0000 
  212.5000    62.7790    56.6810    82.4360     4.4860   400.7680    -9.1390    22.2040     0.0000     0.0000 
  212.6250    48.2920    45.6450    83.0170     4.4460   397.7360    -9.5150    22.2490     0.0000     0.0000 
  212.7500    40.7780    48.6000    87.0680     4.2150   395.0830    -9.8910    22.2480     0.0000     0.0000 
  212.8750    56.4560    60.1740    65.3020     4.4750   391.9430   -10.2670    22.2100     0.0000     0.0000 
  213.0000    79.0100    67.2160    52.1280     4.6180   388.6280   -10.6520    22.1650     0.0000     0.0000 
  213.1250    94.5880    69.8230    63.1380     4.6120   387.7400   -11.0390    22.1750     0.0000     0.0000 
  213.2500    84.2500    65.6860    76.6960     4.5510   393.1680   -11.3080    22.2040     0.0000     0.0000 
  213.3750    70.8020    55.1100    85.1160     4.5790   398.6870   -11.5780    22.2320     0.0000     0.0000 
  213.5000    60.9020    50.0500    89.9420     4.6440   402.1080   -11.7780    22.1300     0.0000     0.0000 
  213.6250    57.5330    48.6510    93.7720     4.7210   404.5040   -11.8530    22.0770     0.0000     0.0000 
  213.7500    52.2550    50.9780    71.1260     4.8560   406.9150   -12.0030    22.1080     0.0000     0.0000 
  213.8750    58.7060    58.0900    65.1090     4.9540   407.5670   -12.3140    22.1700     0.0000     0.0000 
  214.0000    71.3680    59.8200    58.2350     5.0250   407.5360   -12.6250    22.0970     0.0000     0.0000 
  214.1250    73.2170    60.8250    67.2000     5.0750   405.9790   -12.9360    21.7940     0.0000     0.0000 
  214.2500    73.1570    59.7640    79.1180     4.9050   404.5090   -13.2150    21.9140     0.0000     0.0000 
  214.3750    68.0330    57.8500    82.0190     4.8550   405.4810   -13.4920    22.0080     0.0000     0.0000 
  214.5000    66.7200    58.3870    83.4990     4.8920   410.5110   -13.7240    21.9050     0.0000     0.0000 
  214.6250    70.3650    59.1950    84.5560     4.9190   413.4310   -13.9470    22.1880     0.0000     0.0000 
  214.7500    61.7050    56.8480    81.9810     4.7850   414.1190   -14.1700    22.2490     0.0000     0.0000 
  214.8750    53.1000    53.6560    79.1320     4.6560   411.2060   -14.3940    22.1960     0.0000     0.0000 
  215.0000    47.2710    50.2520    78.7930     4.7350   408.5140   -14.5220    22.3160     0.0000     0.0000 
  215.1250    52.3000    51.4010    74.4050     4.8520   406.0020   -14.5910    22.3390     0.0000     0.0000 
  215.2500    61.1730    56.0960    67.4370     4.6490   406.1470   -14.6000    22.2210     0.0000     0.0000 
  215.3750    78.0060    76.0200    73.6490     4.6800   406.8650   -14.5600    22.2330     0.0000     0.0000 
  215.5000    97.2640    89.6570    82.9580     4.5550   403.6520   -14.4250    22.2300     0.0000     0.0000 
  215.6250   110.9860    94.6990    92.2860     4.6300   402.6370   -14.2890    22.1770     0.0000     0.0000 
  215.7500   121.7310    97.2580    99.6330     4.7240   403.7330   -14.3010    22.1740     0.0000     0.0000 
  215.8750   117.1040    97.9290   126.4580     4.5450   399.7210   -14.3290    22.1710     0.0000     0.0000 
  216.0000    89.9340    86.3730   130.6100     4.3930   394.1220   -14.3980    22.0340     0.0000     0.0000 
  216.1250    62.3830    54.7670   137.8900     4.5120   396.8430   -14.5520    21.9650     0.0000     0.0000 
  216.2500    40.9700    46.9490   143.3690     4.4330   401.6370   -14.7010    22.0180     0.0000     0.0000 
  216.3750    46.4190    61.3830   146.7470     4.5080   403.2650   -14.8350    22.1470     0.0000     0.0000 
  216.5000    66.4540    65.2370   105.6680     4.8420   403.9160   -14.9700    22.3050     0.0000     0.0000 
  216.6250    83.5330    67.5360    64.1120     4.7640   403.3650   -15.0470    22.2970     0.0000     0.0000 
  216.7500    83.0700    68.2290    86.4800     4.6890   401.4070   -15.1120    22.2050     0.0000     0.0000 
  216.8750    74.2000    63.8290    96.7960     4.6870   399.2150   -15.1780    22.1130     0.0000     0.0000 
  217.0000    64.5820    54.2280   103.4330     4.4760   397.8010   -15.2160    22.1030     0.0000     0.0000 
  217.1250    55.7600    46.7340   108.1750     4.4540   401.1140   -15.1900    22.1900     0.0000     0.0000 
  217.2500    49.9060    42.3250   107.3650     4.3320   402.7310   -15.1940    22.1870     0.0000     0.0000 
  217.3750    46.6840    38.1590    90.8610     4.3460   402.7000   -15.2430    22.1840     0.0000     0.0000 
  217.5000    42.3210    35.5820    78.3110     4.5000   402.6680   -15.3530    22.1590     0.0000     0.0000 
  217.6250    36.0700    34.2640    65.7610     4.5690   402.6380   -15.4630    22.1400     0.0000     0.0000 
  217.7500    33.3850    34.2860    53.2110     4.5270   405.1050   -15.5730    22.3140     0.0000     0.0000 
  217.8750    32.8170    42.5280    45.0320     4.6040   405.5710   -15.6820    22.3210     0.0000     0.0000 
  218.0000    43.0900    48.9860    47.6780     4.6390   406.9640   -15.7950    22.2790     0.0000     0.0000 
  218.1250    55.3000    53.2590    53.4390     4.5220   411.9980   -15.9090    22.2150     0.0000     0.0000 
  218.2500    64.5420    57.1970    70.9780     4.5250   410.5510   -16.0190    22.2680     0.0000     0.0000 
  218.3750    68.7480    60.6100    74.9340     4.4790   406.6950   -16.0270    22.3200     0.0000     0.0000 
  218.5000    71.1380    62.3420    76.5540     4.4320   402.9200   -15.8830    22.3510     0.0000     0.0000 
  218.6250    71.9810    65.6620    86.3600     4.3700   398.3920   -15.7330    22.0840     0.0000     0.0000 
  218.7500    80.9580    64.3820    87.3790     4.4690   393.7960   -15.7030    21.8170     0.0000     0.0000 
  218.8750    74.6550    61.7620    82.7390     4.5730   389.8440   -15.7980    21.6750     0.0000     0.0000 
  219.0000    69.2690    61.0790    98.1800     4.4740   394.1540   -15.8940    22.1460     0.0000     0.0000 
  219.1250    74.9590    63.6170   102.3790     4.4280   399.3430   -15.9910    22.3410     0.0000     0.0000 
  219.2500    75.7580    62.7090    98.3230     4.3980   399.7350   -16.0880    22.2880     0.0000     0.0000 
  219.3750    75.8540    67.1560   100.8690     4.5280   398.2750   -16.2660    22.2850     0.0000     0.0000 
  219.5000    81.6100    68.6210   103.4190     4.6370   395.6890   -16.4280    22.2810     0.0000     0.0000 
  219.6250    71.8150    60.0820    89.5760     4.6600   393.1510   -16.5220    22.2750     0.0000     0.0000 
  219.7500    58.2590    48.7230    97.6740     4.4990   398.2250   -16.6280    22.1780     0.0000     0.0000 
  219.8750    44.4740    37.0200    95.9570     4.6080   404.7480   -16.7480    22.0670     0.0000     0.0000 
  220.0000    36.1050    34.3500    30.1240     4.7480   405.5390   -16.8670    22.0200     0.0000     0.0000 
  220.1250    29.8090    35.6420    35.5340     4.5680   402.8810   -16.9310    22.0160     0.0000     0.0000 
  220.2500    36.2590    41.6600    50.1670     4.4470   400.6340   -16.9790    22.0130     0.0000     0.0000 
  220.3750    42.3930    44.3370    53.6910     4.3600   399.9530   -17.0370    22.0100     0.0000     0.0000 
  220.5000    43.3200    45.4700    52.3260     4.5920   400.2570   -17.0950    21.9450     0.0000     0.0000 
  220.6250    43.2610    48.2410    67.4310     4.5940   402.9300   -17.1420    21.9040     0.0000     0.0000 
