~V
VERS. 2.00: Ver 2.00
~W
STRT.M 149.0000:
STOP.M 325.0000:
STEP.M 0.1250:
NULL. -999.2500:
UWI. жи031:
~C
DEPT.M :
AC.US/MT :
CALI.CM :
GR.API :
RI. :
RML.OHMM :
RXO.OHMM :
SP.MV :
~A
# ...
  284.0000   404.6710    45.0080     2.5030     4.2750     4.8580     3.5330     0.3520 
  284.1250   412.6980    48.5540     2.4990     4.2750     4.8580     3.5360     0.3540 
  284.2500   436.5860    45.6620     2.4180     4.2750     4.7840     3.6440     0.3520 
  284.3750   436.6270    39.4600     2.4140     4.2750     4.7560     3.7930     0.3400 
  284.5000   436.4770    40.2290     2.5740     4.2750     4.5740     3.9890     0.3280 
  284.6250   445.9130    39.8120     2.7200     4.2750     4.4790     4.1370     0.3160 
  284.7500   451.0400    40.6430     2.9130     4.2750     4.4000     3.5130     0.3110 
  284.8750   444.7500    42.8380     3.1540     4.2750     4.3500     3.0870     0.3120 
  285.0000   438.0440    41.8420     3.3710     4.3030     4.3500     2.9540     0.3140 
  285.1250   451.6100    43.7230     3.5310     4.3820     4.3500     3.0380     0.3150 
  285.2500   466.6690    47.5350     3.6460     4.4700     4.3130     3.2800     0.2970 
  285.3750   455.5590    42.3790     3.7170     4.5590     4.2550     3.5620     0.2750 
  285.5000   436.4540    35.8500     3.6970     4.6530     4.2490     3.7800     0.2530 
  285.6250   379.4820    37.1830     3.6550     4.7490     4.2490     3.8260     0.2310 
  285.7500   361.4250    38.8500     3.6100     4.8500     4.2100     3.7110     0.2170 
  285.8750   386.4140    40.3110     3.5680     4.8700     4.1470     3.4790     0.2070 
  286.0000   405.1110    37.3430     3.5260     4.8690     4.4370     3.2920     0.1980 
  286.1250   411.3860    37.4650     3.4790     4.8950     4.7970     3.1440     0.1890 
  286.2500   396.0040    35.4500     3.5480     4.9290     5.0610     3.0570     0.1800 
  286.3750   382.9940    33.5340     3.6430     4.9630     4.9740     3.0070     0.1800 
  286.5000   410.0660    31.1550     3.4710     4.9690     4.8790     3.1660     0.1820 
  286.6250   437.1370    31.6680     3.3780     5.0440     4.8580     3.4640     0.1830 
  286.7500   464.2090    33.2760     3.3400     5.0670     4.8580     3.7390     0.1850 
  286.8750   424.9660    34.6380     3.3780     4.9860     4.8580     3.8410     0.1860 
  287.0000   380.4360    36.1630     3.2990     4.9680     4.8580     3.9030     0.1880 
  287.1250   385.8380    37.6880     3.1310     5.0980     4.8580     3.9640     0.1760 
  287.2500   375.0460    36.1150     3.0510     5.3930     4.8840     4.0260     0.1640 
  287.3750   383.7870    31.9660     3.1650     5.6310     4.9650     4.0870     0.1530 
  287.5000   378.9960    29.1680     3.2760     5.6630     5.0610     4.1490     0.1410 
  287.6250   360.3710    29.8750     3.3810     5.9140     5.0610     4.2100     0.1300 
  287.7500   326.3800    28.3800     3.4290     6.4760     5.0610     4.2720     0.1180 
  287.8750   354.2880    27.4450     3.4100     6.7530     5.1000     4.3330     0.1070 
  288.0000   403.3560    28.7260     3.3430     6.4300     5.2910     4.3950     0.0950 
  288.1250   452.4250    30.2360     3.2490     6.0430     5.5040     4.1330     0.0000 
  288.2500   341.4880    32.2360     3.1770     5.5600     5.8010     3.6880     0.0000 
  288.3750   351.8100    34.2250     3.0960     5.1240     6.1720     3.4250     0.0000 
  288.5000   365.7220    36.3120     3.0690     4.9570     6.4610     3.2380     0.0000 
  288.6250   354.0260    36.3320     3.1650     4.8680     6.7100     3.1310     0.0000 
  288.7500   387.4910    34.7840     3.2830     4.8990     6.7870     3.1340     0.0000 
  288.8750   422.1610    32.5280     3.4100     4.9670     6.5780     3.1860     0.0000 
  289.0000   414.8600    30.8960     3.5510     4.9670     6.1740     3.2520     0.0000 
  289.1250   403.1120    29.6510     3.6730     4.9670     5.7320     3.3690     0.0000 
  289.2500   363.5480    29.5690     3.6930     4.9670     5.5080     3.5070     0.0000 
  289.3750   379.7420    30.6210     3.6570     4.9670     5.3810     3.6800     0.0000 
  289.5000   429.5540    31.9400     3.6110     4.9660     5.3150     3.9700     0.0000 
  289.6250   440.0220    33.2680     3.5630     4.9660     5.2640     4.1970     0.0000 
  289.7500   447.4300    35.0620     3.5310     4.9660     5.2640     4.1640     0.0000 
  289.8750   437.5060    37.1320     3.6220     4.9660     5.2640     3.9440     0.0000 
  290.0000   392.3230    39.0110     3.9000     4.9660     5.2640     3.8210     0.0000 
  290.1250   354.5830    41.3300     4.1410     5.0170     5.2640     3.6820     0.0000 
  290.2500   338.6210    41.1470     4.1970     5.0650     5.2640     4.7830     0.0000 
  290.3750   329.5920    38.8590     4.1730     5.0650     5.2640     6.6230     0.0000 
  290.5000   331.7630    33.7600     4.2300     5.0650     5.2640     8.8950     0.0000 
  290.6250   336.4660    26.2820     4.3050     5.0650     5.2640    11.5660     0.0000 
  290.7500   335.1890    25.2760     4.3350     5.0650     5.2640    13.7270     0.0000 
  290.8750   328.8480    24.6530     4.0760     5.0650     5.2640    15.5270     0.0000 
  291.0000   321.4360    24.5060     3.8780     5.0650     5.2640    16.8710     0.0000 
  291.1250   317.3200    24.2820     3.6850     5.0650     5.3080    18.4320     0.0000 
  291.2500   337.8960    23.9140     3.5710     5.0640     5.4230    18.8110     0.0000 
  291.3750   357.5630    23.5010     3.6880     5.0640     5.5320    18.8190     0.0000 
  291.5000   381.4300    23.2130     3.7750     5.0640     5.5690    17.0470     0.0000 
  291.6250   406.8190    23.2200     3.8440     5.0640     5.5690    12.1720     0.0000 
  291.7500   428.2530    23.5520     3.8410     5.0640     5.5690     8.4710     0.0000 
  291.8750   423.3540    23.9550     3.8560     5.0640     5.5690     6.3240     0.0000 
  292.0000   416.6470    24.4550     3.8120     5.0640     5.7090     4.7240     0.0000 
  292.1250   411.0040    24.7200     3.7090     5.0700     5.8670     4.7050     0.0000 
  292.2500   414.3130    24.7410     3.5910     5.1170     5.9750     4.6800     0.0000 
  292.3750   432.3340    24.5690     3.6330     5.1630     6.0100     4.5190     0.0000 
  292.5000   458.0650    24.4590     3.6840     5.1630     5.9400     4.0520     0.0000 
  292.6250   487.7880    24.4660     3.6700     5.1630     5.8760     3.6970     0.0000 
  292.7500   495.2720    24.9520     3.6570     5.1630     5.8730     3.4320     0.0000 
  292.8750   469.6820    26.0250     3.6460     5.1630     5.8730     3.3210     0.0000 
  293.0000   439.2030    27.0010     3.6380     5.1620     5.8730     3.4420     0.0000 
  293.1250   415.5810    28.1320     3.6300     5.1620     5.8730     3.8250     0.0000 
  293.2500   394.6010    29.2090     3.6230     5.1620     5.9360     4.3420     0.0000 
  293.3750   379.0600    29.9840     3.6160     5.1810     5.9750     4.9390     0.0000 
  293.5000   376.2730    28.2250     3.6080     5.2150     5.9800     5.0480     0.0000 
  293.6250   394.2160    26.3210     3.6010     5.2490     6.0590     5.3350     0.0000 
  293.7500   406.6270    25.2230     3.5960     5.2840     6.0760     5.9670     0.0000 
  293.8750   417.2270    25.6540     3.5920     5.3180     6.0760     5.5670     0.0000 
  294.0000   402.1260    25.3870     3.5870     5.3520     6.0760     5.3850     0.0000 
  294.1250   378.7130    25.1050     3.5840     5.3790     6.0760     6.4290     0.0000 
  294.2500   357.2370    25.5710     3.5820     5.4040     6.0400     7.6390     0.0000 
  294.3750   339.6380    25.7970     3.5800     5.4290     5.9950     8.8980     0.0000 
  294.5000   323.7770    25.0000     3.5780     5.4530     5.9750    11.0990     0.0000 
  294.6250   315.4650    24.1070     3.5750     5.4590     5.9750    15.5030     0.0000 
  294.7500   324.7220    23.5470     3.5720     5.4590     5.9750    20.9360     0.0000 
  294.8750   347.2900    23.0840     3.5690     5.4590     5.9750    23.9040     0.0000 
  295.0000   373.8130    23.6030     3.5660     5.4590     5.9750    10.8030     0.0000 
  295.1250   402.7990    24.5800     3.5640     0.0000     5.9000     7.1880     0.0000 
