~V
VERS. 2.00: Ver 2.00
~W
STRT.M 149.0000:
STOP.M 325.0000:
STEP.M 0.1250:
NULL. -999.2500:
UWI. жи031:
~C
DEPT.M :
AC.US/MT :
CALI.CM :
GR.API :
RI. :
RML.OHMM :
RXO.OHMM :
SP.MV :
~A
# ...
  272.7500   469.0400    31.3210     3.4650     3.9430     4.6380     3.3990    -0.2820 
  272.8750   424.9390    32.9030     3.4240     3.6540     4.7800     3.5210    -0.2750 
  273.0000   369.1630    34.6880     3.2730     3.6860     4.9460     3.8590    -0.2510 
  273.1250   340.4120    35.4620     3.2290     4.2220     5.0410     3.7850    -0.2260 
  273.2500   369.2530    33.9090     3.2910     4.4380     5.0410     3.3400    -0.1800 
  273.3750   380.4430    32.0050     3.3120     4.7840     5.1320     3.1380    -0.1340 
  273.5000   321.8610    32.9210     3.1100     5.2640     5.3640     3.4650    -0.0690 
  273.6250   327.1150    36.1970     2.9970     4.9710     5.7190     4.0030     0.0000 
  273.7500   377.8530    41.2680     3.0060     4.7590     5.9600     3.5140     0.0430 
  273.8750   348.5830    32.0740     3.1270     4.7070     5.9350     3.3600     0.0690 
  274.0000   307.9720    32.6730     3.2130     4.8030     5.8580     3.2640     0.1030 
  274.1250   345.3510    31.2550     3.0970     5.0070     5.9570     3.1660     0.1460 
  274.2500   362.0900    29.8980     2.9620     5.0760     6.1670     3.1330     0.1880 
  274.3750   338.8020    30.1300     2.9600     5.0760     6.2550     3.1140     0.2120 
  274.5000   373.3410    31.5150     2.8390     4.8490     6.0950     3.0320     0.2350 
  274.6250   465.9270    32.8760     2.5610     4.4860     5.9170     3.0350     0.2400 
  274.7500   480.8450    35.1800     2.6120     4.2700     5.8560     3.2140     0.2410 
  274.8750   457.4810    37.2900     2.6240     4.1820     5.8560     3.3330     0.2430 
  275.0000   424.1080    38.7100     2.5800     4.1820     5.8560     3.4730     0.2420 
  275.1250   428.6380    37.3750     2.6250     4.4120     5.7890     3.5850     0.1650 
  275.2500   424.5000    36.0050     2.6100     4.4480     5.5760     3.6480     0.0880 
  275.3750   396.1910    34.7890     2.6630     4.3090     5.1500     3.6130     0.0060 
  275.5000   362.1210    34.8370     2.6770     4.2810     4.6240     3.2680    -0.0760 
  275.6250   386.6290    36.0790     2.7950     4.3620     4.1150     3.0240    -0.1460 
  275.7500   453.0770    37.1800     2.9300     4.4580     4.6470     2.8310    -0.2120 
  275.8750   498.5220    38.2410     3.0060     4.5320     5.2510     2.6610    -0.2670 
  276.0000   470.3870    37.8790     2.9720     4.6160     5.3420     2.6640    -0.3100 
  276.1250   419.1890    36.6500     3.1110     4.7320     5.2560     2.8320    -0.3420 
  276.2500   371.6040    36.0560     3.2170     4.8480     5.1000     3.1490    -0.3410 
  276.3750   391.0180    34.7630     3.3760     5.0100     5.0340     3.5080    -0.3390 
  276.5000   412.8880    32.2000     3.4570     5.0170     5.0340     3.7150    -0.3380 
  276.6250   434.7570    30.3250     3.3100     4.7210     5.1200     3.8770    -0.3360 
  276.7500   448.2590    31.5680     3.1500     4.5650     5.5690     3.8800    -0.3140 
  276.8750   386.6420    32.9080     2.9680     4.5960     5.7280     3.8030    -0.2900 
  277.0000   361.2760    33.9240     2.9310     5.0390     6.0080     3.6740    -0.2430 
  277.1250   369.9040    31.7060     2.9770     5.3030     5.7350     3.4270    -0.1870 
  277.2500   366.6730    27.1640     2.8570     5.1250     5.0610     3.2060    -0.1300 
  277.3750   365.8150    27.7220     2.7710     4.6790     5.1690     3.0210    -0.0760 
  277.5000   367.2280    29.9120     2.7920     4.3480     5.7360     2.8980    -0.0220 
  277.6250   393.6720    32.2200     2.7220     4.2520     5.7360     2.7920     0.0300 
  277.7500   420.1160    35.9750     2.6020     4.1800     5.2870     2.7320     0.0770 
  277.8750   418.4110    39.3760     2.5240     4.1800     4.8300     2.7040     0.1230 
  278.0000   406.4280    42.1070     2.6420     4.1060     4.5050     2.7060     0.1300 
  278.1250   430.7520    44.7060     2.7950     3.9930     4.3090     2.8180     0.1320 
  278.2500   399.7380    46.7590     2.7660     4.3510     4.2490     2.9660     0.0420 
  278.3750   343.2630    47.2020     2.7280     4.7630     4.3610     3.8140    -0.0530 
  278.5000   322.5610    45.9120     2.8030     5.1740     4.4520     4.9870    -0.2320 
  278.6250   308.5750    43.4370     2.7410     5.4250     4.4520     6.2870    -0.4240 
  278.7500   341.6430    38.0580     2.6390     5.0300     4.4520     7.5760    -0.6280 
  278.8750   406.9490    33.9300     2.5330     4.4910     4.4520     5.3030    -0.8360 
  279.0000   438.5740    35.2400     2.4470     4.0580     4.4520     3.6070    -1.0460 
  279.1250   463.8460    36.5390     2.3150     3.9810     4.6070     2.9990    -1.2600 
  279.2500   462.0340    37.8500     2.2380     3.9810     5.1770     2.9330    -1.4740 
  279.3750   417.6110    39.3980     2.1490     3.9810     5.8100     2.9710    -1.5820 
  279.5000   400.7890    41.4740     2.1200     3.9810     6.2020     3.1390    -1.6730 
  279.6250   398.4150    43.2390     2.1050     3.9810     5.3820     3.5290    -1.7470 
  279.7500   375.2270    42.1340     2.3060     4.0790     4.7560     4.0510    -1.7210 
  279.8750   344.5950    40.1000     2.3930     4.2480     4.5210     4.1710    -1.6900 
  280.0000   354.2940    36.3690     2.4830     4.4760     4.3790     3.2670    -1.5740 
  280.1250   375.9490    27.6580     2.6330     4.7170     4.2820     3.0590    -1.4350 
  280.2500   448.9310    26.6630     2.8070     4.9580     4.1780     3.6540    -1.2410 
  280.3750   437.4950    27.0980     2.9300     5.0970     4.1470     3.6110    -1.0590 
  280.5000   408.1290    28.0010     2.8470     5.2300     4.1470     3.4840    -0.9190 
  280.6250   431.0680    28.9220     2.8680     5.2310     4.2450     3.3370    -0.7790 
  280.7500   417.6940    28.7710     2.7560     5.1740     4.6230     3.2640    -0.6210 
  280.8750   421.7330    27.9630     2.6170     5.1180     5.0800     3.2200    -0.4320 
  281.0000   428.0860    29.3150     2.4940     4.9910     5.3960     3.0670    -0.2430 
  281.1250   414.1370    29.8020     2.3880     4.5450     5.6700     2.8240    -0.0660 
  281.2500   416.7140    31.8010     2.3160     4.1000     5.1250     2.5560     0.0460 
  281.3750   416.5130    33.2930     2.2290     4.0790     5.1470     2.3710     0.1580 
  281.5000   398.4540    32.8200     2.1700     4.0790     5.5430     2.2540     0.2520 
  281.6250   330.4980    32.2020     2.1260     4.0050     5.5840     2.2040     0.3230 
  281.7500   384.0030    31.4790     2.0890     3.8180     4.8610     2.1860     0.3940 
  281.8750   443.8170    33.1370     2.0870     3.6810     4.3500     2.1880     0.4270 
  282.0000   503.6310    36.5780     2.1780     3.7020     4.3090     2.2940     0.4280 
  282.1250   514.8390    40.3440     2.2710     3.8140     4.2640     2.3750     0.4300 
  282.2500   461.5070    45.2570     2.4020     3.9510     4.1730     2.3960     0.4310 
  282.3750   403.8790    48.7830     2.5220     4.0280     4.0570     2.3990     0.4330 
  282.5000   368.8060    51.4310     2.6660     4.0930     4.0350     2.5550     0.4340 
  282.6250   380.3670    50.7150     2.7880     4.1710     3.9440     3.1480     0.4360 
  282.7500   382.3150    48.4270     2.7290     4.2870     3.9440     3.6370     0.4370 
  282.8750   394.1580    45.2810     2.5900     4.7050     3.9440     3.7090     0.4390 
  283.0000   373.2530    40.0750     2.4920     4.6700     3.9890     3.7120     0.4290 
  283.1250   339.6080    41.1930     2.4640     4.5620     4.0460     3.7150     0.4160 
  283.2500   365.3050    39.9130     2.5000     4.4060     4.1850     3.7680     0.4040 
  283.3750   392.0440    37.8930     2.4430     4.2090     4.3750     3.7720     0.3910 
  283.5000   407.9420    35.1450     2.3980     4.0010     4.5740     3.6700     0.3800 
  283.6250   376.6760    36.4650     2.3600     4.0560     4.8110     3.5480     0.3680 
  283.7500   401.1400    38.5640     2.4120     4.1720     4.9870     3.5280     0.3560 
  283.8750   441.7880    41.6780     2.3620     4.2750     4.9860     3.5310     0.3500 
