~V
VERS. 2.00: Ver 2.00
~W
STRT.M 149.0000:
STOP.M 325.0000:
STEP.M 0.1250:
NULL. -999.2500:
UWI. жи031:
~C
DEPT.M :
AC.US/MT :
CALI.CM :
GR.API :
RI. :
RML.OHMM :
RXO.OHMM :
SP.MV :
~A
# ...
  295.2500   432.7400    25.7890     3.5630     0.0000     5.8730     4.5470     0.0000 
  295.3750   464.3430    27.2640     3.5610     0.0000     5.8730     3.3540     0.0000 
  295.5000   475.6590    28.5700     3.5590     0.0000     5.8730     3.2320     0.0000 
  295.6250   462.2260    28.7780     3.5570     0.0000     5.8730     3.6690     0.0000 
  295.7500   448.9030    27.9370     3.5540     0.0000     5.8730     3.9670     0.0000 
  295.8750   451.4860    27.9870     3.5520     0.0000     5.8740     3.9000     0.0000 
  296.0000   457.1980    26.9770     3.5500     0.0000     5.9270     3.8290     0.0000 
  296.1250   441.2810    25.8820     3.5490     0.0000     5.9750     3.7900     0.0000 
  296.2500   425.8750    25.0370     3.5480     0.0000     5.9750     3.8310     0.0000 
  296.3750   410.5380    24.2190     3.5470     0.0000     5.9750     3.9960     0.0000 
  296.5000   399.3610    24.7460     3.5460     0.0000     5.9750     4.3190     0.0000 
  296.6250   402.1000    24.9930     3.5450     0.0000     5.9790     4.7710     0.0000 
  296.7500   418.3560    24.5960     3.5440     0.0000     6.0250     4.8030     0.0000 
  296.8750   434.6380    24.1700     3.5430     0.0000     6.0700     4.6400     0.0000 
  297.0000   456.2490    23.9840     3.5430     0.0000     6.0760     4.1450     0.0000 
  297.1250   446.6370    25.5040     0.0000     0.0000     6.0760     3.7440     0.0000 
  297.2500   401.8320    26.8110     0.0000     0.0000     6.0760     3.6130     0.0000 
  297.3750   375.2400    28.5050     0.0000     0.0000     6.0760     4.0250     0.0000 
  297.5000   353.8270    29.0700     0.0000     0.0000     6.0760     4.2190     0.0000 
  297.6250   356.2680    28.1770     0.0000     0.0000     6.0760     4.2210     0.0000 
  297.7500   387.0160    27.3090     0.0000     0.0000     6.0760     4.2240     0.0000 
  297.8750   406.5650    26.5830     0.0000     0.0000     1.0000     4.3040     0.0000 
  298.0000   427.5890    27.6290     0.0000     0.0000     1.0000     4.4810     0.0000 
  298.1250   407.5960    29.0620     0.0000     0.0000     1.0000     4.5320     0.0000 
  298.2500   403.0600    29.1550     0.0000     0.0000     1.0000     4.4110     0.0000 
  298.3750   418.6490    28.2420     0.0000     0.0000     1.0000     4.0960     0.0000 
  298.5000   428.0390    27.3080     0.0000     0.0000     1.0000     3.9400     0.0000 
  298.6250   411.0020    27.0930     0.0000     0.0000     1.0000     3.9560     0.0000 
  298.7500   403.3890    27.1500     0.0000     0.0000     1.0000     4.0580     0.0000 
  298.8750   402.1140    26.3200     0.0000     0.0000     1.0000     4.3610     0.0000 
  299.0000   413.1320    25.9140     0.0000     0.0000     1.0000     4.3560     0.0000 
  299.1250   425.5060    25.6480     0.0000     0.0000     1.0000     4.8080     0.0000 
  299.2500   437.5970    26.0270     0.0000     0.0000     1.0000     5.5470     0.0000 
  299.3750   438.7450    26.3700     0.0000     0.0000     1.0000     5.5910     0.0000 
  299.5000   419.8710    26.5620     0.0000     0.0000     1.0000     4.8360     0.0000 
  299.6250   408.4950    26.4630     0.0000     0.0000     1.0000     4.3960     0.0000 
  299.7500   402.0320    26.0930     0.0000     0.0000     1.0000     4.4840     0.0000 
  299.8750   409.5220    25.6840     0.0000     0.0000     1.0000     4.7140     0.0000 
  300.0000   418.5330    25.6960     0.0000     0.0000     1.0000     4.4700     0.0000 
  300.1250   424.0130    26.6370     0.0000     0.0000     0.0000     4.2130     0.0000 
  300.2500   413.9780    27.2960     0.0000     0.0000     0.0000     4.0770     0.0000 
  300.3750   410.6920    27.9640     0.0000     0.0000     0.0000     4.0790     0.0000 
  300.5000   421.3350    28.0690     0.0000     0.0000     0.0000     4.2230     0.0000 
  300.6250   430.8200    27.6580     0.0000     0.0000     0.0000     4.3710     0.0000 
  300.7500   431.6850    27.0970     0.0000     0.0000     0.0000     4.7930     0.0000 
  300.8750   423.1290    26.4250     0.0000     0.0000     0.0000     5.1390     0.0000 
  301.0000   420.9550    25.6320     0.0000     0.0000     0.0000     5.4320     0.0000 
  301.1250   412.1150    24.6380     0.0000     0.0000     0.0000     5.6590     0.0000 
  301.2500   406.1000    23.6210     0.0000     0.0000     0.0000     5.8180     0.0000 
  301.3750   402.5360    23.0820     0.0000     0.0000     0.0000     5.9350     0.0000 
  301.5000   404.6220    23.3110     0.0000     0.0000     0.0000     6.0030     0.0000 
  301.6250   401.4070    23.7040     0.0000     0.0000     0.0000     6.0060     0.0000 
  301.7500   391.3500    24.0860     0.0000     0.0000     0.0000     6.0090     0.0000 
  301.8750   380.3760    24.6010     0.0000     0.0000     0.0000     5.5800     0.0000 
  302.0000   402.4980    25.5590     0.0000     0.0000     0.0000     4.6490     0.0000 
  302.1250   432.1220    27.1260     0.0000     0.0000     0.0000     3.9610     0.0000 
  302.2500   466.6380    29.0220     0.0000     0.0000     0.0000     3.4620     0.0000 
  302.3750   501.7880    31.2280     0.0000     0.0000     0.0000     3.1760     0.0000 
  302.5000   523.5140    33.3760     0.0000     0.0000     0.0000     3.1600     0.0000 
  302.6250   524.8540    33.0440     0.0000     0.0000     0.0000     3.2780     0.0000 
  302.7500   416.0910    32.6800     0.0000     0.0000     0.0000     3.4300     0.0000 
  302.8750   409.2670    32.3650     0.0000     0.0000     0.0000     3.4320     0.0000 
  303.0000   424.8980    32.1000     0.0000     0.0000     0.0000     3.4350     0.0000 
  303.1250   443.9250    33.4350     0.0000     0.0000     0.0000     3.4380     0.0000 
  303.2500   466.3370    35.1570     0.0000     0.0000     0.0000     3.4230     0.0000 
  303.3750   481.2010    36.5090     0.0000     0.0000     0.0000     3.3430     0.0000 
  303.5000   469.1590    35.8470     0.0000     0.0000     0.0000     3.3460     0.0000 
  303.6250   441.6950    35.2300     0.0000     0.0000     0.0000     3.6480     0.0000 
  303.7500   491.3210    36.5510     0.0000     0.0000     0.0000     3.6510     0.0000 
  303.8750   507.7750    38.3340     0.0000     0.0000     0.0000     3.6530     0.0000 
  304.0000   515.5410    39.3450     0.0000     0.0000     0.0000     3.5280     0.0000 
  304.1250   521.2750    40.7860     0.0000     0.0000     0.0000     3.2950     0.0000 
  304.2500   483.6250    42.2460     0.0000     0.0000     0.0000     3.2610     0.0000 
  304.3750   442.4410    41.1660     0.0000     0.0000     0.0000     3.3410     0.0000 
  304.5000   453.1770    39.1150     0.0000     0.0000     0.0000     3.3670     0.0000 
  304.6250   434.0570    31.6480     0.0000     0.0000     0.0000     3.2820     0.0000 
  304.7500   433.4020    29.8310     0.0000     0.0000     0.0000     3.1810     0.0000 
  304.8750   412.6930    28.8100     0.0000     0.0000     0.0000     3.3660     0.0000 
  305.0000   401.4190    28.3650     0.0000     0.0000     0.0000     3.4770     0.0000 
  305.1250   409.2300    29.8440     0.0000     0.0000     0.0000     3.4670     0.0000 
  305.2500   423.3700    31.6820     0.0000     0.0000     0.0000     3.2010     0.0000 
  305.3750   438.1480    34.1630     0.0000     0.0000     0.0000     3.0880     0.0000 
  305.5000   454.8580    36.0670     0.0000     0.0000     0.0000     3.1440     0.0000 
  305.6250   473.3910    37.4710     0.0000     0.0000     0.0000     3.3760     0.0000 
  305.7500   493.7890    38.6810     0.0000     0.0000     0.0000     3.0930     0.0000 
  305.8750   473.0520    38.0430     0.0000     0.0000     0.0000     3.4770     0.0000 
  306.0000   439.4570    36.3170     0.0000     0.0000     0.0000     4.3560     0.0000 
  306.1250   399.9700    33.9150     0.0000     0.0000     0.0000     4.8010     0.0000 
  306.2500   384.6160    30.8050     0.0000     0.0000     0.0000     4.8040     0.0000 
  306.3750   397.4920    27.9440     0.0000     0.0000     0.0000     4.7440     0.0000 
