~V
VERS. 2.00: Ver 2.00
~W
STRT.M 149.0000:
STOP.M 325.0000:
STEP.M 0.1250:
NULL. -999.2500:
UWI. жи031:
~C
DEPT.M :
AC.US/MT :
CALI.CM :
GR.API :
RI. :
RML.OHMM :
RXO.OHMM :
SP.MV :
~A
# ...
  216.5000   442.5250    32.6390     2.3520     5.3460     6.2050     4.1060     0.7590 
  216.6250   419.3740    31.2640     2.3070     5.3880     6.2840     3.8640     0.8070 
  216.7500   394.5900    31.4490     2.3140     5.4330     6.3060     3.8260     0.8510 
  216.8750   370.0620    32.5170     2.3550     5.4850     6.3060     4.1230     0.8760 
  217.0000   401.9360    33.8820     2.4030     5.5360     6.3620     4.3150     0.9010 
  217.1250   441.2640    35.4160     2.4080     5.5880     6.4080     4.2310     0.9250 
  217.2500   477.4770    35.4560     2.3440     5.6280     6.4070     4.0660     0.9500 
  217.3750   498.5500    32.0400     2.2940     5.6590     6.3480     3.9650     0.9840 
  217.5000   486.7560    33.3550     2.2990     5.6900     6.3050     3.9270     1.0200 
  217.6250   471.0400    32.5210     2.4030     5.7100     6.3040     4.0280     1.0570 
  217.7500   453.0570    33.0370     2.5010     5.7100     6.3430     4.3110     1.0930 
  217.8750   467.0000    35.3760     2.4780     5.7100     6.4060     4.4350     1.1350 
  218.0000   489.0220    38.3590     2.4480     5.6940     6.3440     4.2610     1.1830 
  218.1250   490.0790    32.7920     2.5510     5.5840     6.2010     3.9710     1.2310 
  218.2500   500.7550    34.6620     2.5460     5.4750     6.2400     3.7430     1.2790 
  218.3750   517.9350    36.3440     2.5150     5.4120     6.3030     3.7840     1.3260 
  218.5000   490.8790    35.9570     2.5980     5.4120     6.3030     3.9770     1.3710 
  218.6250   469.2440    35.3490     2.7190     5.4120     6.3020     4.1800     1.4150 
  218.7500   486.6850    38.2810     2.8560     5.4120     6.4160     4.4160     1.4600 
  218.8750   435.9820    40.4740     2.9650     5.4640     6.6440     4.6790     1.5050 
  219.0000   405.7390    39.5680     3.1030     5.5530     6.8740     4.7590     1.5460 
  219.1250   412.3890    38.6760     3.0130     5.5430     6.7350     4.1480     1.5850 
  219.2500   433.0940    39.5380     2.8910     5.3510     6.3940     3.4520     1.6240 
  219.3750   454.5980    42.1030     2.7910     5.1860     6.1980     3.4550     1.6630 
  219.5000   431.0320    44.6660     2.7070     5.0910     6.1630     3.8460     1.6940 
  219.6250   426.3350    47.8000     2.8520     4.9960     6.0710     4.0720     1.7190 
  219.7500   411.7510    49.3410     2.9670     4.9150     5.9850     4.0450     1.7430 
  219.8750   396.6670    49.4100     2.9390     4.9150     5.9260     3.8600     1.7680 
  220.0000   403.7260    49.0950     2.9110     4.9150     5.8900     3.6240     1.7750 
  220.1250   393.0050    50.4060     3.0220     4.8540     5.7910     3.3560     1.7320 
  220.2500   413.7190    51.9300     3.2400     4.7270     5.5580     3.1500     1.6890 
  220.3750   469.9380    53.3430     3.4650     4.5650     5.3740     3.0880     1.6460 
  220.5000   467.2280    54.7750     3.7470     4.4030     5.2750     3.1780     1.5480 
  220.6250   424.2730    55.9350     4.1210     4.3240     5.5470     3.2930     1.4450 
  220.7500   381.3190    54.6230     4.5400     4.4190     6.1480     3.2320     1.3420 
  220.8750   338.3640    52.2790     4.8080     4.5150     6.6170     3.1100     1.2230 
  221.0000   331.1540    49.3430     4.9540     4.9800     7.3430     4.3500     1.0900 
  221.1250   337.2490    27.8070     5.0980     5.4550     7.8470     5.7780     0.9570 
  221.2500   360.3520    26.2600     5.2280     6.0550     8.0060     7.3250     0.8250 
  221.3750   381.0690    24.9610     5.3510     6.5440     8.0360     7.1520     0.6960 
  221.5000   399.2560    24.5720     5.4820     6.6990     8.0350     6.5980     0.5670 
  221.6250   405.1710    25.0270     5.4500     6.7660     7.3610     6.3220     0.4380 
  221.7500   404.6480    25.7010     5.4020     6.6700     6.9100     6.1880     0.3270 
  221.8750   416.0000    26.3100     5.4280     6.6270     7.0320     6.1880     0.2470 
  222.0000   428.0040    25.8770     5.5110     6.7220     7.2910     6.2720     0.1670 
  222.1250   438.5020    25.3520     5.5440     6.7840     7.1100     6.1220     0.0870 
  222.2500   440.4910    25.4940     5.5270     6.7060     7.0110     6.0590     0.0180 
  222.3750   435.7650    25.2380     5.5150     6.6290     7.3990     5.9950    -0.0450 
  222.5000   443.5620    24.7830     5.5980     6.9940     7.6690     5.9380    -0.1080 
  222.6250   426.5820    24.4970     5.7130     7.2950     7.7260     6.2910    -0.1720 
  222.7500   425.7700    24.2100     5.6160     7.2950     7.6410     6.4380    -0.2330 
  222.8750   434.1990    23.9080     5.5130     7.2840     7.5210     6.3420    -0.2650 
  223.0000   442.4040    23.7800     5.4110     7.2450     7.5240     6.2190    -0.2970 
  223.1250   449.4150    23.6930     5.2810     7.2060     7.5880     6.0970    -0.3290 
  223.2500   446.3470    23.6920     5.2020     7.1950     7.6550     6.0150    -0.3610 
  223.3750   433.1810    23.6920     5.1030     7.2340     7.7260     5.9600    -0.3860 
  223.5000   424.8960    23.7110     5.1120     7.4030     7.8270     6.0420    -0.4060 
  223.6250   422.4670    23.7350     5.2310     7.7470     8.1370     6.4160    -0.4260 
  223.7500   412.8540    23.7940     5.3340     8.3270     8.6430     7.0350    -0.4460 
  223.8750   400.2220    23.8660     5.1990     8.9430     9.2600     7.5810    -0.4660 
  224.0000   390.2680    23.9070     5.1080     9.5590    10.0500     8.3030    -0.4560 
  224.1250   379.4270    23.9310     5.2400    10.0870    10.8300     9.2320    -0.4450 
  224.2500   387.1310    23.9410     5.3400    10.5330    10.9230     9.9620    -0.4330 
  224.3750   396.3210    23.9410     5.3200    10.6930    10.2990     9.8400    -0.4220 
  224.5000   404.0050    23.9410     5.1130    10.1390     9.8390     8.7400    -0.4110 
  224.6250   397.6380    23.9400     5.0170     9.6000     9.8080     8.0750    -0.3800 
  224.7500   389.9190    23.9400     4.8600     9.3780     9.9000     8.7310    -0.3460 
  224.8750   383.3860    23.9400     4.8760     9.7480    10.1560    10.0710    -0.3130 
  225.0000   379.1680    23.9210     4.9280     9.9320    10.3610    11.0590    -0.2790 
  225.1250   379.1380    23.8680     4.8390     9.6210    10.0810    10.3890    -0.2400 
  225.2500   386.1350    23.8240     4.8870     9.3500     9.5830     9.3500    -0.1870 
  225.3750   391.9290    23.7890     5.0790     9.2260     9.3570     8.5440    -0.1330 
  225.5000   397.1670    23.7890     5.2140     9.1010     9.3570     7.9200    -0.0790 
  225.6250   395.1890    23.7890     5.1950     9.0530     9.3570     7.5640    -0.0260 
  225.7500   392.6010    23.7890     5.1650     9.0200     9.5690     7.3470     0.0240 
  225.8750   390.1960    23.8020     5.0610     8.9870     9.9080     7.3040     0.0690 
  226.0000   388.4850    23.8280     4.9840     9.1760    10.1630     7.3580     0.1130 
  226.1250   387.9150    23.8700     4.9020     9.4230    10.5120     7.7380     0.1580 
  226.2500   387.5050    23.9220     4.8070     9.6700    10.9800     8.1180     0.2020 
  226.3750   387.2270    23.9770     4.8230    10.0810    11.5100     8.6340     0.2310 
  226.5000   388.0060    24.0340     4.7520    10.6100    12.2480     9.1990     0.2550 
  226.6250   390.0900    24.0370     4.6810    11.1380    13.3010     9.7740     0.2780 
  226.7500   392.6670    24.0370     4.6890    11.6640    14.4910    10.3810     0.3020 
  226.8750   390.2440    24.0370     4.7050    12.1780    15.4510    11.0120     0.3230 
  227.0000   387.4660    24.0370     4.5990    12.6920    15.9400    11.6440     0.3380 
  227.1250   385.7270    24.0120     4.5080    13.1250    15.6480    12.1380     0.3520 
  227.2500   383.0110    23.9860     4.6290    12.6430    14.3550    11.9610     0.3670 
  227.3750   381.3250    23.9650     4.8170    11.4470    12.3410    10.6940     0.3460 
  227.5000   385.5150    23.9440     4.8050    10.5060    11.2190     9.2570     0.2880 
  227.6250   390.4110    23.9360     4.8030     9.5850    10.2570     7.8040     0.2300 
