~V
VERS. 2.00: Ver 2.00
~W
STRT.M 149.0000:
STOP.M 325.0000:
STEP.M 0.1250:
NULL. -999.2500:
UWI. жи031:
~C
DEPT.M :
AC.US/MT :
CALI.CM :
GR.API :
RI. :
RML.OHMM :
RXO.OHMM :
SP.MV :
~A
# ...
  205.2500   242.7530    25.4910     4.5690    21.2950    24.1730    19.1530     0.3770 
  205.3750   243.9390    25.6680     4.7770    23.6380    25.5870    22.7200     0.3260 
  205.5000   247.0830    25.6230     4.8500    26.8410    29.2040    27.4060     0.2720 
  205.6250   260.8970    25.3070     4.7550    29.2210    35.4240    30.8470     0.2150 
  205.7500   261.0760    24.9730     4.6340    26.0880    36.0900    33.5110     0.1590 
  205.8750   271.8750    24.6580     4.5020    12.9130    25.9260    30.4800     0.1020 
  206.0000   295.4810    24.4610     4.3840     9.0970    15.7300    17.1460     0.0480 
  206.1250   361.2560    24.8770     4.2520     7.4320     9.8600    10.0620    -0.0030 
  206.2500   427.0300    26.0040     4.0800     6.4370     6.7780     6.8780    -0.0530 
  206.3750   465.2580    28.0160     3.9120     5.9050     6.0210     4.7700    -0.1040 
  206.5000   463.0520    30.4600     4.0130     5.6760     6.2080     3.8290    -0.1420 
  206.6250   456.2210    33.4560     4.0860     5.6190     6.4480     3.3570    -0.1710 
  206.7500   428.8680    33.3350     3.9380     6.1140     6.6500     3.5190    -0.2000 
  206.8750   394.6880    32.1070     3.7530     6.4670     6.8370     4.0150    -0.2290 
  207.0000   360.7260    31.2050     3.6350     6.5800     7.0290     4.5120    -0.2590 
  207.1250   371.9660    30.2670     3.5060     6.5370     7.1410     4.7940    -0.2880 
  207.2500   368.6500    29.5470     3.4720     6.4130     7.2470     4.7180    -0.3160 
  207.3750   352.0810    29.0370     3.5700     6.2690     7.2460     4.3070    -0.3140 
  207.5000   388.7280    29.1690     3.3670     6.1250     7.2320     4.0920    -0.3130 
  207.6250   423.8060    29.9580     3.1810     6.0430     7.0480     3.9540    -0.3110 
  207.7500   401.0010    30.8320     3.0720     5.9650     6.9390     4.2410    -0.3100 
  207.8750   378.1960    30.5380     3.0750     5.9160     7.0340     4.4240    -0.3080 
  208.0000   355.3910    29.2200     3.0540     5.9150     7.1950     4.1560    -0.3140 
  208.1250   372.4670    28.2710     2.9750     5.9300     7.2080     3.8000    -0.3720 
  208.2500   359.3490    27.4110     3.0280     6.0460     7.1420     3.6630    -0.4300 
  208.3750   376.3280    27.7460     3.1340     6.1620     7.2090     3.5730    -0.4880 
  208.5000   422.2420    29.0110     3.2390     6.2770     7.3360     3.6070    -0.5430 
  208.6250   411.1160    30.3070     3.2310     6.3890     7.6080     3.7540    -0.5950 
  208.7500   389.2480    29.6840     3.2380     6.4610     7.8570     3.9420    -0.6480 
  208.8750   367.3790    29.0840     3.3210     6.5360     7.6530     3.9450    -0.6990 
  209.0000   351.1460    29.6990     3.3900     6.6600     7.8500     3.9110    -0.7250 
  209.1250   401.7450    30.7680     3.3170     6.7090     8.1890     3.7500    -0.7500 
  209.2500   439.4270    31.3600     3.1210     6.7090     8.0200     3.7850    -0.7760 
  209.3750   457.8790    30.1300     2.9090     6.7090     7.5790     4.0080    -0.7900 
  209.5000   469.5280    28.8910     2.7310     6.6580     7.1710     4.1450    -0.7890 
  209.6250   478.1150    28.5130     2.5830     6.5330     6.9350     3.9190    -0.7870 
  209.7500   480.7910    29.1390     2.5420     6.3840     6.9340     3.7810    -0.7580 
  209.8750   471.4180    29.0520     2.5260     6.2280     6.9340     3.6740    -0.6860 
  210.0000   460.5520    26.9670     2.4520     6.0260     6.9340     3.9460    -0.6130 
  210.1250   454.1570    25.7130     2.3730     5.9600     6.9340     4.1360    -0.5410 
  210.2500   451.5750    26.0330     2.2880     5.9140     6.9340     4.2370    -0.4180 
  210.3750   445.4330    26.7370     2.2970     5.9140     6.9330     4.2760    -0.2880 
  210.5000   438.8950    27.4460     2.2630     5.9140     6.9330     4.2910    -0.1630 
  210.6250   432.2220    28.0640     2.2230     5.9140     6.9330     4.4190    -0.0730 
  210.7500   430.1380    27.4750     2.3270     5.9130     6.9580     4.4840     0.0180 
  210.8750   443.5290    27.0210     2.2560     5.9130     7.1180     4.4020     0.1090 
  211.0000   454.8490    26.8010     2.0500     5.8470     7.2010     4.2340     0.1700 
  211.1250   467.4640    27.3130     1.9290     5.6520     7.0410     4.0280     0.2240 
  211.2500   455.1240    28.1260     1.8660     5.3920     6.8500     3.8910     0.2780 
  211.3750   417.9570    29.2500     1.8580     5.2070     6.6850     3.7980     0.3310 
  211.5000   386.7760    30.4590     1.8770     5.0510     6.5680     3.8000     0.3350 
  211.6250   432.7950    31.9320     1.9040     5.0200     6.5220     3.8030     0.3370 
  211.7500   478.8140    33.7110     1.9420     5.0190     6.5360     3.7110     0.3380 
  211.8750   476.4600    36.1730     1.9930     5.0190     6.6230     3.6080     0.3320 
  212.0000   423.7450    38.5970     2.0380     5.0190     6.6230     3.6380     0.3080 
  212.1250   432.8210    40.4460     2.0780     5.0190     6.4290     3.7960     0.2830 
  212.2500   458.5290    40.6670     2.1120     5.0190     6.5200     4.2290     0.2580 
  212.3750   468.0080    38.1510     2.1370     5.0480     6.7280     4.4110     0.2200 
  212.5000   441.9750    34.2230     2.1490     5.0810     6.8190     4.3220     0.1640 
  212.6250   438.6550    31.7320     2.2020     5.1130     6.8260     4.0560     0.1090 
  212.7500   456.8260    31.2460     2.2200     5.1490     6.8090     3.9580     0.0540 
  212.8750   464.9920    31.6880     2.1430     5.1850     6.7560     4.0930     0.0390 
  213.0000   494.3970    32.3050     2.0670     5.2270     6.7230     4.2840     0.0280 
  213.1250   485.4050    29.7000     2.0060     5.3040     6.7230     4.2080     0.0160 
  213.2500   431.3940    28.2420     1.9940     5.3820     6.7230     3.9760     0.0060 
  213.3750   438.6280    29.3310     2.0390     5.4160     6.6370     3.7430     0.0080 
  213.5000   440.9710    30.3720     2.0650     5.4150     6.4030     3.7500     0.0090 
  213.6250   459.0580    31.3900     2.0870     5.4150     6.2430     3.9940     0.0110 
  213.7500   457.1450    32.4020     2.1860     5.3840     6.1080     4.1770     0.0120 
  213.8750   448.5240    33.4130     2.2730     5.3480     6.3030     4.1830     0.0360 
  214.0000   456.1490    34.5200     2.3660     5.3200     6.5000     4.0530     0.0620 
  214.1250   469.2360    35.1110     2.4510     5.3530     6.6180     4.0560     0.0880 
  214.2500   487.3230    34.4210     2.4880     5.3850     6.6180     4.0580     0.1130 
  214.3750   459.0990    35.3940     2.4790     5.4200     6.6180     4.0610     0.1440 
  214.5000   449.0010    36.5690     2.5080     5.4790     6.6180     4.0690     0.1760 
  214.6250   464.0870    36.4380     2.5450     5.5380     6.6170     4.1620     0.2080 
  214.7500   451.0160    33.9300     2.5320     5.5970     6.6550     4.4070     0.2400 
  214.8750   391.5650    34.7880     2.4950     5.6690     6.7690     4.5720     0.2720 
  215.0000   424.6730    36.1230     2.5000     5.7680     6.9090     4.2140     0.3040 
  215.1250   457.7800    37.7300     2.5460     5.8090     6.5690     3.5180     0.3430 
  215.2500   483.0050    39.5250     2.5920     5.5910     6.1830     3.2680     0.4050 
  215.3750   450.2340    41.4210     2.5410     5.5130     6.0390     3.2210     0.4670 
  215.5000   408.5200    43.2970     2.4550     5.6730     6.0530     3.4580     0.5280 
  215.6250   368.4860    41.6270     2.3910     5.7120     6.1690     3.8520     0.5860 
  215.7500   381.1600    38.7900     2.3390     5.7120     6.4090     4.1980     0.5980 
  215.8750   392.2680    37.5760     2.3020     5.7110     6.4100     4.4900     0.6100 
  216.0000   401.6230    37.5940     2.3600     5.7110     6.4720     4.6890     0.6220 
  216.1250   424.7660    37.6480     2.3470     5.6090     6.4810     4.2990     0.6350 
  216.2500   451.1110    36.6380     2.2940     5.4090     6.4100     3.9880     0.6630 
  216.3750   461.7420    34.7420     2.3520     5.3310     6.2050     3.9790     0.7110 
