~V
VERS. 2.00: Ver 2.00
~W
STRT.M 149.0000:
STOP.M 325.0000:
STEP.M 0.1250:
NULL. -999.2500:
UWI. жи031:
~C
DEPT.M :
AC.US/MT :
CALI.CM :
GR.API :
RI. :
RML.OHMM :
RXO.OHMM :
SP.MV :
~A
# ...
  160.2500   401.3040    24.6510     5.2390     4.8570     6.4640     3.9450    -1.2020 
  160.3750   384.9580    24.4820     5.0300     5.9420     8.2330     6.1350    -1.4340 
  160.5000   348.0610    24.2790     4.9260     7.7570    10.7200     8.3790    -1.6620 
  160.6250   306.2790    24.0280     4.9800     9.6840    12.6930    11.0240    -1.8650 
  160.7500   340.2950    23.7760     5.0310    11.8620    12.0590    13.7800    -2.0420 
  160.8750   376.1410    23.5270     5.0750    11.5550     9.8710    16.5670    -2.2060 
  161.0000   411.9860    23.3520     5.0180    10.2940     9.7980    12.2290    -2.3360 
  161.1250   435.2140    23.2650     4.9210     9.5750     9.0990     9.1760    -2.4260 
  161.2500   432.8850    23.2340     4.8660     8.9490     8.9300     6.8390    -2.4490 
  161.3750   426.0880    23.2330     4.7460     8.5590     9.5050     6.7560    -2.4570 
  161.5000   421.1040    23.2660     4.5970     9.1260    10.4250     9.3670    -2.4290 
  161.6250   399.3000    23.3590     4.6100    10.1670    11.5980    12.0770    -2.4110 
  161.7500   387.3450    23.5380     4.7550    10.9860    12.3940    14.4680    -2.4100 
  161.8750   416.2350    23.7120     4.8930    11.7420    10.3650    17.0810    -2.4080 
  162.0000   445.1250    23.8750     5.0280    10.3880     9.2320    14.4870    -2.4120 
  162.1250   447.9660    23.9760     5.1430     9.1270     8.5300     9.7580    -2.4270 
  162.2500   425.5280    24.0320     4.9940     8.2630     8.0560     7.1180    -2.4420 
  162.3750   412.3120    24.0320     4.8690     7.5740     9.2380     8.5790    -2.4580 
  162.5000   424.0860    24.1000     4.8320     9.8280    11.5400    12.4350    -2.4750 
  162.6250   434.3080    24.2670     4.8490    11.5050    12.0600    15.7920    -2.4920 
  162.7500   415.7950    24.4550     4.8500    11.2340    13.0520    12.0750    -2.4980 
  162.8750   389.0270    24.5310     4.9670    13.1440    15.5700     9.3630    -2.4960 
  163.0000   350.0690    24.4100     4.6960    15.1440    18.6260    11.7280    -2.4730 
  163.1250   311.1120    24.2590     4.7210    17.3170    17.2040    14.2220    -2.3540 
  163.2500   340.6460    24.1960     4.8160    13.3550    11.3180    16.6450    -2.2350 
  163.3750   396.6090    24.1810     4.9710    10.7420     9.9980    13.3830    -2.0790 
  163.5000   416.3940    24.1800     5.1470     8.6450    10.8240    10.0040    -1.9020 
  163.6250   427.0330    24.2340     5.2980     9.8120    12.1860     7.4140    -1.7210 
  163.7500   434.7240    24.3420     5.3160    11.3000    12.5180     7.1570    -1.4940 
  163.8750   439.2870    24.4810     5.1730    11.2410    12.4520     7.9690    -1.2670 
  164.0000   437.9270    24.6060     5.2980    10.6110    12.4510     8.1960    -1.0390 
  164.1250   433.7600    24.6940     5.4320    10.4370    11.8980     8.2440    -0.8090 
  164.2500   430.4500    24.7380     5.5720     7.5650     8.8350     8.4540    -0.5780 
  164.3750   428.6010    24.8270     5.7030     6.2130     7.1560     6.3560    -0.4200 
  164.5000   433.8880    24.8790     5.7750     5.7470     6.9260     4.7220    -0.2820 
  164.6250   440.1320    24.8090     5.6230     5.8580     6.9900     3.8900    -0.1700 
  164.7500   439.6200    24.6530     5.4960     6.3840     7.2130     3.8630    -0.1440 
  164.8750   431.9840    24.5580     5.4410     6.7390     7.3350     4.4350    -0.1560 
  165.0000   429.3430    24.5280     5.5600     6.4180     7.1550     5.0420    -0.3720 
  165.1250   432.0700    24.5390     5.6710     5.9650     6.8940     5.0500    -0.6040 
  165.2500   430.2970    24.5680     5.7760     5.5710     6.5860     4.8790    -1.0210 
  165.3750   428.3060    24.5770     5.8750     5.3810     6.5150     4.7070    -1.4380 
  165.5000   431.0220    24.5770     5.7590     5.2850     6.5150     4.5540    -1.9430 
  165.6250   437.2390    24.5770     5.5650     5.2120     6.5150     4.4080    -2.4860 
  165.7500   444.5960    24.4720     5.3780     5.1500     6.2680     4.1760    -3.0130 
  165.8750   438.2240    24.2160     5.1810     5.1500     6.3350     4.0720    -3.5020 
  166.0000   423.1460    23.9080     5.0720     5.2710     7.1450     4.0950    -3.9920 
  166.1250   414.1610    23.6720     5.0130     6.1660     8.2170     4.6260    -4.6000 
  166.2500   408.6680    23.5230     4.9850     7.1880     8.8490     5.4550    -5.2450 
  166.3750   407.1770    23.3940     4.9720     7.8160     8.2700     6.2430    -5.8900 
  166.5000   399.0510    23.2650     4.8830     7.4570     7.7400     6.1670    -6.3950 
  166.6250   385.0190    23.1760     4.7380     6.6220     8.7550     6.0710    -6.8850 
  166.7500   362.9110    23.1730     4.5650     6.4810    11.0890     7.2090    -7.4070 
  166.8750   352.7010    23.0940     4.2720     8.3760    13.2720     9.8960    -7.9900 
  167.0000   377.0300    22.9330     4.0170    10.6430    11.8650    13.4600    -8.5480 
  167.1250   401.3590    22.7430     4.0690    10.7020    11.0230    14.7040    -8.9450 
  167.2500   424.5670    22.5460     4.1210    10.0690    10.7310     9.8410    -9.3410 
  167.3750   423.4010    22.4850     3.7420     9.8700    10.6030     8.6540    -9.6570 
  167.5000   412.1220    22.4740     3.8370     9.8140    10.6030     8.5420    -9.9450 
  167.6250   384.3950    22.5110     3.7430    10.0580    10.6150     8.4820   -10.1440 
  167.7500   349.4090    22.6340     3.6520    10.2880    10.9340     8.6100   -10.2920 
  167.8750   363.4020    22.8300     3.8000    10.4490    11.3230     8.9070   -10.3540 
  168.0000   374.7230    22.9360     3.9510    10.6600    11.7690     9.2890   -10.3210 
  168.1250   421.0720    22.9730     4.0750    10.8850    12.0480     9.6400   -10.1850 
  168.2500   420.5470    22.9880     4.2090    11.2670    12.4420     9.8700   -10.0190 
  168.3750   419.9090    23.0510     4.3070    11.2870    12.5450    10.0890    -9.7530 
  168.5000   419.6400    23.0980     4.2760    11.1100    12.5440    10.0910    -9.4500 
  168.6250   421.5630    23.1330     4.3700    11.0070    12.5440    10.0940    -8.9450 
  168.7500   423.7170    23.1620     4.4420    11.4290    12.5440    10.0970    -8.4390 
  168.8750   424.5410    23.2020     4.5130    11.7240    12.5440    10.0990    -7.9250 
  169.0000   423.8250    23.2500     4.5730    11.7980    12.5430    10.1210    -7.4120 
  169.1250   422.3910    23.2850     4.4060    11.7230    12.3290    10.1800    -6.9780 
  169.2500   423.7790    23.3090     4.2590    10.9490    11.7230     9.8130    -6.5600 
  169.3750   427.7030    23.3330     4.4530     9.8890    10.5570     8.7740    -6.1540 
  169.5000   432.4540    23.3570     4.6610     8.7350     8.6740     7.9020    -5.7840 
  169.6250   437.3790    23.3830     4.8330     7.6750     7.4440     7.0980    -5.5480 
  169.7500   440.1160    23.4110     4.9710     6.9550     7.1350     6.3500    -5.5590 
  169.8750   440.3350    23.4210     4.8280     6.2710     6.9220     5.7810    -6.0350 
  170.0000   438.9490    23.4210     4.6710     5.7920     7.0200     5.2620    -6.5580 
  170.1250   438.9470    23.3700     4.6050     5.7060     7.8140     4.8240    -6.9960 
  170.2500   437.9600    23.3160     4.6740     6.7400     9.5600     5.6920    -7.3550 
  170.3750   433.0370    23.2840     4.6980     8.2460    11.0470     7.2140    -7.7150 
  170.5000   428.4770    23.2180     4.3020     9.6100    12.0210     8.6990    -8.0530 
  170.6250   425.0180    23.1240     3.7910     9.6130    12.1680    10.0870    -8.3480 
  170.7500   424.0100    23.0650     3.7680     9.6560    11.8290     9.9090    -8.6420 
  170.8750   421.4330    23.0190     3.8570     9.8390    11.6290     8.9300    -8.8620 
  171.0000   414.1930    23.0190     3.8310    10.0710    11.7200     8.6820    -8.9950 
  171.1250   405.4610    23.0190     3.8280    10.3390    12.0360     8.5470    -9.1150 
  171.2500   395.8280    23.0190     3.9380    10.6570    12.3550     8.7250    -9.1920 
  171.3750   392.2190    23.0350     4.0520    11.0670    12.6740     8.9970    -8.9720 
