~V
VERS. 2.00: Ver 2.00
~W
STRT.M 149.0000:
STOP.M 325.0000:
STEP.M 0.1250:
NULL. -999.2500:
UWI. жи031:
~C
DEPT.M :
AC.US/MT :
CALI.CM :
GR.API :
RI. :
RML.OHMM :
RXO.OHMM :
SP.MV :
~A
# ...
  171.5000   383.8240    23.0550     4.1660    11.7110    12.9090     9.3070    -8.6080 
  171.6250   369.6830    23.0840     4.2700    12.3980    13.6540     9.6880    -8.1810 
  171.7500   354.5760    23.1360     4.3500    13.0140    14.5240    10.1090    -7.8000 
  171.8750   361.9270    23.2020     4.4570    13.6120    15.0950    10.8080    -7.4240 
  172.0000   368.6340    23.2870     4.3980    13.9980    14.6360    11.7400    -7.0480 
  172.1250   375.9200    23.3180     4.3130    13.9970    13.8380    11.7570    -6.5560 
  172.2500   383.7420    23.3170     4.2570    13.2330    12.9740    11.0450    -6.0140 
  172.3750   359.9890    23.3170     4.2490    12.4310    12.3690    10.2610    -5.4540 
  172.5000   339.2860    23.3360     4.3940    11.6600    11.7500    10.3660    -4.8490 
  172.6250   378.7870    23.3680     4.6020    10.8750    11.4240    10.8990    -4.2440 
  172.7500   418.2880    23.4460     4.8050    10.1080    11.9620    10.4360    -3.6570 
  172.8750   416.7960    23.5830     5.0040    11.3240    12.3210     9.8130    -3.0770 
  173.0000   400.6240    23.7390     5.2400    11.1620    11.5450    10.7380    -2.5130 
  173.1250   384.4510    23.9210     5.4550     8.0070     8.1430    10.4720    -1.9660 
  173.2500   392.2110    24.1140     5.6430     6.7010     6.9580     7.9860    -1.4790 
  173.3750   409.0000    24.3230     5.7910     6.2370     6.8050     6.6510    -1.0410 
  173.5000   420.0400    24.4150     5.8970     6.2830     6.8390     5.2720    -0.7220 
  173.6250   417.8990    24.4150     6.0050     6.4250     6.8920     5.2000    -0.4350 
  173.7500   416.0050    24.3760     6.1300     6.4350     6.9730     5.3400    -0.1730 
  173.8750   419.0840    24.3380     6.2880     6.2660     6.9130     5.4050     0.0000 
  174.0000   422.0200    24.3040     6.4760     5.8550     6.7010     5.4080     0.1120 
  174.1250   424.3610    24.2730     6.4800     5.5860     6.5270     5.4100     0.2240 
  174.2500   426.0830    24.2200     6.4050     5.4420     6.5630     5.3650     0.3080 
  174.3750   426.4340    24.1600     6.4150     5.4620     6.7520     5.2560     0.3880 
  174.5000   426.2610    24.1000     6.4400     5.5770     6.8030     5.1460     0.4670 
  174.6250   424.4720    24.0890     6.3180     5.5030     6.4650     5.0360     0.5440 
  174.7500   420.2240    24.2380     6.2160     5.3210     6.4370     4.9260     0.5460 
  174.8750   415.1780    24.4390     6.1740     5.2520     6.6360     4.8160     0.5470 
  175.0000   408.6750    24.5630     6.0140     5.5850     6.9550     4.7540     0.5490 
  175.1250   402.6150    24.5040     5.7690     6.1290     7.3120     5.1510     0.4900 
  175.2500   397.1990    24.4630     5.5740     6.3970     7.5680     5.9560     0.3760 
  175.3750   398.6420    24.6670     5.5350     6.5190     7.6200     6.8440     0.2620 
  175.5000   415.2610    24.8800     5.6580     6.3950     7.1100     6.9530     0.0940 
  175.6250   429.4340    25.0400     5.8430     5.8170     6.5590     5.7060    -0.1310 
  175.7500   438.8070    25.1120     5.9700     5.4220     6.2830     4.7220    -0.3560 
  175.8750   432.2120    25.1350     5.8870     5.3420     6.1320     4.1410    -0.6350 
  176.0000   428.8930    25.3500     5.9360     5.4060     6.1350     4.3270    -0.9480 
  176.1250   427.1420    25.9090     5.8550     5.4940     6.3180     4.7520    -1.2600 
  176.2500   420.9750    26.4550     5.8820     5.5990     6.7560     4.7550    -1.5540 
  176.3750   415.6340    26.9380     5.7880     5.8900     7.1430     4.7580    -1.8470 
  176.5000   412.9490    25.5830     5.7030     6.2350     7.1580     4.8640    -2.1620 
  176.6250   412.0320    24.7110     5.7260     5.9230     7.0000     5.1180    -2.5160 
  176.7500   411.9630    24.7610     5.5580     5.7830     6.9120     5.1660    -2.8700 
  176.8750   409.6370    24.5190     5.4060     5.8610     7.0720     5.1370    -3.1650 
  177.0000   403.8420    24.1720     5.2440     6.7970     7.5390     5.0830    -3.4570 
  177.1250   398.1650    23.8220     5.0940     7.9080     8.3590     6.1740    -3.7490 
  177.2500   392.8200    23.5270     4.9480     9.4520     9.8060     8.4420    -4.0410 
  177.3750   387.3680    23.3210     4.7540    11.2530    12.8490    11.1350    -4.3310 
  177.5000   384.7050    23.2600     4.5440    13.3920    16.8500    13.2540    -4.5750 
  177.6250   382.5290    23.2480     4.3880    15.6690    20.2260    16.2480    -4.8200 
  177.7500   367.1000    23.2130     4.3080    17.8510    22.8690    18.4190    -4.9780 
  177.8750   340.6880    23.2560     4.2250    19.8530    23.6400    20.4920    -5.1140 
  178.0000   327.1720    23.3080     4.2640    20.5290    22.9290    19.6000    -5.2480 
  178.1250   360.6580    23.3930     4.3380    17.6160    18.8450    17.0980    -5.3810 
  178.2500   395.9780    23.4860     4.3370    15.9540    15.8600    14.3620    -5.5140 
  178.3750   393.2110    23.6040     4.2430    14.3630    14.6720    12.0660    -5.6160 
  178.5000   363.0150    23.7800     4.1740    14.4900    15.0810    10.4000    -5.7190 
  178.6250   385.1920    23.9580     4.2560    14.9930    14.8770    12.8990    -5.8820 
  178.7500   396.1970    23.9580     4.3130    14.3120    14.6380    14.2550    -6.0820 
  178.8750   400.0000    23.9580     4.3650    16.0580    20.8640    18.3070    -6.2620 
  179.0000   404.6020    23.9570     4.2520    19.6470    26.6510    22.9860    -6.4090 
  179.1250   407.9100    23.9870     4.3230    23.6910    33.6790    27.2070    -6.5560 
  179.2500   408.6070    24.1550     4.2730    27.9690    35.1480    29.1460    -6.7090 
  179.3750   407.6690    24.6240     4.2240    31.2190    35.4510    28.2880    -6.8740 
  179.5000   406.9650    25.0070     4.2530    30.7540    36.1180    27.5510    -7.0380 
  179.6250   406.4400    25.3720     4.2760    31.3160    37.9350    28.4410    -7.1520 
  179.7500   406.5870    25.8100     4.1010    32.7010    39.0590    29.7050    -7.2370 
  179.8750   409.8400    25.9560     4.0210    33.6060    39.4900    29.5340    -7.3230 
  180.0000   412.5560    25.9560     4.0650    34.2230    39.4480    28.7900    -7.4020 
  180.1250   412.3660    25.9560     3.9380    34.2230    38.5570    28.2650    -7.4780 
  180.2500   410.8800    25.9100     3.8160    33.5610    37.6630    27.7400    -7.5380 
  180.3750   410.4870    25.7540     3.7110    32.5220    36.8750    27.4420    -7.5370 
  180.5000   413.3630    25.6790     3.3710    31.2080    35.4690    27.6440    -7.5350 
  180.6250   418.2630    25.8050     3.5100    29.8950    32.6250    26.6780    -7.5340 
  180.7500   419.3550    25.4170     3.6450    28.1330    30.2870    24.7160    -7.5330 
  180.8750   419.3530    24.8980     3.8070    25.3840    29.2270    21.9710    -7.5250 
  181.0000   421.9480    24.5870     3.9860    22.2690    25.8840    18.7570    -7.4990 
  181.1250   425.4610    24.2820     3.9760    19.8740    20.1340    15.1450    -7.4950 
  181.2500   428.1550    23.8960     4.0120    17.9400    19.9290    13.3830    -7.5830 
  181.3750   427.7090    23.5460     4.1070    19.5540    22.6170    11.8550    -7.6710 
  181.5000   423.7480    23.1960     4.2100    21.6600    25.6470    10.9980    -7.7440 
  181.6250   421.5600    22.9300     4.2900    22.9060    26.2730    11.6260    -7.8160 
  181.7500   419.7230    22.8660     4.3440    21.8970    25.9230    14.1840    -7.8710 
  181.8750   418.3370    23.2410     4.1210    22.0900    29.6180    17.2510    -7.8690 
  182.0000   417.8890    23.6750     3.9190    25.1570    39.1490    20.4310    -7.8680 
  182.1250   417.5600    24.1860     3.7220    29.5490    42.5050    24.0020    -7.8610 
  182.2500   416.6390    24.6210     3.6780    32.6970    42.3920    28.1870    -7.8440 
  182.3750   414.1910    25.0190     3.6700    33.5060    41.4310    26.4010    -7.8280 
  182.5000   415.0600    24.8800     3.7230    32.4860    41.5120    24.6030    -7.8110 
  182.6250   418.9520    24.5990     3.8530    33.0780    42.0370    23.3560    -7.7120 
