~V
VERS. 2.00: Ver 2.00
~W
STRT.M 149.0000:
STOP.M 325.0000:
STEP.M 0.1250:
NULL. -999.2500:
UWI. жи031:
~C
DEPT.M :
AC.US/MT :
CALI.CM :
GR.API :
RI. :
RML.OHMM :
RXO.OHMM :
SP.MV :
~A
# ...
  182.7500   422.6750    24.1440     3.9200    33.7310    42.1820    22.7380    -7.6130 
  182.8750   423.8220    23.8790     3.9540    34.3470    41.6040    22.7320    -7.4830 
  183.0000   424.4440    23.7530     4.1040    33.4400    35.2210    22.7980    -7.3160 
  183.1250   424.7850    23.7940     4.2370    28.9670    30.6340    22.4030    -7.1490 
  183.2500   424.7770    24.0010     4.3510    22.6510    26.5070    20.7970    -6.9510 
  183.3750   424.4280    24.0010     4.3230    18.8370    22.5390    18.5990    -6.7410 
  183.5000   422.9820    23.8340     4.1540    15.9570    17.0270    16.3500    -6.5310 
  183.6250   420.8180    23.6240     4.1870    18.5070    18.2350    15.1240    -6.2660 
  183.7500   418.7110    23.5000     4.0480    21.7790    23.3310    16.4430    -5.9910 
  183.8750   415.9740    23.9100     3.8730    25.5710    31.9670    22.4290    -5.6660 
  184.0000   414.4260    24.0330     3.6310    29.3150    39.7540    27.0670    -5.2140 
  184.1250   413.3160    23.6480     3.7160    33.1720    42.4410    32.8670    -4.8200 
  184.2500   412.4940    23.3630     3.8060    37.0730    45.5210    34.9810    -4.4170 
  184.3750   409.2310    23.1500     3.9100    38.6200    45.1180    34.1140    -3.9830 
  184.5000   391.7990    23.1520     3.9500    37.7950    43.9220    32.9240    -3.5670 
  184.6250   355.6320    23.1610     3.9140    37.4650    46.3250    32.0440    -3.1860 
  184.7500   319.1860    23.0040     3.4980    40.8370    52.7870    36.6200    -2.8170 
  184.8750   282.7410    23.0520     3.3350    46.4800    64.8720    42.0300    -2.5810 
  185.0000   246.2960    23.3840     3.2330    53.0110    74.7500    50.7180    -2.3450 
  185.1250   219.5180    23.7280     3.2520    56.9080    66.6640    57.2070    -2.1870 
  185.2500   228.4290    24.0410     3.3390    52.8720    58.5780    53.8240    -2.1020 
  185.3750   236.1660    24.2080     3.4220    42.0940    47.2100    46.3180    -2.0270 
  185.5000   243.4530    24.3300     3.4150    31.3160    30.7660    36.3030    -2.0260 
  185.6250   251.6500    24.3980     3.2860    25.0660    29.2870    26.2870    -2.0240 
  185.7500   260.8370    24.3970     3.3280    23.5140    26.8690    20.7600    -2.0230 
  185.8750   269.3140    24.1430     3.2580    21.4830    22.9830    21.0940    -2.0210 
  186.0000   276.8520    23.8930     3.2560    19.2570    22.5180    17.7340    -2.0290 
  186.1250   284.3460    23.6640     3.2500    19.1010    22.6940    15.6510    -2.0460 
  186.2500   287.2860    23.5130     3.2020    18.7300    22.1490    14.7150    -2.0630 
  186.3750   282.5170    23.4470     3.1930    18.8120    22.7980    14.5920    -2.0530 
  186.5000   278.3710    23.6420     3.2670    20.1350    25.2490    16.2530    -2.0350 
  186.6250   281.8110    24.0640     3.2940    21.2350    25.6970    17.9660    -2.0170 
  186.7500   288.6700    24.2940     3.3730    19.9590    23.6420    18.9120    -1.9570 
  186.8750   289.1400    24.2040     3.4550    18.4930    23.5670    17.1880    -1.8820 
  187.0000   274.3170    24.1250     3.5550    18.9330    23.6310    16.6300    -1.8070 
  187.1250   265.6970    24.0960     3.6230    19.6030    23.8440    18.1330    -1.7310 
  187.2500   260.0400    24.5560     3.4970    20.3220    26.1500    19.0420    -1.6560 
  187.3750   265.2330    24.8500     3.6270    19.7410    28.6420    17.7140    -1.5530 
  187.5000   270.9790    24.9170     3.6350    19.3740    21.8020    15.5170    -1.3850 
  187.6250   277.7920    24.9950     3.5160    18.8100    20.2040    17.1040    -1.2170 
  187.7500   285.3330    25.0450     3.5420    17.6410    20.1760    16.1000    -1.0860 
  187.8750   291.8900    25.0440     3.3740    16.6700    22.7380    14.3030    -0.9600 
  188.0000   297.6130    25.0220     3.2780    16.5460    22.8360    13.9320    -0.8370 
  188.1250   284.9450    24.9740     3.2400    17.6900    24.6550    15.7700    -0.7180 
  188.2500   283.2370    24.9220     3.1930    19.0470    26.2980    17.8290    -0.5990 
  188.3750   289.8160    24.8650     3.1090    20.3270    23.1320    17.1370    -0.4730 
  188.5000   295.1680    24.8190     3.0160    18.5990    22.1210    14.1680    -0.3470 
  188.6250   288.6240    24.7450     2.9470    16.3990    23.7280    13.5680    -0.2320 
  188.7500   271.3230    24.6050     3.0190    17.7490    24.5740    15.8280    -0.1260 
  188.8750   262.9250    24.5440     3.1180    19.2630    26.5560    18.1040    -0.0300 
  189.0000   259.5070    24.7150     3.2000    20.6670    27.8770    20.4820     0.0080 
  189.1250   264.5430    24.8470     3.1100    22.2810    27.1700    21.6490     0.0470 
  189.2500   270.0930    24.9410     3.1640    21.4380    25.1620    20.3340     0.0550 
  189.3750   274.7500    25.0160     3.2800    20.1720    24.6890    19.0970     0.0230 
  189.5000   273.3980    25.0680     3.4180    19.4160    24.7690    18.1000    -0.0080 
  189.6250   267.5400    25.1090     3.5340    19.8710    24.7970    18.8210    -0.0920 
  189.7500   263.2980    25.1400     3.6710    19.6740    23.8810    17.6800    -0.2570 
  189.8750   267.2860    25.1710     3.8070    18.9000    22.5420    15.1000    -0.4210 
  190.0000   274.4740    25.2190     3.9230    18.1360    20.5540    13.0740    -0.6270 
  190.1250   281.3740    25.2980     3.6690    16.6920    16.9530    11.5150    -0.8520 
  190.2500   288.6590    25.3880     3.5100    15.0450    16.0800    12.0320    -1.0770 
  190.3750   284.9030    25.4770     3.5310    13.7490    17.1000    13.6010    -1.3340 
  190.5000   271.8240    25.4520     3.6290    15.0480    21.9640    16.4780    -1.5980 
  190.6250   267.5840    25.1170     3.7320    17.7320    24.6720    18.8250    -1.8610 
  190.7500   276.0080    25.0400     3.8270    20.1100    21.6900    21.6220    -2.1250 
  190.8750   285.9370    25.0310     3.6010    17.2380    18.2780    20.8990    -2.3050 
  191.0000   285.7300    24.7170     3.5370    14.9340    19.7760    18.0060    -2.4430 
  191.1250   280.1830    24.4840     3.4090    16.7080    21.2290    17.8250    -2.5800 
  191.2500   286.2480    24.2390     3.4240    18.3630    22.1980    19.2720    -2.7100 
  191.3750   294.1050    24.0810     3.5240    17.7160    20.2120    18.0470    -2.8370 
  191.5000   302.7460    23.9460     3.4840    16.7940    20.6140    16.9060    -2.9540 
  191.6250   293.2690    23.8410     3.3970    16.4210    21.4910    16.7430    -2.9520 
  191.7500   285.6300    23.7360     3.3270    17.4530    22.1120    18.5780    -2.9510 
  191.8750   287.6390    23.6890     3.2700    18.4330    20.6260    20.2860    -2.9490 
  192.0000   293.3290    23.6880     3.2530    16.6820    19.0320    17.2070    -2.9480 
  192.1250   297.7010    23.6880     3.3060    15.9260    18.9400    15.5920    -2.9460 
  192.2500   299.2760    23.7590     3.2880    15.4170    18.5900    15.4140    -2.8960 
  192.3750   299.1700    23.8630     3.2500    14.6050    17.4830    13.7170    -2.8200 
  192.5000   293.5570    24.0080     3.2910    13.9260    17.5060    12.3690    -2.7440 
  192.6250   287.3080    24.1750     3.3400    15.0700    18.7780    13.4860    -2.6700 
  192.7500   284.2260    24.3870     3.3890    17.0380    21.3370    15.5910    -2.5990 
  192.8750   283.6720    24.3290     3.4480    18.7740    23.5400    17.3110    -2.5280 
  193.0000   283.4820    24.1890     3.5060    20.0600    23.1650    18.6090    -2.4450 
  193.1250   280.1430    24.1180     3.4390    18.9400    22.3630    18.7950    -2.3440 
  193.2500   275.1420    24.0860     3.4280    18.7430    22.3760    18.2270    -2.2440 
  193.3750   271.0710    24.1540     3.3850    20.1390    24.2780    18.9460    -2.1690 
  193.5000   267.5320    24.1860     3.3290    21.4830    25.6890    21.7750    -2.1350 
  193.6250   264.3840    24.0790     3.2920    22.5970    25.0410    23.6890    -2.1000 
  193.7500   251.5790    23.9150     3.3360    21.9040    25.2550    22.2320    -2.0770 
  193.8750   248.0570    23.7400     3.3340    21.7050    25.7560    23.3720    -2.0760 
