~V
VERS. 2.00: Ver 2.00
~W
STRT.M 149.0000:
STOP.M 325.0000:
STEP.M 0.1250:
NULL. -999.2500:
UWI. жи031:
~C
DEPT.M :
AC.US/MT :
CALI.CM :
GR.API :
RI. :
RML.OHMM :
RXO.OHMM :
SP.MV :
~A
  149.0000  -999.2500  -999.2500  -999.2500  -999.2500  -999.2500  -999.2500  -999.2500 
  149.1250  -999.2500  -999.2500  -999.2500  -999.2500  -999.2500  -999.2500  -999.2500 
  149.2500  -999.2500  -999.2500  -999.2500  -999.2500  -999.2500  -999.2500  -999.2500 
  149.3750  -999.2500  -999.2500  -999.2500  -999.2500  -999.2500  -999.2500  -999.2500 
  149.5000  -999.2500  -999.2500  -999.2500  -999.2500  -999.2500  -999.2500  -999.2500 
  149.6250  -999.2500  -999.2500  -999.2500  -999.2500  -999.2500  -999.2500  -999.2500 
  149.7500  -999.2500  -999.2500  -999.2500  -999.2500  -999.2500  -999.2500  -999.2500 
  149.8750   426.3690    22.7610     4.6950     9.1120    10.1280     7.7280    -9.1550 
  150.0000   426.3690    22.7610     4.6950     9.1120    10.1280     7.7280    -9.1550 
  150.1250   419.7640    22.6890     4.7440     9.0190    10.0250     7.7530    -8.5300 
  150.2500   418.1840    22.6630     4.8510     8.9250     9.7180     7.6840    -7.9100 
  150.3750   420.3920    22.6490     4.7940     8.8400     9.7630     7.6080    -7.3140 
  150.5000   420.3900    22.6490     4.6570     9.2290     9.8710     7.6810    -6.7180 
  150.6250   422.0980    22.6490     4.6120     9.6170    10.1260     7.8720    -6.1210 
  150.7500   427.7140    22.6990     4.4280    10.0060    10.5380     8.1680    -5.4600 
  150.8750   434.7480    22.7650     4.3550    10.3950    11.1320     8.5480    -4.7500 
  151.0000   440.5660    22.8630     4.7270     9.8510    11.6070     8.8360    -4.0980 
  151.1250   443.6040    23.1130     5.1590     7.8680    10.4410     8.6930    -3.5350 
  151.2500   437.0080    23.3700     5.3990     6.5390     8.3320     7.5360    -2.9330 
  151.3750   430.7570    23.7480     5.2010     5.4960     6.2080     6.1360    -2.4850 
  151.5000   424.9740    23.9830     5.0770     6.1120     5.9690     5.1610    -2.2250 
  151.6250   420.3710    23.9040     4.9020     6.3220     6.2520     4.8630    -2.0260 
  151.7500   427.2770    23.5120     5.0130     6.3440     7.0070     5.2650    -1.9000 
  151.8750   434.8250    23.2190     5.2360     5.8080     6.9960     5.4940    -1.8780 
  152.0000   442.7010    23.3790     5.4020     5.3050     6.0670     5.1880    -1.9680 
  152.1250   450.3810    23.7910     5.4620     4.9130     5.6220     4.5330    -2.1760 
  152.2500   445.7170    24.1970     5.3730     4.7630     5.6220     3.8440    -2.4990 
  152.3750   439.8480    24.6000     5.2460     4.9080     5.6210     3.4880    -2.8930 
  152.5000   435.0660    24.5580     5.1480     5.1230     5.6210     3.6340    -3.2990 
  152.6250   431.3720    24.2560     5.2240     5.0600     5.6210     3.9500    -3.6360 
  152.7500   428.3100    23.9680     5.1840     4.9480     5.6210     4.4770    -3.9220 
  152.8750   428.1100    23.7300     5.1200     5.0440     6.2400     4.7170    -4.2260 
  153.0000   429.8600    23.5300     5.1340     5.8120     6.3900     4.7640    -4.5290 
  153.1250   432.7640    23.3390     5.0080     6.3540     6.2710     4.8340    -4.7200 
  153.2500   435.5590    23.1950     5.0140     6.3860     6.0980     5.2470    -4.9120 
  153.3750   437.8080    23.1950     5.1180     6.1960     5.9260     5.3750    -5.2630 
  153.5000   435.8260    23.3750     5.2150     5.9130     5.9130     5.1230    -5.8620 
  153.6250   428.5780    23.5580     5.2350     5.7700     5.6890     4.7490    -6.5480 
  153.7500   421.5490    23.7340     5.3560     5.2150     5.5160     4.4180    -7.2080 
  153.8750   416.8220    23.8900     5.4850     5.2580     5.8470     5.3580    -7.8650 
  154.0000   414.3640    24.0390     5.5270     5.1630     6.6760     6.2400    -8.5220 
  154.1250   422.5740    24.1270     5.2870     6.2440     7.6010     7.0240    -9.1090 
  154.2500   431.7470    24.0480     5.3170     7.3740     8.7900     7.7470    -9.6840 
  154.3750   430.0940    23.5230     5.2900     8.1960     9.6350     8.4490   -10.3470 
  154.5000   426.7770    23.0890     5.3250     9.0500    10.2860     9.3680   -10.9880 
  154.6250   427.1970    22.7380     5.2290     9.3930    10.3080     9.5720   -11.6140 
  154.7500   431.3750    22.6750     5.0130     9.3270     9.9240     9.2170   -12.1960 
  154.8750   433.2250    22.6990     4.8420     9.3270     9.8120     9.0040   -12.5300 
  155.0000   432.1860    22.8130     4.7000     9.4170    10.0210     8.9160   -12.8020 
  155.1250   429.3730    22.9120     4.7740     9.9090    10.3170     9.1540   -12.6640 
  155.2500   427.0960    22.9970     4.7690    10.5060    10.6170     9.4040   -12.1570 
  155.3750   425.8560    23.0280     4.8660    10.8790    10.7300     9.6580   -11.5410 
  155.5000   427.3140    23.0420     4.8940    10.8230    10.6570     9.8640   -10.8930 
  155.6250   432.3680    23.0420     4.9700    10.4550    10.8170     9.9920   -10.2040 
  155.7500   434.8160    23.0420     4.9610    10.2220    10.9040     9.7260    -9.4950 
  155.8750   426.6120    23.0410     4.8450    10.3270    11.0340     9.1240    -8.6900 
  156.0000   411.4680    23.0100     4.7470    10.3920    10.9420     9.2170    -7.8750 
  156.1250   394.8400    22.9910     4.7340     9.9220    10.5000     9.5170    -7.0190 
  156.2500   385.2650    23.2090     4.8510     9.3760    10.4220     9.2140    -6.2120 
  156.3750   382.9720    23.5080     4.8420     9.4520    10.3280     8.2820    -5.5030 
  156.5000   382.9700    23.8070     5.0140     7.7430     8.6620     7.5340    -4.7330 
  156.6250   376.2360    24.0850     5.0390     6.5620     7.4210     6.5920    -3.9230 
  156.7500   362.6650    24.3090     4.9920     5.7070     6.7380     5.5660    -3.1790 
  156.8750   341.3180    24.3850     5.1180     5.8070     7.0020     4.7620    -2.4360 
  157.0000   367.6480    24.3090     5.2610     6.8110     7.5120     4.6230    -1.7300 
  157.1250   420.7690    24.2590     5.3910     6.9560     7.2160     5.4650    -1.0280 
  157.2500   422.9670    24.4010     5.5490     6.4010     6.2510     6.2380    -0.4890 
  157.3750   423.0940    24.6180     5.7280     5.8960     5.7640     6.0250    -0.3910 
  157.5000   425.7390    24.7520     5.8740     5.5010     5.6110     5.0110    -0.3500 
  157.6250   429.9110    24.8390     5.6630     5.3540     5.6100     4.6310    -0.3070 
  157.7500   433.7380    24.8330     5.5240     5.3540     5.6500     4.3680    -0.2630 
  157.8750   432.4970    24.7070     5.5500     5.3540     5.7120     4.1820    -0.2180 
  158.0000   428.3300    24.5470     5.6830     5.1110     5.7120     4.1210    -0.1710 
  158.1250   425.4520    24.3470     5.6320     5.0560     5.7120     4.0720    -0.1250 
  158.2500   423.1220    24.1160     5.5910     5.0910     5.9220     4.1200    -0.0660 
  158.3750   423.1510    23.8730     5.6780     5.3720     6.4250     4.1670     0.0050 
  158.5000   426.8700    23.6300     5.5900     5.6140     6.8310     4.6670     0.0760 
  158.6250   430.8050    23.4050     5.6740     5.5200     6.4810     5.1220     0.1470 
  158.7500   433.8020    23.2480     5.7540     4.8850     5.9670     5.1850     0.2240 
  158.8750   434.6690    23.3180     5.8330     4.5740     5.5400     4.7440     0.3300 
  159.0000   432.3120    23.5940     5.9800     4.3610     5.4030     4.3260     0.4920 
  159.1250   427.7920    23.9850     6.0740     4.4600     5.4030     3.9860     0.6080 
  159.2500   421.6610    24.2950     5.9810     4.4600     5.4030     3.8100     0.6300 
  159.3750   413.3900    24.5640     5.9110     4.6730     5.5240     3.7980     0.5460 
  159.5000   403.2480    24.7600     5.8530     4.8070     5.8790     3.8010     0.3540 
  159.6250   391.1680    24.8540     6.0560     5.0760     6.3800     4.1380     0.0910 
  159.7500   384.1360    24.8860     6.3130     5.6010     6.3170     4.8820    -0.1660 
  159.8750   395.3620    24.8760     5.9970     6.1000     5.6090     5.4090    -0.4150 
  160.0000   405.1560    24.8130     5.7800     5.6230     5.4010     4.8730    -0.6670 
  160.1250   415.5900    24.7370     5.5910     5.1440     5.4730     4.0720    -0.9340 
