~V
VERS. 2.00: Ver 2.00
~W
STRT.M 149.0000:
STOP.M 325.0000:
STEP.M 0.1250:
NULL. -999.2500:
UWI. жи031:
~C
DEPT.M :
AC.US/MT :
CALI.CM :
GR.API :
RI. :
RML.OHMM :
RXO.OHMM :
SP.MV :
~A
# ...
  250.2500   393.5000    23.3870     4.6850    30.5440    38.0110    24.2940    -2.5980 
  250.3750   384.0920    23.4020     4.6160    33.9990    40.0110    27.8460    -2.7010 
  250.5000   406.1020    23.4020     4.5860    35.9510    40.6470    30.5780    -2.7640 
  250.6250   396.2160    23.4020     4.6020    37.3260    42.1610    31.7830    -2.8280 
  250.7500   384.6710    23.3420     4.4740    38.5500    43.5700    33.9080    -2.8920 
  250.8750   376.0780    23.2470     4.4370    38.9760    43.7800    35.4890    -2.9510 
  251.0000   371.2030    23.1430     4.5690    39.1620    43.9140    35.7940    -2.9910 
  251.1250   380.6790    23.0480     4.5980    39.9700    45.6920    34.5280    -3.0300 
  251.2500   389.5310    23.0220     4.4480    41.8770    44.9450    33.8520    -3.0690 
  251.3750   397.1310    23.0080     4.3870    40.3960    43.0120    36.3440    -3.0940 
  251.5000   398.7070    23.0390     4.4240    39.2330    43.8980    35.9910    -3.1030 
  251.6250   399.0960    23.1680     4.3850    40.9420    46.0890    38.1640    -3.1130 
  251.7500   400.5420    23.3550     4.4750    43.5800    49.2280    36.2700    -3.1230 
  251.8750   402.6880    23.5290     4.5570    45.5010    51.4050    35.4120    -3.1310 
  252.0000   405.7700    23.6560     4.4390    46.2830    51.8280    37.0410    -3.1080 
  252.1250   407.5720    23.7500     4.3280    47.8790    51.6850    38.7450    -3.0840 
  252.2500   408.1340    23.7150     4.2680    50.5800    57.8190    40.2090    -3.0600 
  252.3750   407.6400    23.5810     4.3760    53.3750    60.8930    42.0980    -3.0360 
  252.5000   404.9480    23.3910     4.4650    57.1040    65.8760    43.7420    -2.9980 
  252.6250   402.1060    23.3280     4.5330    58.6400    65.2350    42.8760    -2.9480 
  252.7500   399.5050    23.2820     4.5710    56.2290    61.9360    41.6300    -2.8980 
  252.8750   397.4210    23.2510     4.5070    51.5750    50.2030    40.4430    -2.8490 
  253.0000   397.0050    23.2490     4.2950    46.0400    49.6880    39.5860    -2.7810 
  253.1250   400.3880    23.2810     4.1860    47.3650    55.7410    40.3850    -2.6870 
  253.2500   401.6490    23.3750     4.0580    50.5400    58.6690    40.1090    -2.5930 
  253.3750   400.9190    23.4970     4.0760    50.5170    57.0580    38.2230    -2.4980 
  253.5000   399.8760    23.6270     4.1660    47.6810    54.7840    37.4430    -2.4040 
  253.6250   398.8330    23.7420     4.1550    47.6120    56.4030    38.9910    -2.3030 
  253.7500   397.0320    23.8540     4.0980    47.2820    56.0030    35.1080    -2.2020 
  253.8750   395.7310    23.9190     4.2530    43.4170    48.6900    31.1230    -2.1010 
  254.0000   398.8150    23.9270     4.3560    39.2210    41.6250    28.6540    -1.9920 
  254.1250   401.1350    23.8090     4.3230    35.7140    42.2870    29.1750    -1.8770 
  254.2500   401.3280    23.7710     4.3900    35.2230    43.0040    29.8560    -1.7610 
  254.3750   402.2790    23.7560     4.3170    34.5140    43.7100    29.0420    -1.6520 
  254.5000   404.7220    23.7840     4.2620    33.1630    42.6870    29.2650    -1.6390 
  254.6250   403.8460    23.7490     4.3740    34.1110    48.1100    31.2470    -1.6250 
  254.7500   401.1790    23.7200     4.5170    36.6270    49.3990    31.6640    -1.6120 
  254.8750   398.6620    23.6870     4.6540    35.8090    46.1160    25.8120    -1.5990 
  255.0000   397.1400    23.6350     4.7980    31.1700    34.5780    21.7830    -1.6360 
  255.1250   397.8630    23.5950     4.9510    23.9300    31.5600    20.5970    -1.6890 
  255.2500   396.8660    23.5950     5.1100    24.2730    30.2210    20.7830    -1.7490 
  255.3750   394.5820    23.5950     5.2550    20.9810    23.7570    19.1770    -2.0090 
  255.5000   397.4250    23.5950     5.4230    15.7340    17.8950    16.1940    -2.2770 
  255.6250   403.1100    23.6590     5.5950    12.9700    14.8960    12.9570    -2.6160 
  255.7500   409.9020    23.7440     5.7460    11.5340    12.4040     9.5950    -2.9990 
  255.8750   394.7850    23.8780     5.8880     9.2380     8.3520     9.8200    -3.5560 
  256.0000   383.5360    24.0490     5.7260     7.5920     8.3430    18.9900    -4.1140 
  256.1250   369.8990    24.0060     5.4520    10.0220     9.5500    28.4140    -4.7570 
  256.2500   368.5170    23.7420     5.1480    18.5440    16.5160    37.8380    -5.5230 
  256.3750   378.3150    23.6050     4.1190    32.0640    35.9360    47.2620    -6.1510 
  256.5000   372.5890    23.6090     3.9800    45.5850    59.8880    56.1530    -6.9090 
  256.6250   361.4130    23.6930     4.0530    59.1050    82.7420    51.4640    -7.6240 
  256.7500   337.5970    23.6930     4.1230    65.2570    89.7990    44.9070    -8.3990 
  256.8750   307.1820    23.6110     4.2040    62.8760    89.0180    43.2160    -9.2120 
  257.0000   344.9990    23.5430     4.1430    60.5940    79.9980    42.3160   -10.0000 
  257.1250   349.8390    23.5430     3.9840    59.6060    73.0500    39.7370   -10.8250 
  257.2500   362.5910    23.5100     3.8600    56.2440    73.7400    35.8970   -11.4990 
  257.3750   345.8410    23.4920     3.9230    51.4110    81.2540    39.9270   -12.1380 
  257.5000   300.8500    23.4920     3.9700    55.1230   119.1370    45.1230   -12.8010 
  257.6250   255.8590    23.5220     3.8520    63.1930   144.2670    50.3190   -13.2890 
  257.7500   263.4570    23.5890     3.7290    76.3590   159.5720    55.5150   -13.7550 
  257.8750   273.0900    23.7140     3.7780    89.5250   188.6980    54.4050   -14.2100 
  258.0000   280.8590    23.8300     3.8130   102.6920   198.5430    46.3250   -14.6560 
  258.1250   287.5890    23.9440     3.7630   115.8580   208.7080    49.5830   -15.0940 
  258.2500   291.2040    24.0480     3.8410   124.9640   222.1990    53.4660   -15.4860 
  258.3750   293.2310    24.0910     3.9460   131.7850   212.5050    53.2540   -15.8830 
  258.5000   303.6520    24.0530     3.8990   139.9060   203.6120    52.4360   -16.3670 
  258.6250   326.1770    23.9780     3.9780   147.9510   201.2900    54.7180   -16.8250 
  258.7500   355.9700    23.9150     4.0680   146.5040   201.2210    57.7800   -17.2230 
  258.8750   385.8190    23.8550     4.0650   143.3580   193.4880    61.3600   -17.6120 
  259.0000   386.6450    23.7980     4.0160   140.2130   176.1190    58.0610   -17.9810 
  259.1250   405.0220    23.7450     4.1440   142.7220   153.2550    54.0250   -18.2540 
  259.2500   395.7760    23.6920     4.2650   145.8560   129.8200    55.5470   -18.4840 
  259.3750   383.1320    23.6890     4.3870   131.7790   122.6300    53.9900   -18.6410 
  259.5000   375.2190    23.6890     4.4630   116.0240   143.4280    52.2420   -18.8190 
  259.6250   385.0560    23.6890     4.3510   100.2690   157.5670    53.0860   -19.0960 
  259.7500   400.1180    23.6970     4.2190    92.9240   167.2880    55.2840   -19.4080 
  259.8750   406.8170    23.7250     4.3150    99.6230   171.4170    57.2720   -19.7270 
  260.0000   406.8870    23.8210     4.3740   108.0130   170.5750    57.4830   -20.1020 
  260.1250   406.2600    23.9770     4.3310   115.0680   165.4750    54.5610   -20.4300 
  260.2500   404.8180    24.0680     4.4220   119.4290   158.5930    52.2050   -20.7140 
  260.3750   402.8090    24.1380     4.3740   121.2910   151.9240    51.1380   -21.0470 
  260.5000   400.8660    24.1380     4.3790   111.2730   149.5910    51.4000   -21.4050 
  260.6250   399.0390    24.1370     4.3040   106.0290   148.9700    50.8720   -21.7880 
  260.7500   397.7520    24.0700     4.1750   105.7950   148.4080    52.4780   -22.1700 
  260.8750   398.0900    23.9860     4.0820   105.3420   147.7990    53.6450   -22.5840 
  261.0000   401.5270    23.9570     4.1130   103.8460   146.8090    52.3240   -23.0360 
  261.1250   402.5030    23.9370     4.1410   101.7080   129.4360    52.2410   -23.4670 
  261.2500   398.5620    23.9370     4.1940    98.5340   128.9090    52.0750   -23.8610 
  261.3750   397.0270    23.8400     4.2160    93.3420   135.9580    52.3670   -24.2200 
