~V
VERS. 2.00: Ver 2.00
~W
STRT.M 149.0000:
STOP.M 325.0000:
STEP.M 0.1250:
NULL. -999.2500:
UWI. жи031:
~C
DEPT.M :
AC.US/MT :
CALI.CM :
GR.API :
RI. :
RML.OHMM :
RXO.OHMM :
SP.MV :
~A
# ...
  317.7500   370.7830    23.5530     0.0000     0.0000     0.0000     8.6710     0.0000 
  317.8750   365.7510    23.5370     0.0000     0.0000     0.0000    10.7650     0.0000 
  318.0000   361.5630    23.4030     0.0000     0.0000     0.0000    13.1560     0.0000 
  318.1250   358.3900    23.4900     0.0000     0.0000     0.0000    14.9850     0.0000 
  318.2500   355.6800    23.6610     0.0000     0.0000     0.0000    15.6890     0.0000 
  318.3750   357.2500    23.9780     0.0000     0.0000     0.0000    14.9520     0.0000 
  318.5000   360.7500    24.4400     0.0000     0.0000     0.0000    14.2540     0.0000 
  318.6250   362.2960    25.1060     0.0000     0.0000     0.0000    13.8520     0.0000 
  318.7500   362.6290    26.0250     0.0000     0.0000     0.0000    12.7420     0.0000 
  318.8750   359.1130    26.8530     0.0000     0.0000     0.0000    11.1320     0.0000 
  319.0000   353.8040    27.7510     0.0000     0.0000     0.0000    11.6080     0.0000 
  319.1250   349.0520    28.5920     0.0000     0.0000     0.0000    13.4170     0.0000 
  319.2500   344.9600    28.9510     0.0000     0.0000     0.0000    15.1270     0.0000 
  319.3750   344.1370    28.9580     0.0000     0.0000     0.0000    13.8810     0.0000 
  319.5000   348.7660    28.9840     0.0000     0.0000     0.0000    12.4180     0.0000 
  319.6250   354.2110    29.0120     0.0000     0.0000     0.0000    11.6370     0.0000 
  319.7500   356.4050    29.0450     0.0000     0.0000     0.0000    12.2070     0.0000 
  319.8750   350.0260    29.0780     0.0000     0.0000     0.0000    13.5420     0.0000 
  320.0000   351.0430    29.1000     0.0000     0.0000     0.0000    12.7410     0.0000 
  320.1250   356.1680     0.0000     0.0000     0.0000     0.0000    13.1380     0.0000 
  320.2500   340.9400     0.0000     0.0000     0.0000     0.0000    12.5670     0.0000 
  320.3750   334.7860     0.0000     0.0000     0.0000     0.0000    11.8180     0.0000 
  320.5000   344.0310     0.0000     0.0000     0.0000     0.0000    11.2670     0.0000 
  320.6250   354.7330     0.0000     0.0000     0.0000     0.0000    10.3400     0.0000 
  320.7500   357.0310     0.0000     0.0000     0.0000     0.0000    10.6540     0.0000 
  320.8750   360.2240     0.0000     0.0000     0.0000     0.0000    11.1750     0.0000 
  321.0000   375.9890     0.0000     0.0000     0.0000     0.0000     8.8290     0.0000 
  321.1250   388.7170     0.0000     0.0000     0.0000     0.0000     6.7440     0.0000 
  321.2500   382.8110     0.0000     0.0000     0.0000     0.0000     7.3700     0.0000 
  321.3750   374.5830     0.0000     0.0000     0.0000     0.0000     6.6720     0.0000 
  321.5000   368.4880     0.0000     0.0000     0.0000     0.0000     5.7030     0.0000 
  321.6250   363.5000     0.0000     0.0000     0.0000     0.0000     8.6540     0.0000 
  321.7500   361.5400     0.0000     0.0000     0.0000     0.0000    11.7000     0.0000 
  321.8750   361.2190     0.0000     0.0000     0.0000     0.0000    13.2830     0.0000 
  322.0000   360.0100     0.0000     0.0000     0.0000     0.0000    10.9090     0.0000 
  322.1250   357.8990     0.0000     0.0000     0.0000     0.0000     8.9360     0.0000 
  322.2500   355.0330     0.0000     0.0000     0.0000     0.0000     9.6210     0.0000 
  322.3750   352.3420     0.0000     0.0000     0.0000     0.0000    12.8630     0.0000 
  322.5000   355.0760     0.0000     0.0000     0.0000     0.0000    17.0970     0.0000 
  322.6250   359.2330     0.0000     0.0000     0.0000     0.0000    21.2640     0.0000 
  322.7500   362.4550     0.0000     0.0000     0.0000     0.0000    24.4250     0.0000 
  322.8750   362.3560     0.0000     0.0000     0.0000     0.0000    26.8770     0.0000 
  323.0000   355.8240     0.0000     0.0000     0.0000     0.0000    28.9630     0.0000 
  323.1250   350.0810     0.0000     0.0000     0.0000     0.0000    25.2990     0.0000 
  323.2500   344.1250     0.0000     0.0000     0.0000     0.0000    14.8680     0.0000 
  323.3750   338.8600     0.0000     0.0000     0.0000     0.0000     6.8850     0.0000 
  323.5000   339.9810     0.0000     0.0000     0.0000     0.0000     5.4780     0.0000 
  323.6250   348.1770     0.0000     0.0000     0.0000     0.0000     6.8880     0.0000 
  323.7500   355.7690     0.0000     0.0000     0.0000     0.0000     8.5470     0.0000 
  323.8750   356.4550     0.0000     0.0000     0.0000     0.0000    10.7700     0.0000 
  324.0000   355.7860     0.0000     0.0000     0.0000     0.0000    10.4670     0.0000 
  324.1250   354.9840     0.0000     0.0000     0.0000     0.0000    12.8090     0.0000 
  324.2500   354.5800     0.0000     0.0000     0.0000     0.0000    15.2820     0.0000 
  324.3750   354.5670     0.0000     0.0000     0.0000     0.0000    14.3040     0.0000 
  324.5000   354.5540     0.0000     0.0000     0.0000     0.0000    11.7150     0.0000 
  324.6250   354.5420     0.0000     0.0000     0.0000     0.0000     9.0530     0.0000 
  324.7500   354.5300     0.0000     0.0000     0.0000     0.0000     7.4530     0.0000 
  324.8750   354.5170     0.0000     0.0000     0.0000     0.0000     7.1520     0.0000 
  325.0000   364.3550    23.2040     0.0000     0.0000     0.0000    10.8920     0.0000 
