~V
VERS. 2.00: Ver 2.00
~W
STRT.M 149.0000:
STOP.M 325.0000:
STEP.M 0.1250:
NULL. -999.2500:
UWI. жи031:
~C
DEPT.M :
AC.US/MT :
CALI.CM :
GR.API :
RI. :
RML.OHMM :
RXO.OHMM :
SP.MV :
~A
# ...
  306.5000   408.1850    24.8180     0.0000     0.0000     0.0000     4.6360     0.0000 
  306.6250   416.3560    24.1270     0.0000     0.0000     0.0000     4.6120     0.0000 
  306.7500   420.8920    24.1810     0.0000     0.0000     0.0000     4.6140     0.0000 
  306.8750   427.6120    25.1010     0.0000     0.0000     0.0000     4.3770     0.0000 
  307.0000   434.9040    26.4590     0.0000     0.0000     0.0000     4.0460     0.0000 
  307.1250   436.4570    27.4310     0.0000     0.0000     0.0000     3.7790     0.0000 
  307.2500   411.1930    28.6210     0.0000     0.0000     0.0000     3.6250     0.0000 
  307.3750   399.4050    29.5420     0.0000     0.0000     0.0000     3.6270     0.0000 
  307.5000   391.7310    30.3160     0.0000     0.0000     0.0000     3.6300     0.0000 
  307.6250   386.9670    29.9780     0.0000     0.0000     0.0000     3.9550     0.0000 
  307.7500   386.6130    27.8860     0.0000     0.0000     0.0000     4.4740     0.0000 
  307.8750   387.2190    24.5770     0.0000     0.0000     0.0000     5.0300     0.0000 
  308.0000   384.4700    23.4750     0.0000     0.0000     0.0000     5.5920     0.0000 
  308.1250   379.5030    23.2130     0.0000     0.0000     0.0000     6.1540     0.0000 
  308.2500   376.7800    23.0800     0.0000     0.0000     0.0000     6.3780     0.0000 
  308.3750   381.2760    22.9550     0.0000     0.0000     0.0000     6.4880     0.0000 
  308.5000   384.4670    22.9170     0.0000     0.0000     0.0000     6.5510     0.0000 
  308.6250   382.3560    22.9300     0.0000     0.0000     0.0000     6.4440     0.0000 
  308.7500   381.6580    23.0590     0.0000     0.0000     0.0000     5.7810     0.0000 
  308.8750   384.1260    23.2480     0.0000     0.0000     0.0000     4.9790     0.0000 
  309.0000   391.5650    23.3160     0.0000     0.0000     0.0000     4.1770     0.0000 
  309.1250   400.6730    23.3560     0.0000     0.0000     0.0000     3.6890     0.0000 
  309.2500   407.5320    23.9560     0.0000     0.0000     0.0000     3.3670     0.0000 
  309.3750   399.5850    24.7970     0.0000     0.0000     0.0000     4.6650     0.0000 
  309.5000   396.3710    25.6540     0.0000     0.0000     0.0000     4.8390     0.0000 
  309.6250   406.6060    25.3060     0.0000     0.0000     0.0000     4.4460     0.0000 
  309.7500   416.3330    24.8060     0.0000     0.0000     0.0000     4.1780     0.0000 
  309.8750   420.7180    25.0620     0.0000     0.0000     0.0000     4.2510     0.0000 
  310.0000   407.9310    25.7840     0.0000     0.0000     0.0000     4.7920     0.0000 
  310.1250   397.8940    26.3640     0.0000     0.0000     0.0000     5.6000     0.0000 
  310.2500   390.8580    26.8070     0.0000     0.0000     0.0000     6.5380     0.0000 
  310.3750   382.4850    26.2770     0.0000     0.0000     0.0000     7.8910     0.0000 
  310.5000   374.9550    24.5580     0.0000     0.0000     0.0000     9.2530     0.0000 
  310.6250   368.5650    23.4200     0.0000     0.0000     0.0000    11.1760     0.0000 
  310.7500   362.9740    23.1240     0.0000     0.0000     0.0000    13.1390     0.0000 
  310.8750   362.1010    23.0370     0.0000     0.0000     0.0000    14.5290     0.0000 
  311.0000   371.7020    22.9970     0.0000     0.0000     0.0000    13.8680     0.0000 
  311.1250   378.8130    22.9540     0.0000     0.0000     0.0000    11.6760     0.0000 
  311.2500   383.1930    22.8840     0.0000     0.0000     0.0000     9.9120     0.0000 
  311.3750   381.2200    22.8630     0.0000     0.0000     0.0000     8.6660     0.0000 
  311.5000   381.1110    22.8290     0.0000     0.0000     0.0000     8.3000     0.0000 
  311.6250   383.0130    22.7930     0.0000     0.0000     0.0000    10.2620     0.0000 
  311.7500   374.5590    22.7620     0.0000     0.0000     0.0000    10.8350     0.0000 
  311.8750   364.4120    22.7620     0.0000     0.0000     0.0000    10.3980     0.0000 
  312.0000   356.3990    22.7620     0.0000     0.0000     0.0000    14.9770     0.0000 
  312.1250   348.3690    22.7620     0.0000     0.0000     0.0000    18.1160     0.0000 
  312.2500   349.7170    22.7620     0.0000     0.0000     0.0000    17.3570     0.0000 
  312.3750   358.2790    22.7610     0.0000     0.0000     0.0000    16.8700     0.0000 
  312.5000   361.7550    22.7610     0.0000     0.0000     0.0000    14.7770     0.0000 
  312.6250   358.1790    22.7610     0.0000     0.0000     0.0000    16.4240     0.0000 
  312.7500   354.3830    22.7610     0.0000     0.0000     0.0000    20.5700     0.0000 
  312.8750   352.6760    22.7610     0.0000     0.0000     0.0000    23.6090     0.0000 
  313.0000   359.3840    22.7470     0.0000     0.0000     0.0000    22.0020     0.0000 
  313.1250   366.7500    22.7180     0.0000     0.0000     0.0000    17.8000     0.0000 
  313.2500   374.3720    22.7100     0.0000     0.0000     0.0000    13.5400     0.0000 
  313.3750   381.8720    22.7100     0.0000     0.0000     0.0000     9.9640     0.0000 
  313.5000   376.7920    22.7100     0.0000     0.0000     0.0000     8.3650     0.0000 
  313.6250   369.5570    22.7090     0.0000     0.0000     0.0000    11.6520     0.0000 
  313.7500   364.5630    22.7090     0.0000     0.0000     0.0000    12.8110     0.0000 
  313.8750   365.9190    22.7090     0.0000     0.0000     0.0000    10.1870     0.0000 
  314.0000   370.3930    22.7250     0.0000     0.0000     0.0000     8.1680     0.0000 
  314.1250   370.1520    22.7560     0.0000     0.0000     0.0000     9.7940     0.0000 
  314.2500   364.3080    22.7590     0.0000     0.0000     0.0000    12.2390     0.0000 
  314.3750   361.1460    22.7580     0.0000     0.0000     0.0000    14.1230     0.0000 
  314.5000   360.8050    22.7580     0.0000     0.0000     0.0000    13.7320     0.0000 
  314.6250   366.5210    22.7580     0.0000     0.0000     0.0000    12.5550     0.0000 
  314.7500   363.1120    22.7580     0.0000     0.0000     0.0000    12.6570     0.0000 
  314.8750   356.1110    22.7580     0.0000     0.0000     0.0000    14.9190     0.0000 
  315.0000   350.8010    22.7570     0.0000     0.0000     0.0000    15.0940     0.0000 
  315.1250   346.5330    22.8090     0.0000     0.0000     0.0000    13.4110     0.0000 
  315.2500   350.8800    22.8680     0.0000     0.0000     0.0000    12.5070     0.0000 
  315.3750   360.4790    22.9020     0.0000     0.0000     0.0000    13.4480     0.0000 
  315.5000   368.0740    23.0230     0.0000     0.0000     0.0000    13.7460     0.0000 
  315.6250   376.0110    23.2250     0.0000     0.0000     0.0000    11.4220     0.0000 
  315.7500   380.2350    23.6040     0.0000     0.0000     0.0000     9.0770     0.0000 
  315.8750   377.0340    23.7410     0.0000     0.0000     0.0000     7.3950     0.0000 
  316.0000   375.8470    23.3360     0.0000     0.0000     0.0000     6.8130     0.0000 
  316.1250   380.8560    23.1120     0.0000     0.0000     0.0000     5.1710     0.0000 
  316.2500   375.5750    23.2090     0.0000     0.0000     0.0000     4.0020     0.0000 
  316.3750   369.0340    23.5220     0.0000     0.0000     0.0000     5.5230     0.0000 
  316.5000   361.3060    23.6180     0.0000     0.0000     0.0000     7.1760     0.0000 
  316.6250   357.1330    23.3140     0.0000     0.0000     0.0000     8.7110     0.0000 
  316.7500   358.3280    23.1900     0.0000     0.0000     0.0000     9.3230     0.0000 
  316.8750   361.7530    23.1550     0.0000     0.0000     0.0000     9.5460     0.0000 
  317.0000   364.3550    23.2040     0.0000     0.0000     0.0000    10.8920     0.0000 
  317.1250   372.0920    23.2040     0.0000     0.0000     0.0000    13.7480     0.0000 
  317.2500   379.9760    23.1990     0.0000     0.0000     0.0000    12.9040     0.0000 
  317.3750   387.2350    23.1040     0.0000     0.0000     0.0000    10.6710     0.0000 
  317.5000   386.0650    23.1800     0.0000     0.0000     0.0000     8.6300     0.0000 
  317.6250   377.8980    23.4550     0.0000     0.0000     0.0000     6.8370     0.0000 
