~V
VERS. 2.00: Ver 2.00
~W
STRT.M 149.0000:
STOP.M 325.0000:
STEP.M 0.1250:
NULL. -999.2500:
UWI. жи031:
~C
DEPT.M :
AC.US/MT :
CALI.CM :
GR.API :
RI. :
RML.OHMM :
RXO.OHMM :
SP.MV :
~A
# ...
  239.0000   395.0680    22.9650     3.8460    37.6990    42.8590    25.6820    -6.7830 
  239.1250   388.1380    22.9380     3.9350    37.1100    42.7820    25.6850    -6.9840 
  239.2500   377.7620    22.9190     3.8820    38.0650    43.6620    26.4920    -7.1760 
  239.3750   367.7930    22.9190     3.8030    39.9350    46.5190    28.2530    -7.3000 
  239.5000   360.1940    22.9300     3.9770    41.8320    50.0720    29.9520    -7.3970 
  239.6250   361.6730    22.9520     4.0150    43.5500    52.7180    31.3970    -7.5000 
  239.7500   368.9100    22.9730     4.0210    43.1760    53.0280    32.6610    -7.6450 
  239.8750   377.2370    22.9920     4.0000    43.0150    52.8140    32.7770    -7.7900 
  240.0000   385.1860    23.0100     4.0370    43.7580    52.6010    31.3820    -7.8610 
  240.1250   387.9510    23.0400     4.0720    44.9310    52.7840    30.2060    -7.9090 
  240.2500   387.5680    23.0790     4.0470    45.7620    52.3940    29.9240    -7.9570 
  240.3750   387.4500    23.1180     4.0180    44.9630    49.6290    29.2180    -7.9690 
  240.5000   389.5900    23.1550     4.1470    43.9300    48.9340    28.4960    -7.9680 
  240.6250   393.6920    23.1920     4.3400    42.9040    50.3730    28.3180    -7.9660 
  240.7500   395.3420    23.2220     4.2480    42.2790    52.0380    29.3580    -7.9040 
  240.8750   393.7770    23.2370     4.0670    43.7890    53.9080    30.4480    -7.8130 
  241.0000   393.1430    23.2530     3.9700    45.5190    56.1260    31.1430    -7.7220 
  241.1250   393.7380    23.2690     3.9140    47.1340    57.5090    31.7690    -7.6200 
  241.2500   396.8480    23.2880     3.8400    47.7790    57.5090    32.2350    -7.4970 
  241.3750   399.4640    23.3070     3.7660    47.7780    57.5080    31.8970    -7.3730 
  241.5000   401.9970    23.3160     3.6990    49.2120    58.2310    30.3350    -7.2490 
  241.6250   404.0770    23.3150     3.7800    52.3030    64.0140    31.1580    -7.0540 
  241.7500   405.7020    23.3150     3.9650    55.4860    67.4310    34.7310    -6.8220 
  241.8750   406.3070    23.3150     4.0910    58.1010    67.6980    36.0150    -6.5890 
  242.0000   406.8300    23.3150     4.0390    57.7420    68.1460    36.4050    -6.3570 
  242.1250   408.1420    23.3150     3.9790    58.2970    69.2170    36.7680    -6.1430 
  242.2500   410.1490    23.3140     3.9250    61.1900    73.0350    38.0530    -5.9290 
  242.3750   407.0900    23.3280     3.8730    63.6590    75.9130    40.0790    -5.7160 
  242.5000   396.0280    23.3630     3.8230    66.1220    76.6160    41.9340    -5.5020 
  242.6250   371.5060    23.4510     3.8530    65.9650    74.2290    43.6010    -5.2460 
  242.7500   332.9020    23.6360     4.0420    63.8430    68.9820    46.5050    -4.9460 
  242.8750   302.7840    23.7300     4.2000    61.7200    70.6750    55.8880    -4.6460 
  243.0000   323.5490    23.6540     4.2330    68.1380    84.3190    66.0510    -4.3460 
  243.1250   348.7520    23.3100     4.1300    75.5310    74.2350    71.3120    -4.0580 
  243.2500   367.9050    23.0630     4.0880    72.2390    65.1380    56.4420    -3.7720 
  243.3750   361.2210    23.1660     4.1590    64.5300    63.3010    42.1050    -3.4870 
  243.5000   359.5950    23.3560     4.2200    56.8220    66.3970    40.0570    -3.2030 
  243.6250   340.3200    23.4560     4.2890    59.2770    66.8280    48.4780    -2.9240 
  243.7500   289.4520    23.3130     4.2090    58.2380    68.6860    59.6470    -2.6450 
  243.8750   277.2870    23.1810     4.0950    59.5420    81.5460    70.8150    -2.3800 
  244.0000   268.7040    23.0760     4.0510    65.6230    94.6870    81.9830    -2.1350 
  244.1250   318.1900    23.0620     4.0260    72.5500    72.2490    87.8130    -1.8910 
  244.2500   367.6770    23.3580     3.8450    56.5140    48.9090    62.5930    -1.6620 
  244.3750   417.1630    23.9040     3.6720    30.4390    28.4170    36.7180    -1.4460 
  244.5000   466.6500    25.0540     3.5310     7.2800     7.3690    10.8440    -1.2310 
  244.6250   499.1110    26.5470     3.3750     5.6290     6.3620     3.6470    -1.0480 
  244.7500   486.5550    28.3610     3.1930     5.8720     6.0580     2.7030    -0.9010 
  244.8750   471.2200    30.8670     2.9890     5.7680     6.0650     2.9960    -0.7680 
  245.0000   433.9930    34.0180     2.9810     5.5920     6.3670     3.6650    -0.7860 
  245.1250   397.8090    37.4590     3.0750     5.8760     6.8180     4.4580    -0.8040 
  245.2500   417.7950    40.6570     3.0530     6.2690     7.1680     5.1140    -0.8350 
  245.3750   438.6150    38.1980     3.0240     5.9060     6.4320     4.4390    -0.8780 
  245.5000   401.2700    33.9560     3.0480     5.5830     6.5320     3.7210    -0.9020 
  245.6250   353.2230    35.2980     3.0630     5.5210     7.0890     3.3880    -0.8780 
  245.7500   427.4040    37.0140     3.0860     5.5670     7.6350     3.4020    -0.8480 
  245.8750   501.5860    38.5920     3.0890     5.6630     7.0130     3.7010    -0.7120 
  246.0000   529.6400    39.9140     3.1970     5.3800     6.8940     4.0950    -0.5770 
  246.1250   523.0420    40.3130     3.2780     5.3900     7.3010     4.3640    -0.4370 
  246.2500   476.0430    38.7750     3.3450     5.9550     7.8310     4.6100    -0.2970 
  246.3750   413.1200    35.1310     3.3900     6.6050     8.4280     5.4660    -0.1570 
  246.5000   397.4060    32.2170     3.3910     6.9010     9.0030     6.4470     0.0000 
  246.6250   445.0500    29.6740     3.3210     7.0560     9.4770     7.3160     0.1580 
  246.7500   436.2470    28.6520     3.2540     7.1380     9.2180     7.5450     0.3160 
  246.8750   426.3060    29.7880     3.2000     7.0210     7.9730     6.5140     0.3690 
  247.0000   448.3730    31.6230     3.1860     6.6270     7.3540     5.4050     0.3850 
  247.1250   474.0760    33.6040     3.1950     6.2300     7.0330     4.7150     0.4020 
  247.2500   450.7900    37.1030     3.1670     5.9880     6.8910     4.1740     0.4050 
  247.3750   418.2640    39.8570     3.2740     5.9880     6.8670     3.8630     0.3890 
  247.5000   385.7370    42.3520     3.4520     5.9880     7.3670     4.4110     0.3720 
  247.6250   383.7480    42.2770     3.6600     6.2560     7.7710     5.3140     0.3150 
  247.7500   394.4770    37.9570     3.8010     7.0460     7.4510     5.6880     0.2380 
  247.8750   405.4620    27.4020     3.7730     6.7560     6.9580     5.0880     0.1610 
  248.0000   419.3120    28.6050     3.9150     6.4890     6.9580     4.6030     0.0640 
  248.1250   432.7200    29.9730     4.1200     6.4070     7.1400     5.3140    -0.0570 
  248.2500   392.9670    30.9730     4.4700     6.6210     7.5350     7.1570    -0.1770 
  248.3750   387.4300    26.5090     4.9320     6.9580     8.5630     9.3020    -0.3240 
  248.5000   388.2200    24.2100     5.4930     7.4850     8.7980    10.7400    -0.4890 
  248.6250   388.4470    23.5380     5.9580     7.6740     9.0600     8.5650    -0.6530 
  248.7500   370.4320    23.1450     5.7970     7.7670    10.8390     8.3070    -0.8560 
  248.8750   342.1990    23.0550     5.5860     9.4300    10.3590    11.0940    -1.0640 
  249.0000   371.7590    23.0540     5.3750     9.7210    11.4810    14.4540    -1.2700 
  249.1250   401.3200    23.1650     5.1640    10.8700    18.1070    18.1510    -1.4180 
  249.2500   430.8800    23.2510     5.0320    14.6280    16.9400    21.2160    -1.5660 
  249.3750   460.4400    23.5320     5.1430    14.4940    14.3700    18.2990    -1.7150 
  249.5000   462.1120    23.6540     5.2530    13.5750    23.8930    19.8560    -1.8610 
  249.6250   390.3300    23.5790     5.0890    19.1030    33.4160    25.6470    -2.0010 
  249.7500   405.8630    23.4840     4.9220    25.5150    34.3840    29.6490    -2.1420 
  249.8750   417.9300    23.4140     4.8120    31.9260    26.7910    30.2570    -2.2830 
  250.0000   411.7070    23.3650     4.7820    26.1420    21.3950    22.9100    -2.3920 
  250.1250   401.9940    23.3530     4.7030    23.6110    27.3440    20.8200    -2.4950 
