~V
VERS. 2.00: Ver 2.00
~W
STRT.M 149.0000:
STOP.M 325.0000:
STEP.M 0.1250:
NULL. -999.2500:
UWI. жи031:
~C
DEPT.M :
AC.US/MT :
CALI.CM :
GR.API :
RI. :
RML.OHMM :
RXO.OHMM :
SP.MV :
~A
# ...
  194.0000   267.5210    23.7350     3.4580    22.4020    25.9300    22.3510    -2.0740 
  194.1250   280.3190    23.7350     3.4190    21.8970    25.4930    21.0400    -2.0700 
  194.2500   285.2210    23.7350     3.3430    21.4110    25.2170    22.3720    -2.0510 
  194.3750   285.2830    23.7350     3.2750    21.2760    25.5360    22.6130    -2.0320 
  194.5000   286.7620    23.7350     3.4560    21.8130    25.3450    21.2290    -1.9970 
  194.6250   289.7240    23.7350     3.5960    20.2140    23.2600    19.9540    -1.9170 
  194.7500   294.2780    23.7340     3.5950    18.9810    20.5790    18.7120    -1.8370 
  194.8750   298.5850    23.7340     3.5750    17.9440    19.8550    17.6040    -1.7550 
  195.0000   299.6030    23.7340     3.5790    17.0400    20.8640    17.0810    -1.6500 
  195.1250   294.8990    23.7340     3.6670    17.6430    21.9830    22.7160    -1.5440 
  195.2500   287.6970    23.7340     3.7470    18.6400    23.1160    27.4260    -1.4290 
  195.3750   282.2170    23.7330     3.7360    19.4480    23.6400    32.1360    -1.2810 
  195.5000   285.5370    23.7330     3.6410    18.4890    23.0860    36.8460    -1.1320 
  195.6250   296.0680    23.7330     3.5890    16.1320    20.3220    17.9310    -1.0090 
  195.7500   306.8430    23.7330     3.6560    13.4240    15.5580    15.4990    -0.9140 
  195.8750   315.8410    23.7550     3.7940    11.9650    14.6090    12.5620    -0.8190 
  196.0000   311.8070    23.8690     3.8420    11.8630    14.5330     9.4600    -0.7400 
  196.1250   314.4010    23.9830     3.7730    11.9780    14.4580     7.8730    -0.7040 
  196.2500   320.0420    24.0970     3.7220    11.8540    13.8940     8.8290    -0.6680 
  196.3750   322.3840    24.1970     3.6740    11.4710    12.9520    10.0170    -0.6460 
  196.5000   307.3460    24.2820     3.8180    11.0030    12.8000    10.2990    -0.6440 
  196.6250   297.6190    24.2820     4.0120    10.3900    14.0710     9.8160    -0.6430 
  196.7500   290.4710    24.3010     3.9040    11.5550    15.1190    10.8510    -0.6520 
  196.8750   288.2220    24.3840     3.7810    12.8280    16.0990    12.3260    -0.7000 
  197.0000   288.6550    24.6190     3.6750    13.6520    16.7040    13.6940    -0.7480 
  197.1250   285.9620    24.6810     3.7040    13.9620    17.1680    12.6110    -0.8080 
  197.2500   280.1490    24.7610     3.8280    13.9620    17.1520    12.8550    -0.9240 
  197.3750   266.0370    25.3710     3.8420    13.9330    16.8960    12.3190    -1.0400 
  197.5000   249.2800    26.1570     3.8200    13.7950    16.6240    11.5860    -1.1370 
  197.6250   242.8320    26.9460     3.9920    13.6190    16.3360    10.9310    -1.2220 
  197.7500   245.5780    25.7060     4.1350    13.4240    16.0640    10.5890    -1.3080 
  197.8750   239.2850    24.9010     4.2580    13.1900    16.3580    11.0480    -1.3650 
  198.0000   222.5910    24.7760     4.2660    13.3960    16.7940    11.8650    -1.4130 
  198.1250   224.7710    24.3820     4.2690    14.1750    17.2310    12.5190    -1.4610 
  198.2500   234.6850    24.3430     4.4220    14.8540    17.3930    12.9520    -1.4730 
  198.3750   242.6870    24.3600     4.4670    14.6560    17.3930    13.3850    -1.4720 
  198.5000   236.1650    24.3760     4.3170    14.8250    17.7710    13.6990    -1.4700 
  198.6250   230.9980    24.7900     4.2310    15.7490    18.7510    14.3520    -1.4690 
  198.7500   235.0520    25.4870     4.2320    16.6440    19.8550    15.8300    -1.3600 
  198.8750   236.9440    26.1890     4.1470    17.8000    21.2930    17.2350    -1.2100 
  199.0000   236.9200    26.7740     4.0870    18.8870    22.1420    18.6400    -1.0610 
  199.1250   236.5610    27.1000     3.9590    19.2240    22.0140    19.5320    -0.8920 
  199.2500   244.8470    27.0030     3.9500    18.3800    21.0030    18.5800    -0.7150 
  199.3750   256.6070    27.5070     4.0040    17.5060    19.9310    17.6830    -0.5410 
  199.5000   268.9110    28.1270     3.8630    16.0620    18.7380    16.8000    -0.3900 
  199.6250   251.9520    27.0010     3.7470    14.9550    17.5350    16.6840    -0.2400 
  199.7500   273.0270    25.9740     3.7020    13.4660    14.3280    16.3440    -0.0900 
  199.8750   310.0590    25.4620     3.6960    12.2520    13.9000    13.2730     0.0350 
  200.0000   293.8540    25.0710     3.6130    11.2510    13.8660    10.8390     0.1510 
  200.1250   288.5340    24.9760     3.5910    11.0960    13.8320     9.4960     0.2680 
  200.2500   257.6320    24.9760     3.5480    11.6020    13.8840     9.0840     0.3200 
  200.3750   272.2720    24.9770     3.5210    11.9190    14.1300     9.5040     0.3490 
  200.5000   286.9110    25.0390     3.4930    12.1660    14.5470    10.3540     0.3780 
  200.6250   268.8510    25.1760     3.4380    12.4010    14.8660    11.0550     0.4050 
  200.7500   235.0740    25.1750     3.3910    12.4710    15.1250    12.0510     0.4070 
  200.8750   259.1990    25.0600     3.5200    12.4630    15.3170    12.9760     0.4080 
  201.0000   289.7130    25.0560     3.5110    12.3750    15.4070    12.3960     0.3980 
  201.1250   294.0790    26.1630     3.4320    12.1990    14.9640    11.2220     0.3640 
  201.2500   281.0600    26.9940     3.4770    11.9070    14.5220    10.1620     0.3310 
  201.3750   276.2570    28.1320     3.4360    11.5950    14.4920     9.5870     0.2920 
  201.5000   289.0090    29.3900     3.5120    11.2840    14.4200     9.0640     0.2470 
  201.6250   294.4210    30.8160     3.6600    11.0810    14.3330     8.8780     0.2010 
  201.7500   286.9720    30.5970     3.5860    11.4200    13.9080     8.8510     0.1600 
  201.8750   266.8460    27.9170     3.6280    11.8540    13.9890     9.4230     0.1320 
  202.0000   255.5180    26.9960     3.8080    12.3570    14.4150    10.2720     0.1040 
  202.1250   269.0330    26.8240     3.7660    12.8530    14.5210    10.9230     0.0750 
  202.2500   278.8430    26.4970     3.7850    13.2110    14.3690    10.8510     0.0620 
  202.3750   277.5340    26.3000     4.0190    13.2640    14.2210    10.2270     0.0510 
  202.5000   282.6320    26.2230     4.2440    13.2640    14.5640     9.6040     0.0390 
  202.6250   263.3970    26.2230     4.3880    13.2900    15.1520     8.9810     0.0330 
  202.7500   239.1200    26.2090     4.5410    13.6890    15.3260     8.5050     0.0810 
  202.8750   241.7190    26.1470     4.5640    14.1690    15.2560     8.5350     0.1290 
  203.0000   226.7440    25.8320     4.6940    14.2560    14.6810     9.4310     0.1770 
  203.1250   227.6590    25.3260     4.9280    14.0070    14.7910    10.6320     0.2240 
  203.2500   235.2580    24.9150     4.9620    13.5830    15.4290    11.6680     0.2710 
  203.3750   229.7200    24.5480     4.8840    13.3100    15.7530    12.7230     0.3170 
  203.5000   219.2450    24.3970     4.9650    13.0710    15.9010    12.2650     0.3630 
  203.6250   217.7200    24.3210     5.0600    12.9290    15.8060    11.9540     0.4030 
  203.7500   227.7180    24.3210     5.0520    12.7670    15.7450    12.1140     0.4350 
  203.8750   238.8030    24.3530     4.8990    12.9280    15.6280    12.7090     0.4660 
  204.0000   249.8930    24.3910     4.8110    13.8200    15.6210    13.2400     0.4950 
  204.1250   264.2130    24.4330     4.7720    14.2560    15.9050    13.4440     0.4970 
  204.2500   275.4370    24.4760     4.6400    14.4110    15.9530    13.1460     0.4980 
  204.3750   284.9680    24.5330     4.4980    14.4540    15.7620    12.2960     0.5000 
  204.5000   273.4020    24.5850     4.3550    14.7650    16.6960    11.1220     0.5010 
  204.6250   258.3060    24.6200     4.3040    15.7540    17.6300    10.9440     0.5030 
  204.7500   254.2870    24.6200     4.2800    17.1480    18.7150    12.5160     0.5040 
  204.8750   266.5510    24.5860     4.2080    18.0980    19.4270    14.0290     0.5060 
  205.0000   267.1720    24.7450     4.1240    18.7000    19.6390    14.1890     0.4790 
  205.1250   252.6520    25.0920     4.0640    19.5160    20.1170    15.7910     0.4280 
