~V
VERS. 2.00: Ver 2.00
~W
STRT.M 149.0000:
STOP.M 325.0000:
STEP.M 0.1250:
NULL. -999.2500:
UWI. жи031:
~C
DEPT.M :
AC.US/MT :
CALI.CM :
GR.API :
RI. :
RML.OHMM :
RXO.OHMM :
SP.MV :
~A
# ...
  227.7500   394.4580    23.9360     4.7140     8.9460     9.7260     6.6620     0.1640 
  227.8750   393.0580    23.9350     4.6590     8.5660     9.4360     6.2460     0.0520 
  228.0000   391.8430    23.9350     4.6770     8.4420     9.3520     6.9720    -0.0600 
  228.1250   391.6480    23.9400     4.6090     8.5140     9.7930     7.9840    -0.1730 
  228.2500   392.8940    23.9660     4.6140     9.1030    10.9650     9.1360    -0.3120 
  228.3750   394.9360    24.0040     4.6680     9.9750    12.2350    10.4700    -0.4670 
  228.5000   396.7040    24.0730     4.7820    11.0390    13.2130    11.4550    -0.6220 
  228.6250   396.8480    24.0840     4.6910    11.8360    14.0910    11.9870    -0.7780 
  228.7500   395.2100    24.1020     4.5320    12.0550    13.7810    10.7650    -0.9490 
  228.8750   391.5750    24.1340     4.4030    12.0550    13.7920     9.7310    -1.1250 
  229.0000   387.1070    24.1320     4.3640    12.1440    14.1110    11.3030    -1.3000 
  229.1250   382.1970    23.9970     4.5340    12.1540    13.7600    11.4650    -1.4750 
  229.2500   375.1560    23.8420     4.6400    12.1540    13.7680    10.4270    -1.6450 
  229.3750   368.3970    23.7830     4.2590    12.1540    14.6680    10.1430    -1.8140 
  229.5000   357.1410    23.8190     3.9750    14.3180    15.9130    12.5970    -1.9840 
  229.6250   348.4250    23.8900     3.8830    17.3290    20.3370    16.1710    -2.1550 
  229.7500   365.8750    23.9840     3.9180    21.2570    33.0030    19.6380    -2.3280 
  229.8750   384.1830    24.0780     3.8000    26.4690    37.8240    23.7540    -2.5000 
  230.0000   400.0790    24.1720     3.7220    33.2140    43.7450    26.2920    -2.5800 
  230.1250   405.4220    24.2440     3.6860    37.4140    48.1830    28.2350    -2.6280 
  230.2500   404.9400    24.3140     3.5850    40.6350    50.7840    28.0940    -2.6760 
  230.3750   404.6230    24.3830     3.5750    43.8110    52.4160    27.8530    -2.6890 
  230.5000   405.0670    24.4530     3.5680    46.5030    55.3130    27.9450    -2.6880 
  230.6250   405.5100    24.5220     3.5220    48.9170    57.2650    29.4800    -2.6860 
  230.7500   408.2770    24.5810     3.5780    50.9560    58.1440    32.0080    -2.6850 
  230.8750   405.5050    24.5800     3.6570    51.6190    55.1360    31.3900    -2.6380 
  231.0000   401.2830    24.5450     3.6300    49.2880    53.5610    30.9300    -2.5230 
  231.1250   395.3310    24.3970     3.5510    46.8980    54.4940    30.6160    -2.4080 
  231.2500   386.5060    24.1900     3.4560    47.0190    55.0890    31.8820    -2.2930 
  231.3750   359.1920    24.0010     3.3860    48.3280    55.1760    33.7020    -2.1630 
  231.5000   349.9790    23.8050     3.3200    47.1260    53.8190    35.4520    -2.0310 
  231.6250   354.6360    23.6870     3.4740    44.6240    51.1610    36.8250    -1.8990 
  231.7500   364.5480    23.6300     3.6240    40.8920    48.2170    31.0750    -1.7690 
  231.8750   375.5960    23.6520     3.6960    37.6060    44.9210    26.4460    -1.6750 
  232.0000   369.3240    23.9290     3.8060    33.8370    41.5420    26.6630    -1.5810 
  232.1250   357.0410    23.6170     4.1210    26.5360    36.7870    23.5170    -1.4870 
  232.2500   357.6980    23.2240     4.5010    19.5220    24.7700    16.1490    -1.3920 
  232.3750   366.0260    23.0240     4.7930    15.0170    13.4140    10.4800    -1.3180 
  232.5000   375.6640    22.9290     5.0280    12.8300    12.5770     7.9040    -1.2510 
  232.6250   384.7400    22.9550     5.2440    11.8540    12.0360     7.3010    -1.1850 
  232.7500   389.9170    23.0280     5.1740    11.8540    12.4560     8.0760    -1.1180 
  232.8750   384.7770    23.0280     4.9820    12.0400    13.4470     9.1950    -1.0840 
  233.0000   373.6050    23.0820     4.7760    12.4710    14.1520    10.6680    -1.0540 
  233.1250   370.0460    23.1670     4.5730    12.7020    14.7900    12.0850    -1.0240 
  233.2500   383.6310    23.1940     4.4300    12.9320    15.3000    12.3590    -1.0050 
  233.3750   396.6690    23.2120     4.2750    13.3180    16.3130    13.3170    -1.0030 
  233.5000   388.8660    23.2270     4.2890    14.7000    20.5160    14.6640    -1.0020 
  233.6250   374.8970    23.2270     4.4080    17.4320    26.3140    16.8360    -1.0030 
  233.7500   362.4010    23.2270     4.3650    20.3530    27.3960    18.4560    -1.0160 
  233.8750   356.6820    23.2270     4.2730    22.4530    28.0170    18.5980    -1.0300 
  234.0000   366.4600    23.1750     4.2060    22.9670    25.6940    15.0480    -1.0430 
  234.1250   377.4550    23.1230     4.2220    18.4230    19.7880    11.3040    -1.0960 
  234.2500   388.8440    23.0740     4.3550    14.5320    17.3030    11.2820    -1.1570 
  234.3750   395.7560    23.0560     4.4880    13.4320    16.7040    11.4840    -1.2180 
  234.5000   391.7360    23.0370     4.5490    12.8520    14.6100    10.3840    -1.2500 
  234.6250   389.0120    23.0160     4.5680    12.1850    13.6260     9.1380    -1.2650 
  234.7500   388.5450    22.9920     4.5190    11.7530    13.4720     8.7920    -1.2800 
  234.8750   386.8200    22.9750     4.4850    11.7660    13.6610     8.6050    -1.2850 
  235.0000   380.5400    22.9750     4.4040    11.8520    13.6740     9.0760    -1.2840 
  235.1250   368.4320    22.9880     4.3270    11.4410    13.4470    10.0070    -1.2820 
  235.2500   359.4450    23.0410     4.4070    11.2360    14.0630    10.9260    -1.2810 
  235.3750   354.2140    23.1180     4.4890    11.7800    14.5700    11.1780    -1.2790 
  235.5000   366.3220    23.2430     4.4490    12.1490    14.0840    10.6430    -1.2980 
  235.6250   379.1600    23.3170     4.5490    11.4220    13.0420     9.4980    -1.3170 
  235.7500   393.6560    23.3740     4.6470    10.5040    12.4680     8.9530    -1.3490 
  235.8750   391.1130    23.3740     4.6530     9.9680    12.0950     8.5890    -1.3890 
  236.0000   385.7560    23.3740     4.5100     9.6560    11.4620     8.2970    -1.4340 
  236.1250   381.8590    23.3730     4.3980     9.0820    11.3810     7.9150    -1.4990 
  236.2500   381.3520    23.2880     4.3150     8.6750    11.3810     7.7470    -1.5650 
  236.3750   381.0530    23.1200     4.2540     9.0960    11.3810     8.4790    -1.6410 
  236.5000   381.0510    23.0630     4.2830     9.9570    11.3940     9.8480    -1.7180 
  236.6250   381.5550    23.0140     4.2610    11.2390    14.0120    11.3990    -1.8380 
  236.7500   383.5330    22.9850     4.1770    12.5530    16.7900    12.4820    -2.0300 
  236.8750   379.0410    22.9720     4.1520    13.7750    18.1850    13.1360    -2.2260 
  237.0000   362.5440    22.9720     3.9950    14.6190    18.6040    13.4080    -2.4340 
  237.1250   348.8650    22.9720     3.8910    15.3820    18.7600    13.8530    -2.6740 
  237.2500   337.2800    22.9720     3.9900    16.4670    19.8350    15.0190    -2.9640 
  237.3750   329.7060    22.9720     4.1020    17.7700    22.2470    16.6360    -3.2470 
  237.5000   333.7640    22.9410     4.2170    19.5710    24.6700    18.5790    -3.4960 
  237.6250   326.9000    22.9020     4.1450    22.1730    27.4300    20.6620    -3.7460 
  237.7500   330.3430    22.8710     3.9760    25.8650    34.5730    23.6260    -4.0610 
  237.8750   338.3930    22.8710     3.8530    30.0810    44.9640    26.1810    -4.3960 
  238.0000   345.8180    23.0690     3.7520    34.2590    46.1650    27.0500    -4.7300 
  238.1250   335.3630    23.1330     3.6790    36.9260    46.2030    26.4850    -5.0630 
  238.2500   312.0910    23.1950     3.6880    37.2830    43.2950    28.5570    -5.3810 
  238.3750   377.9960    23.1770     3.7670    35.6600    39.3790    27.0060    -5.6150 
  238.5000   391.4640    23.1040     3.8000    33.8350    37.7700    25.0280    -5.8480 
  238.6250   390.9630    23.0420     3.9590    34.3670    38.6460    22.8850    -6.0820 
  238.7500   392.5800    22.9900     3.9060    35.8100    40.0790    24.0540    -6.3160 
  238.8750   395.3580    22.9690     3.8590    37.2480    43.0880    25.6210    -6.5500 
