~V
VERS. 2.00: Ver 2.00
~W
STRT.M 149.0000:
STOP.M 325.0000:
STEP.M 0.1250:
NULL. -999.2500:
UWI. жи031:
~C
DEPT.M :
AC.US/MT :
CALI.CM :
GR.API :
RI. :
RML.OHMM :
RXO.OHMM :
SP.MV :
~A
# ...
  261.5000   401.8680    23.7120     4.0780    88.2610   155.0840    57.5690   -24.5320 
  261.6250   406.3620    23.6180     3.9530    94.7870   180.5090    61.7020   -24.7790 
  261.7500   408.3450    23.5630     3.8450   102.3640   199.8040    60.0530   -24.9120 
  261.8750   408.0820    23.5360     3.7480   109.9300   209.8760    57.6120   -24.9740 
  262.0000   406.0530    23.5350     3.7130   117.5930   213.3430    55.5860   -25.0070 
  262.1250   402.6370    23.5350     3.9000   127.9660   212.5440    57.5190   -24.9860 
  262.2500   400.6960    23.5350     3.9510   136.0300   209.2060    60.0960   -24.9580 
  262.3750   396.0020    23.5350     3.8950   140.1570   204.4500    63.0570   -24.8450 
  262.5000   390.8560    23.5350     3.9010   140.2370   199.4600    64.8390   -24.7390 
  262.6250   386.5570    23.5580     3.9410   139.6780   193.4930    66.6050   -24.6680 
  262.7500   386.6910    23.5820     3.9260   139.0150   183.5080    68.9660   -24.6520 
  262.8750   390.8080    23.6350     3.9880   137.7110   174.9300    67.1020   -24.6500 
  263.0000   392.5210    23.6920     4.0970   134.0810   169.4790    63.6130   -24.6270 
  263.1250   391.4950    23.7490     4.2150   130.4590   165.8910    61.2480   -24.6050 
  263.2500   390.2280    23.8080     3.9740   129.5670   163.9780    60.5360   -24.5610 
  263.3750   389.5280    23.8710     3.8290   135.6420   163.8820    63.1390   -24.5040 
  263.5000   393.4580    23.8830     3.7400   144.8810   165.8050    65.4450   -24.4480 
  263.6250   398.1590    23.8820     3.8540   156.4830   209.9910    65.9060   -24.2700 
  263.7500   402.3350    23.8530     3.8360   172.4470   262.5580    64.9720   -24.0420 
  263.8750   400.4040    23.8330     3.8600   185.4360   276.6810    66.9820   -23.7220 
  264.0000   395.9650    23.8320     3.9400   196.7170   278.4730    69.5880   -23.2310 
  264.1250   393.8810    23.8110     3.9010   201.1550   275.3610    68.8730   -22.7600 
  264.2500   392.9960    23.7530     3.9510   201.1730   271.3330    71.0530   -22.2900 
  264.3750   394.4620    23.7320     3.8840   201.1920   272.0860    74.2880   -21.7700 
  264.5000   395.9770    23.7320     3.8030   203.2940   276.3730    74.2210   -21.2470 
  264.6250   395.6630    23.7320     3.7270   210.3360   278.0500    72.5900   -20.6950 
  264.7500   393.7470    23.7310     3.6630   212.1280   276.3770    71.1070   -20.1440 
  264.8750   387.5000    23.7310     3.5980   208.3100   270.2390    73.3820   -19.5990 
  265.0000   381.6990    23.7350     3.5280   200.5990   260.9970    77.2910   -19.0680 
  265.1250   366.2150    23.7560     3.5600   191.4940   249.4200    81.0350   -18.4680 
  265.2500   373.4690    23.7770     3.7010   181.4030   239.7940    76.7730   -17.8440 
  265.3750   376.9060    23.7800     3.8410   171.5720   224.9350    75.1800   -17.2120 
  265.5000   379.6780    23.7800     3.9750   161.8920   208.7730    82.2180   -16.5640 
  265.6250   387.0490    23.7800     4.1290   151.8330   195.4850    89.2570   -15.9680 
  265.7500   367.1710    23.7230     4.1750   141.4630   180.8010    96.2950   -15.5430 
  265.8750   348.0790    23.6600     4.2600   131.6630   166.5210   103.3340   -15.1190 
  266.0000   328.9480    23.6220     4.4010   122.6740   154.0000   110.3720   -14.6380 
  266.1250   313.7060    23.5900     4.5310   116.1380   143.6840   117.4100   -14.1560 
  266.2500   304.9750    23.5420     4.6960   108.0220   125.9950   114.0050   -13.7850 
  266.3750   303.2180    23.4850     4.8500   100.5250   110.4960    94.7020   -13.4240 
  266.5000   309.3260    23.4020     4.7620    93.9350    97.2220    75.3990   -13.0640 
  266.6250   317.3020    23.3150     4.5830    87.6650    96.1230    56.0960   -12.7260 
  266.7500   322.8940    23.2210     4.4140    82.2970    98.9610    52.8240   -12.3970 
  266.8750   319.2880    23.1780     4.5370    79.1600   101.3240    60.2560   -12.0680 
  267.0000   316.8250    23.1780     4.7350    79.1780   103.1380    60.6210   -11.7600 
  267.1250   316.3740    23.1600     4.9380    80.1810   105.2020    64.3290   -11.4910 
  267.2500   301.5730    23.1370     5.1050    86.2180   106.4010    53.2830   -11.2220 
  267.3750   292.2640    23.1270     5.1420    88.1850    89.0550    58.4940   -10.9520 
  267.5000   283.1280    23.1270     5.0740    83.9550    84.6550    50.4240   -10.6400 
  267.6250   278.0480    23.1270     5.1720    76.9690    88.8430    44.8140   -10.3260 
  267.7500   280.0640    23.1270     5.2890    72.5170    90.4170    50.5440    -9.9890 
  267.8750   288.5380    23.1270     5.2200    78.5490    89.9820    55.3330    -9.6390 
  268.0000   296.2420    23.1270     5.1120    79.0310    86.7570    82.1020    -9.2530 
  268.1250   303.0040    23.1260     5.0010    78.6730    94.8600   108.2580    -8.8660 
  268.2500   296.9040    23.1260     4.9030    87.0770    97.1630   150.3950    -8.4350 
  268.3750   294.6550    23.1260     4.8160    89.3220    99.1650   218.7750    -8.0050 
  268.5000   283.8260    23.1010     4.7330    88.9550   105.9940   303.5490    -7.5710 
  268.6250   272.1740    23.0480     4.6760    93.3970   129.2290   449.6180    -7.1330 
  268.7500   255.4170    23.0090     4.6210   106.6460   138.1360   558.2060    -6.6870 
  268.8750   238.6600    22.9800     4.6340   117.4560   142.8610   641.6400    -6.1580 
  269.0000   221.9040    22.9240     4.7440   125.7190   208.7560   696.9380    -5.6290 
  269.1250   211.8950    22.8680     4.8590   150.6470   256.6090   676.6900    -5.1600 
  269.2500   207.4510    22.8400     4.7940   176.6370   265.5880   650.3060    -4.6900 
  269.3750   221.5200    22.8120     4.6750   201.8610   180.3910   619.7780    -4.2210 
  269.5000   243.9560    22.7860     4.6290   202.6370   135.2850   472.5120    -3.8100 
  269.6250   273.5950    22.7740     4.5690   186.6960   104.2780    64.2740    -3.4660 
  269.7500   259.9640    22.7740     4.5470   157.5950    68.9180    63.0570    -3.1270 
  269.8750   236.4270    22.8350     4.5890   125.2330    80.3320    48.9640    -2.7890 
  270.0000   218.4810    22.9320     4.4670    84.5320    96.8290    85.5920    -2.4700 
  270.1250   223.5030    23.0890     4.3880    61.4810   104.2150   117.0650    -2.1570 
  270.2500   226.5570    23.1560     4.4480    74.2600   108.3420   119.8320    -1.9070 
  270.3750   223.1650    23.1980     4.4150    88.3000   126.0640   120.9780    -1.6850 
  270.5000   216.8170    23.1710     4.4170    94.4090   170.0850   140.7380    -1.4630 
  270.6250   208.6730    23.0510     4.4880    94.0480   178.8500   178.6030    -1.3260 
  270.7500   202.3320    22.9720     4.4210    99.5220   160.7970   215.1530    -1.1910 
  270.8750   204.9340    22.9270     4.2470   115.6390   140.7850   247.0270    -1.1050 
  271.0000   203.6860    22.9220     3.9820   131.7550   132.2960   274.1360    -1.0360 
  271.1250   202.7630    22.9760     3.6550   147.8720   104.0340   222.3260    -0.9700 
  271.2500   208.1570    23.0500     3.3270   153.6640    63.0490   104.4340    -0.9060 
  271.3750   198.0940    23.1360     3.0000   120.7940    39.3710   100.5890    -0.7730 
  271.5000   225.9250    23.2260     2.6730    87.9240    29.7240    78.3680    -0.6320 
  271.6250   269.5720    23.3200     2.4610    55.0550    27.4010    58.8250    -0.4940 
  271.7500   281.5390    23.5790     2.6250    22.1850    25.0000    30.2220    -0.4140 
  271.8750   344.7830    24.7650     2.7890     5.7210     5.5310     8.0980    -0.3400 
  272.0000   350.1850    26.5490     2.9530     4.8270     5.2300     6.8970    -0.3120 
  272.1250   343.1480    29.3090     3.1170     4.4910     4.9560     2.4810    -0.2900 
  272.2500   366.8610    32.0580     3.2470     4.2670     4.7360     2.9620    -0.2880 
  272.3750   426.8400    33.8010     3.0950     4.2220     4.7360     3.3940    -0.2870 
  272.5000   430.6520    33.0010     3.1690     4.1840     4.6660     3.9470    -0.2850 
  272.6250   419.8330    31.9740     3.3170     4.5060     4.6330     3.6310    -0.2840 
