~V
VERS. 2.00: Ver 2.00
~W
STRT.M 76.0000:
STOP.M 232.0000:
STEP.M 0.1250:
NULL. -999.2500:
UWI. жи29:
~C
DEPT.M :
AC.US/MT :
CALI.CM :
GR.API :
RML.OHMM :
RI. :
SP.MV :
RXO.OHMM :
~A
# ...
  121.0000   264.5930    25.3710     5.8210    20.4460    17.5470   -12.8380    17.4660 
  121.1250   264.5850    25.3170     5.7690    21.4110    18.2970   -12.8390    20.7700 
  121.2500   265.4310    25.2350     5.7410    23.4640    18.9300   -12.8380    23.6390 
  121.3750   272.5650    25.1710     5.7010    26.7010    20.3590   -12.8380    24.4830 
  121.5000   281.2120    25.0180     5.7010    27.1590    20.9270   -12.8380    22.9420 
  121.6250   289.4250    24.8950     5.7010    25.8360    17.8960   -12.7840    18.3770 
  121.7500   294.6520    24.8640     5.7010    23.1500    16.0410   -12.7940    15.3240 
  121.8750   298.1390    24.8640     5.7350    19.0410    15.1160   -12.8370    11.8100 
  122.0000   301.8550    24.8630     5.7420    17.1080    13.7770   -12.9360    11.3720 
  122.1250   304.2770    24.8820     5.7780    16.0390    12.7460   -12.9380    10.9340 
  122.2500   302.0830    25.0320     5.7820    15.1960    11.7150   -12.9370    10.1370 
  122.3750   300.4910    25.1900     5.8220    14.3820    11.0870   -12.9700     8.8790 
  122.5000   298.3950    25.3250     5.8230    14.0590    11.2720   -13.0580    10.1330 
  122.6250   296.6120    25.4670     5.8630    15.1760    11.9190   -13.1390    11.3610 
  122.7500   295.5400    25.6080     5.8630    17.2590    13.2010   -13.1390    12.4350 
  122.8750   294.4700    25.6770     5.8980    18.5280    14.1430   -13.1650    13.7660 
  123.0000   293.5190    25.8330     5.9290    19.4180    14.5080   -13.2340    14.8660 
  123.1250   293.5110    25.8650     5.9840    19.0430    14.5740   -13.1380    16.1450 
  123.2500   293.3440    25.7340     5.9360    19.2540    15.0690   -12.9810    17.9370 
  123.3750   292.4940    25.6050     5.8770    20.8060    15.5740   -12.9350    16.7300 
  123.5000   292.4860    25.5620     5.8430    20.1700    16.5330   -12.9350    14.6770 
  123.6250   293.4790    25.5220     5.8130    16.4800    12.6750   -12.9350    12.4700 
  123.7500   294.4470    25.4560     5.7630    15.1290    11.8460   -12.9060     9.7260 
  123.8750   295.8210    25.2980     5.7040    14.4600    11.0780   -12.8330     8.0060 
  124.0000   296.4610    25.2240     5.7490    13.8470    10.8760   -12.6710     8.6440 
  124.1250   298.6460    25.1780     5.8640    13.7350    11.0330   -12.6310     9.3340 
  124.2500   300.8460    25.1550     6.0020    13.6110    11.0810   -12.6250     9.8190 
  124.3750   304.4460    25.0370     6.0970    14.3210    11.0820   -12.5290     9.8680 
  124.5000   308.0490    24.9580     6.1860    14.8200    11.0820   -12.5190    10.0460 
  124.6250   310.3000    24.9100     6.1860    15.6450    11.0830   -12.4270    10.2220 
  124.7500   312.7140    24.8650     6.1040    15.2270    10.8580   -12.4270     9.5280 
  124.8750   313.9010    24.7960     6.0660    13.3350    10.4320   -11.4170     8.4490 
  125.0000   315.4310    24.7170     6.0480    12.8080    10.2430   -11.5090     8.5750 
  125.1250   315.3420    24.6480     6.0260    12.6400    10.0770   -11.5490     8.4700 
  125.2500   314.4130    24.6470     6.0660    12.2480     9.5960   -11.6180     7.4170 
  125.3750   315.2050    24.5930     6.1390    11.4240     9.2010   -11.6180     6.6710 
  125.5000   315.3990    24.5610     6.2250    11.8040     8.8670   -11.6180     7.3870 
  125.6250   313.1730    24.6240     6.2670    12.6230     9.2560   -11.6170     7.7690 
  125.7500   311.9940    24.6450     6.3070    12.9380     9.3430   -11.6690     6.8700 
  125.8750   310.4750    24.6450     6.3070    13.1930     9.6780   -11.6170     6.3550 
  126.0000   309.7550    24.6690     6.3070    13.0370     9.8810   -11.5240     6.9420 
  126.1250   308.7800    24.7310     6.2730    13.0130    10.0240   -11.4140     7.8880 
  126.2500   307.9190    24.7850     6.2100    12.4640     9.5780   -11.3640     7.6040 
  126.3750   307.1400    24.8370     6.1200    12.0290     8.7480   -11.3130     6.6280 
  126.5000   305.5670    24.8430     6.0630    11.6170     8.4700   -11.3130     5.5490 
  126.6250   304.3080    24.8430     6.0670    11.2020     8.5570   -11.3130     6.0590 
  126.7500   304.3000    24.9410     6.1080    12.0830     9.8770   -11.3120     7.7490 
  126.8750   304.2920    25.0110     6.1480    13.6220    12.1890   -11.3120     8.8230 
  127.0000   304.2840    25.0720     6.0520    15.5340    12.5670   -11.3120    10.7690 
  127.1250   305.0520    25.1520     5.9490    16.5700    11.2340   -11.3120    10.7940 
  127.2500   306.2720    25.2630     5.9160    15.8840    10.6060   -11.3110     8.4570 
  127.3750   306.5970    25.3430     5.8680    15.0750    10.4980   -11.3110     9.0190 
  127.5000   307.4350    25.4430     5.8680    14.4460    10.4990   -11.3110     9.6060 
  127.6250   308.6750    25.3670     5.9080    14.0240    10.3170   -11.2100     9.3730 
  127.7500   309.2450    25.3410     5.9710    13.8060    10.2990   -11.2800     9.8330 
  127.8750   309.2370    25.2650     6.0640    13.3660    10.3000   -11.2090    10.0610 
  128.0000   310.1990    25.2390     6.1490    12.8660    10.4190   -11.2090     8.9310 
  128.1250   310.2230    25.2390     6.1570    12.4640    10.9660   -11.2090     8.3650 
  128.2500   310.2150    25.2380     6.1890    13.0810    11.5990   -11.1210     9.5410 
  128.3750   310.2070    25.2130     5.9890    14.1800    12.4340   -11.1070    10.4870 
  128.5000   310.7940    25.1600     5.8290    14.4520    11.6610   -11.1070    11.4590 
  128.6250   311.1930    25.0930     5.8290    13.4360    10.6840   -11.1680    11.0210 
  128.7500   311.1850    25.0350     5.8290    12.9870     9.9030   -11.2410     9.5830 
  128.8750   311.1770    25.0340     5.9090    11.5780     9.2970   -11.3200     8.6070 
  129.0000   311.1690    25.0340     5.8640    10.9540     9.2980   -11.3980     8.4260 
  129.1250   311.1610    25.0330     5.7890    10.6810     9.7250   -11.5100     8.6280 
  129.2500   308.0510    25.0980     5.7490    11.3640     9.8400   -11.5870     8.7800 
  129.3750   306.1370    25.1810     5.7380    11.5490     9.0110   -11.8040     8.0860 
  129.5000   306.1290    25.2460     5.8270    11.2110     8.5850   -11.9110     7.2630 
  129.6250   306.1210    25.3240     5.9110    10.8390     9.0340   -12.1150     7.8250 
  129.7500   306.1130    25.3780     5.9940    11.6090     9.8690   -12.4350     8.5400 
  129.8750   305.4040    25.4300     6.0440    13.8620    10.7050   -12.7340     9.4090 
  130.0000   305.8010    25.3310     6.1310    14.3630    11.5090   -12.8400    10.4070 
  130.1250   306.0900    25.4310     6.2220    13.3960    11.1260   -12.9220    10.5580 
  130.2500   306.8450    25.4000     6.3040    12.5180    10.9980   -12.9210     9.4030 
  130.3750   307.6170    25.3380     6.3120    12.8850    11.1280   -12.9210     9.8100 
  130.5000   308.4960    25.4160     6.2670    13.0260    11.3310   -12.9490    10.4490 
  130.6250   309.2600    25.4290     6.1920    13.2180    11.4060   -13.0210    10.3180 
  130.7500   310.8110    25.4280     6.1120    13.4290    11.3330   -13.0210    10.6750 
  130.8750   312.3610    25.4280     6.1120    13.7050    11.1450   -13.0210    11.4160 
  131.0000   313.9120    25.4920     6.0720    13.6310    11.1330   -12.9260     9.2610 
  131.1250   315.8830    25.5270     6.0720    13.0340    11.1340   -12.9880     8.8740 
  131.2500   318.5000    25.5270     6.0320    12.5020    10.8890   -13.0200     9.1280 
  131.3750   321.3010    25.5260     6.0320    12.4250    10.7650   -13.0200     9.3820 
  131.5000   325.0230    25.5730     6.0320    12.6920    10.9350   -13.0200     9.5850 
  131.6250   327.7280    25.6260     6.0320    12.8280    10.9360   -13.0190     9.8650 
  131.7500   329.0230    25.5240     6.0650    12.6270    10.4860   -13.0190    10.1190 
  131.8750   332.7440    25.4230     6.1130    12.6270    10.1710   -13.0190     9.9110 
  132.0000   336.6040    25.4230     6.1930    12.6280    10.1300   -13.0190     9.1910 
  132.1250   339.7070    25.3210     6.2780    12.6280    10.5420   -13.2530     9.5230 
