~V
VERS. 2.00: Ver 2.00
~W
STRT.M 76.0000:
STOP.M 232.0000:
STEP.M 0.1250:
NULL. -999.2500:
UWI. жи29:
~C
DEPT.M :
AC.US/MT :
CALI.CM :
GR.API :
RML.OHMM :
RI. :
SP.MV :
RXO.OHMM :
~A
# ...
   87.2500   467.1890    26.7840     6.6680    16.0120    13.2260    -1.2200    12.5680 
   87.3750   464.4930    26.5500     6.7950    14.5730    11.7910    -1.2920    11.2310 
   87.5000   462.3510    26.3530     6.8730    13.8590    11.3250    -1.2190     9.9210 
   87.6250   459.6760    26.2280     6.9290    13.4460    10.7970    -1.3180     9.2000 
   87.7500   457.0590    26.1600     6.9940    13.0980    10.7980    -1.6260     8.7620 
   87.8750   451.7850    25.9820     6.9940    13.7350    11.2410    -1.7420     9.7600 
   88.0000   447.7380    25.8220     7.0510    15.0900    11.5420    -1.9550    10.8100 
   88.1250   444.5880    25.8220     7.1150    16.7210    11.9950    -2.4700    12.5520 
   88.2500   439.7950    26.0730     7.1780    17.2470    12.4130    -2.9620    14.3450 
   88.3750   435.2670    26.3660     7.2360    14.8550    12.6290    -3.3470    12.3680 
   88.5000   428.6310    25.7450     7.2360    14.1690    12.8290    -3.6700    10.5180 
   88.6250   422.7840    25.6180     7.2360    14.0030    12.8850    -4.2170     9.9000 
   88.7500   413.7310    25.6170     7.1600    14.9650    13.4790    -5.0190    10.5390 
   88.8750   399.2350    25.6950     7.1170    15.6700    13.7960    -5.8100    11.1270 
   89.0000   385.8570    25.7390     7.1130    16.5960    14.3440    -6.8840    11.6890 
   89.1250   375.7600    26.0410     7.1160    17.5400    15.3280    -7.6010    12.2510 
   89.2500   365.0470    26.2640     7.1160    17.7300    16.2380    -8.4050    12.9680 
   89.3750   356.5850    26.5000     7.2070    18.3970    17.5050    -9.2270    14.0680 
   89.5000   348.2400    26.7240     7.3040    21.6670    19.1500    -9.9500    17.0410 
   89.6250   342.3320    26.0990     7.4310    29.1690    20.9290   -10.3670    23.6570 
   89.7500   405.9770    25.5650     7.4780    41.5350    32.6030   -11.2860    33.1210 
   89.8750   424.9010    25.4100     7.6050    41.6990    28.4390   -11.7000    38.9670 
   90.0000   438.5380    25.3360     7.7720    35.2120    13.1940   -12.0140    40.6060 
   90.1250   445.9500    25.2070     7.9480    29.2720    10.4190   -12.3040    39.2720 
   90.2500   447.4380    25.2070     8.1700    12.5210     9.3010   -12.3930    34.9840 
   90.3750   449.1420    25.2060     8.3530     8.6890     6.6720   -12.3930    30.3920 
   90.5000   450.2930    25.2060     8.5190     6.0650     4.9470   -12.4630     3.5820 
   90.6250   451.2060    25.2050     8.7300     5.7500     4.7450   -12.5750     2.9130 
   90.7500   452.8660    25.3050     9.0150     5.7130     4.7460   -12.5950     2.8850 
   90.8750   453.9740    25.4060     9.1420     6.3050     4.7470   -12.5950     3.4720 
   91.0000   456.2070    25.4050     9.2290     6.4690     4.9100   -12.6520     4.1370 
   91.1250   457.0020    25.4050     9.3280     6.4690     4.7490   -12.6960     4.5450 
   91.2500   458.0990    25.4040     9.2950     6.4690     4.4390   -12.6960     4.4150 
   91.3750   459.6500    25.4040     9.2080     6.0990     4.3460   -12.6950     4.0280 
   91.5000   460.9400    25.4030     9.1220     5.6020     4.3470   -12.7970     3.3840 
   91.6250   462.1310    25.4020     9.0470     5.3930     4.0810   -12.8140     2.8950 
   91.7500   462.8820    25.4020     9.0560     5.0290     3.8360   -12.8930     2.6620 
   91.8750   463.8540    25.4010     9.1120     4.7090     3.3000   -12.9460     2.3770 
   92.0000   459.1240    25.4020     9.1990     4.4590     2.8270   -13.0690     2.0420 
   92.1250   456.9230    25.4650     9.2870     4.2590     2.4890   -13.2310     1.8600 
   92.2500   454.2910    25.5010     9.3910     4.1360     2.2230   -13.3200     1.8060 
   92.3750   449.3080    25.5000     9.4580     4.2320     2.1270   -13.5410     1.7010 
   92.5000   445.9760    25.5630     9.5450     4.8360     2.4080   -13.7090     2.0580 
   92.6250   446.5390    25.6550     9.5700     6.0740     3.6960   -13.7080     4.1340 
   92.7500   450.3450    25.7000     9.5830     6.8220     5.7910   -13.8320     5.7220 
   92.8750   452.7440    25.7000     9.2290     8.0840     7.0260   -13.9900     8.1050 
   93.0000   454.7810    25.7500     9.0880     8.7990     6.2980   -14.1140     8.6940 
   93.1250   454.7720    25.7990     9.0480     7.5230     5.0160   -14.2150     6.1000 
   93.2500   455.7670    25.7990     9.0480     6.6910     4.0610   -14.4220     3.3270 
   93.3750   452.3140    25.8320     9.0780     5.7760     3.7550   -14.7220     2.3500 
   93.5000   450.3470    25.8990     9.1130     5.2690     3.9590   -14.8230     2.1960 
   93.6250   449.7280    25.8980     9.1660     5.4700     3.9600   -14.9250     2.2430 
   93.7500   450.1220    25.8060     9.1690     6.0740     3.9610   -14.9760     2.5230 
   93.8750   451.3540    25.7960     9.1700     6.0740     3.9620   -15.0250     2.8540 
   94.0000   453.0620    25.7950     9.0400     6.0750     3.9750   -15.0250     3.0830 
   94.1250   454.2400    25.7950     8.9290     5.8740     4.1660   -15.0250     3.0550 
   94.2500   455.9510    25.7940     8.9710     5.8740     4.0690   -14.9240     2.7700 
   94.3750   457.3770    25.7940     9.0490     5.5200     3.9660   -14.8210     2.5120 
   94.5000   457.6890    25.7930     9.0160     5.2510     3.7880   -14.5040     2.2280 
   94.6250   458.4790    25.7930     8.8350     5.0270     3.5630   -14.3450     2.0460 
   94.7500   456.0940    25.6910     8.7570     4.8710     3.5640   -14.1600     2.0440 
   94.8750   454.6570    25.6790     8.5560     4.5600     3.3620   -13.9650     2.2210 
   95.0000   453.6740    25.6320     8.3890     4.4680     3.3630   -13.7790     2.1670 
   95.1250   452.8620    25.6140     8.1330     4.4680     3.3640   -13.6580     2.0880 
   95.2500   452.5200    25.6950     7.9850     4.4690     3.5030   -13.4980     2.1630 
   95.3750   451.6170    25.8520     7.8480     4.9850     3.8680   -13.2960     2.7500 
   95.5000   450.6070    25.9250     7.7220     5.5550     4.5020   -13.0740     4.0310 
   95.6250   450.5980    26.1400     7.5150     7.0280     5.4880   -12.8760     4.6200 
   95.7500   450.0220    26.3500     7.2530     9.1170     9.3840   -12.7880    12.5160 
   95.8750   450.0360    26.6620     6.8790    13.8970    14.7640   -12.6520    20.5160 
   96.0000   450.5740    27.0520     6.6250    17.7030    18.3600   -12.4930    27.2080 
   96.1250   450.5650    27.3870     6.4060    29.8160    20.6630   -12.2870    29.3090 
   96.2500   450.5570    27.8030     6.1990    31.2560    23.3510   -12.1080    27.9980 
   96.3750   450.7650    27.5450     5.9520    31.4830    25.0570   -12.0770    26.8160 
   96.5000   451.2770    27.4990     5.8770    32.4410    26.6770   -12.0100    24.2750 
   96.6250   451.5350    27.4990     5.8910    33.8660    28.0640   -11.8730    21.6820 
   96.7500   451.5270    27.4980     5.9860    36.5050    31.2860   -11.8080    18.0890 
   96.8750   451.5180    27.5840     6.0380    37.6250    30.5110   -11.7710    19.4460 
   97.0000   451.5100    27.5980     6.1590    37.8750    28.3480   -11.7710    20.8540 
   97.1250   451.5020    27.7390     6.2820    36.6180    27.0930   -11.7710    22.1600 
   97.2500   451.9180    27.7990     6.4490    33.8020    25.4890   -11.8220    23.2100 
   97.3750   452.5340    27.7980     6.5760    30.9700    24.0560   -11.8720    25.3620 
   97.5000   453.1500    27.8020     6.7030    28.9340    22.8720   -11.8590    26.6420 
   97.6250   453.4730    27.8980     6.7490    27.1550    22.6150   -11.6770    24.4590 
   97.7500   453.2690    27.8970     6.8020    28.1060    24.0280   -11.4750    24.7900 
   97.8750   452.4550    27.9090     6.8020    29.4280    23.1910   -11.2840    27.0190 
   98.0000   452.4460    27.9870     6.8030    29.4280    22.3780   -11.1840    26.2990 
   98.1250   452.4380    27.9960     6.7970    29.4280    22.0420   -11.0590    25.7320 
   98.2500   452.4300    27.9000     6.7630    29.4290    22.3590   -10.9310    25.6530 
   98.3750   453.4240    27.8450     6.7230    30.0480    22.9340   -10.8480    25.3940 
