~V
VERS. 2.00: Ver 2.00
~W
STRT.M 76.0000:
STOP.M 232.0000:
STEP.M 0.1250:
NULL. -999.2500:
UWI. жи29:
~C
DEPT.M :
AC.US/MT :
CALI.CM :
GR.API :
RML.OHMM :
RI. :
SP.MV :
RXO.OHMM :
~A
# ...
  222.2500   380.0010    29.8320     4.5240     4.6290     2.1820   -22.3850     3.6940 
  222.3750   376.1120    27.7800     4.6470     4.4280     2.6160   -22.3850     3.6150 
  222.5000   372.9780    26.5160     5.1100     4.4280     2.7740   -22.3850     3.3820 
  222.6250   366.8350    26.6160     5.1710     4.8260     2.9800   -22.3840     3.1500 
  222.7500   362.6980    26.7740     5.2650     5.0400     3.3880   -22.3840     3.0450 
  222.8750   356.5550    26.9840     5.4190     5.8810     3.6140   -22.3830     4.1170 
  223.0000   350.6330    27.0510     5.5100     7.8730     4.2870   -22.3830     5.1890 
  223.1250   344.2700    26.5180     5.6460    10.0870     5.0060   -22.3820     6.1590 
  223.2500   330.1070    26.3210     5.7330    11.2210     6.0120   -22.3820     8.2800 
  223.3750   314.7140    26.6310     5.8120    13.0500     7.9000   -22.4270    10.6570 
  223.5000   306.4260    27.1120     6.0090    13.7000    10.1290   -22.4800    12.4960 
  223.6250   291.8460    27.1110     6.0970    14.5350    11.7920   -22.4800    15.0260 
  223.7500   284.4830    27.1610     6.1530    14.5980    13.0540   -22.4800    16.8400 
  223.8750   283.1340    27.2100     6.1850    14.2840    13.4610   -22.3980    12.9240 
  224.0000   284.1260    27.3090     6.2070    14.1150    13.4620   -22.4790     8.9570 
  224.1250   284.1180    27.4940     6.2250    14.2260    13.4630   -22.4780     6.0900 
  224.2500   284.1110    27.4080     6.2250    14.3170    13.4640   -22.4780     7.0600 
  224.3750   283.1030    27.4090     6.1140    14.3180    13.4650   -22.4770     9.5890 
  224.5000   282.0950    27.4710     5.9500    14.4460    13.4660   -22.4770     7.9500 
  224.6250   282.5790    27.5060     5.7860    14.5200    13.4660   -22.4760     6.0040 
  224.7500   284.0790    27.5060     5.5480    14.6650    13.4670   -22.3770     4.5700 
  224.8750   284.0710    27.5050     5.3870    14.7230    13.4680   -22.3760     3.8000 
  225.0000   284.0630    27.5180     5.2300    14.7230    13.4690   -22.2950     3.4650 
  225.1250   283.0550    27.5800     5.0450    14.8070    13.6230   -22.2760     3.3350 
  225.2500   283.0470    27.6040     4.9240    14.9130    13.5520   -22.2750     3.2300 
  225.3750   283.0400    27.6040     4.8410    14.9260    13.4720   -22.2750     3.3320 
  225.5000   283.0310    27.7020     4.7780    15.0010    13.4420   -22.1780  -999.2500 
  225.6250   283.0240    27.7150     4.7480    15.1270    13.2860   -22.1750  -999.2500 
  225.7500   282.8760    27.8010     4.7660    15.1290    13.2740   -22.1790  -999.2500 
  225.8750   282.0890    27.8010     4.8060    15.1290    13.2750   -22.2730  -999.2500 
  226.0000   363.0110    25.8360     5.8080     4.0120     2.4500   -20.9040  -999.2500 
  226.1250   359.9960    25.8360     5.8080     4.1940     2.8790   -20.9420  -999.2500 
  226.2500   356.2370    25.8350     5.8220     4.4720     3.1550   -21.0450  -999.2500 
  226.3750   352.0990    25.8970     5.8670     4.6820     3.3310   -21.1120  -999.2500 
  226.5000   347.7220    25.9340     6.0460     4.9640     3.3610   -21.1890  -999.2500 
  226.6250   342.6020    25.9340     6.1530     5.4660     3.9850   -21.3030  -999.2500 
  226.7500   338.6820    25.9330     6.2150     6.5720     5.2190   -21.5020  -999.2500 
  226.8750   334.5000    25.9570     6.2580     8.6550     6.3240   -21.6010  -999.2500 
  227.0000   331.3900    26.0320     6.3200     9.5250     7.4850   -21.6430  -999.2500 
  227.1250   327.2720    26.0310     6.4030     9.8640     7.9910   -21.7000  -999.2500 
  227.2500   321.7320    26.0310     6.5270    10.2460     8.0480   -21.9020  -999.2500 
  227.3750   330.9510    26.0740     6.5690     9.4670     7.6230   -21.9980  -999.2500 
  227.5000   335.0870    26.1570     6.6320     7.2310     6.9020   -22.0120  -999.2500 
  227.6250   339.0200    26.2290     6.6950     6.7230     5.9650   -22.1170  -999.2500 
  227.7500   342.3620    26.2880     6.1450     6.3820     5.2630   -22.1950  -999.2500 
  227.8750   347.0480    26.3280     5.9070     6.0340     4.7200   -22.1950  -999.2500 
  228.0000   350.3860    26.4610     5.7440     5.8330     4.1750   -22.2700  -999.2500 
  228.1250   353.9020    26.5270     5.4230     5.8330     4.3780   -22.3870  -999.2500 
  228.2500   356.5290    26.5260     5.2570     5.8340     4.5070   -22.4910  -999.2500 
  228.3750   359.6310    26.5260     5.1510     5.8340     4.5810   -22.5910  -999.2500 
  228.5000   363.5440    26.5250     5.0040     6.0300     4.8710   -22.6900  -999.2500 
  228.6250   369.2690    26.4250     4.9380     6.0360     4.9850   -22.6900  -999.2500 
  228.7500   373.9270    26.4240     4.8740     5.8150     4.4730   -22.6890  -999.2500 
  228.8750   378.0270    26.4240     4.8030     5.3700     4.0860   -22.6890  -999.2500 
  229.0000   380.3240    26.4230     4.7080     5.0680     3.8260   -22.6880  -999.2500 
  229.1250   383.2350    26.5600     4.5550     4.8590     3.4530   -22.5880  -999.2500 
  229.2500   387.8460    26.6760     4.4510     4.5610     3.2670   -22.5880  -999.2500 
  229.3750   391.3680    26.8210     4.3580     4.4250     3.2120   -22.5840  -999.2500 
  229.5000   392.5430    26.9610     4.3040     4.4250     3.1280   -22.4880  -999.2500 
  229.6250   392.9170    27.2210     4.3670     4.4260     2.8590   -22.4870  -999.2500 
  229.7500   393.1050    27.8380     4.3900     4.1500     2.5800   -22.4870  -999.2500 
  229.8750   390.8620    29.0150     4.4000     4.0010     2.4370   -22.4370  -999.2500 
  230.0000   387.5230    29.8380     4.4140     4.1580     2.1800   -22.4860  -999.2500 
  230.1250   384.3880    30.6990     4.4770     4.3910     2.1810   -22.3860  -999.2500 
  230.2500   380.0010    29.8320     4.5240     4.6290     2.1820   -22.3850  -999.2500 
  230.3750   376.1120    27.7800     4.6470     4.4280     2.6160   -22.3850  -999.2500 
  230.5000   372.9780    26.5160     5.1100     4.4280     2.7740   -22.3850  -999.2500 
  230.6250   366.8350    26.6160     5.1710     4.8260     2.9800   -22.3840  -999.2500 
  230.7500   362.6980    26.7740     5.2650     5.0400     3.3880   -22.3840  -999.2500 
  230.8750   356.5550    26.9840     5.4190     5.8810     3.6140   -22.3830  -999.2500 
  231.0000   350.6330    27.0510     5.5100     7.8730     4.2870   -22.3830  -999.2500 
  231.1250   344.2700    26.5180     5.6460    10.0870     5.0060   -22.3820  -999.2500 
  231.2500   330.1070    26.3210     5.7330    11.2210     6.0120   -22.3820  -999.2500 
  231.3750   314.7140    26.6310     5.8120    13.0500     7.9000   -22.4270  -999.2500 
  231.5000   306.4260    27.1120     6.0090    13.7000    10.1290   -22.4800  -999.2500 
  231.6250   291.8460    27.1110     6.0970    14.5350    11.7920   -22.4800  -999.2500 
  231.7500   284.4830    27.1610     6.1530    14.5980    13.0540   -22.4800  -999.2500 
  231.8750   283.1340    27.2100     6.1850    14.2840    13.4610   -22.3980  -999.2500 
  232.0000  -999.2500  -999.2500  -999.2500  -999.2500  -999.2500  -999.2500  -999.2500 
