~V
VERS. 2.00: Ver 2.00
~W
STRT.M 76.0000:
STOP.M 232.0000:
STEP.M 0.1250:
NULL. -999.2500:
UWI. жи29:
~C
DEPT.M :
AC.US/MT :
CALI.CM :
GR.API :
RML.OHMM :
RI. :
SP.MV :
RXO.OHMM :
~A
# ...
   98.5000   454.1820    27.7370     6.6870    30.8810    23.5680   -10.6890    26.0590 
   98.6250   455.2130    27.6300     6.6630    31.5120    24.8100   -10.6520    27.0310 
   98.7500   455.9090    27.5900     6.6430    32.4450    25.6330   -10.5500    28.0030 
   98.8750   456.6100    27.5890     6.6180    33.3820    26.3880   -10.5290    28.9500 
   99.0000   457.6430    27.5890     6.5620    35.1660    27.3200   -10.4290    30.3070 
   99.1250   458.3850    27.5880     6.4920    38.4890    27.9530   -10.3500    29.3050 
   99.2500   458.3770    27.4930     6.4550    39.0910    28.2950   -10.3470    28.1740 
   99.3750   457.2560    27.4860     6.4420    38.1680    27.9820   -10.3460    27.5050 
   99.5000   454.5240    27.4840     6.4420    37.0150    27.5210   -10.3690    26.6560 
   99.6250   452.8840    27.3840     6.4430    36.6780    27.2850   -10.4480    27.0640 
   99.7500   452.3310    27.3830     6.5230    40.9000    29.2620   -10.3850    27.9080 
   99.8750   451.4500    27.3830     6.6150    44.2200    31.5510   -10.3850    29.3420 
  100.0000   449.3080    27.3280     6.7080    45.6360    31.2260   -10.4470    31.6730 
  100.1250   448.8680    27.2480     6.8050    44.4610    28.1970   -10.4870    29.4660 
  100.2500   448.2890    27.1640     6.8050    41.8180    26.4690   -10.6440    27.0270 
  100.3750   448.2810    27.1000     6.7240    34.2530    22.4670   -10.7510    25.3570 
  100.5000   447.7160    27.0770     6.7250    30.2130    20.9130   -10.8520    23.6370 
  100.6250   447.2620    27.0770     6.7650    27.9780    19.8810   -10.9530    22.1220 
  100.7500   447.2540    27.0760     6.8450    26.5390    18.1010   -11.0710    20.8880 
  100.8750   447.2460    27.0290     6.8860    26.0780    17.6030   -11.1550    19.6290 
  101.0000   447.2370    26.9740     6.8860    26.2180    17.3640   -11.1830    18.6270 
  101.1250   447.2290    26.9740     6.8660    26.4200    18.2000   -11.2560    18.7530 
  101.2500   447.2210    26.9730     6.8060    26.6870    18.9220   -11.3460    19.9300 
  101.3750   446.2110    26.9720     6.8060    25.4630    16.8400   -11.4300    21.1070 
  101.5000   446.2020    26.9720     6.8060    23.5460    14.4740   -11.5590    19.4380 
  101.6250   446.9600    26.9710     6.8060    20.8410    13.9950   -11.7710    16.3840 
  101.7500   447.1880    27.0320     6.8060    20.7790    14.0620   -11.9740    14.5870 
  101.8750   447.6900    27.0710     6.8060    22.0480    14.6960   -12.0660    15.7900 
  102.0000   447.8440    27.0700     6.8460    23.3170    15.9380   -12.1670    17.0950 
  102.1250   447.2100    27.0700     6.8470    23.2840    15.5860   -12.2440    20.2730 
  102.2500   447.8770    27.0150     6.9140    21.1160    11.7070   -12.4320    18.5520 
  102.3750   448.1490    26.9680     6.9670    14.9910     9.6480   -12.5720    14.4730 
  102.5000   448.1410    26.9210     7.0810    12.2470     8.1930   -12.5720     7.8030 
  102.6250   448.1330    26.6110     7.1210    11.4410     9.0300   -12.5720     8.6980 
  102.7500   447.3360    26.5080     7.2080    15.3720    12.3370   -12.6730    12.0040 
  102.8750   446.3710    26.4910     7.2490    19.9890    15.2290   -12.7740    13.7200 
  103.0000   444.4900    26.6440     7.2090    24.2360    17.6060   -12.7740    16.3080 
  103.1250   442.2170    27.0160     6.5490    26.8030    19.6010   -12.8750    19.9470 
  103.2500   439.3300    27.3580     6.3820    29.4190    22.5210   -12.8750    19.9960 
  103.3750   431.0190    27.7410     6.2950    31.9470    26.1170   -12.9760    20.5320 
  103.5000   425.8580    27.8700     6.2450    35.2900    28.7860   -12.9750    25.0180 
  103.6250   420.6960    27.8700     6.2050    41.5050    31.3060   -12.9750    28.9900 
  103.7500   416.7680    27.5670     6.2060    43.4290    33.8270   -12.9750    33.4500 
  103.8750   414.9810    27.2430     6.1510    45.4770    36.1430   -12.9750    33.0120 
  104.0000   412.2590    27.3070     6.1150    46.8380    37.8420   -12.9740    35.2150 
  104.1250   407.0980    27.3630     6.0580    48.7630    37.7860   -12.9820    38.1100 
  104.2500   399.9220    27.4630     6.0450    47.5380    38.1450   -13.0610    36.6210 
  104.3750   395.7690    27.3950     6.0850    48.2040    40.8820   -13.0750    35.1310 
  104.5000   387.7050    27.2610     6.1660    50.5290    42.5140   -13.0750    37.7960 
  104.6250   371.3770    27.2600     6.2470    52.6490    44.3930   -13.1340    41.5120 
  104.7500   354.7510    27.2160     6.2870    51.9960    44.5610   -13.1760    46.1510 
  104.8750   338.2500    27.1700     6.2870    50.8910    44.1170   -13.1750    44.0460 
  105.0000   326.5800    27.1580     6.2870    49.4130    44.3280   -13.2760    41.6840 
  105.1250   316.2670    27.0160     6.2870    51.5780    48.7410   -13.2760    42.8360 
  105.2500   312.3280    26.6250     6.2870    59.8410    56.2000   -13.3940    45.7820 
  105.3750   314.5100    26.3150     6.2300    86.7540    64.7520   -13.4780    62.0380 
  105.5000   324.7500    26.1270     6.1420    92.1320    66.8250   -13.6580    80.7550 
  105.6250   333.7190    25.9160     6.1670    73.8790    42.4250   -13.8370    98.3470 
  105.7500   340.4010    25.7070     6.2070    50.8360    39.8730   -14.0100   107.6010 
  105.8750   345.4990    25.6410     6.2840    48.1270    42.1130   -14.1140    68.2620 
  106.0000   348.0040    25.5750     6.3680    53.3150    47.1520   -14.2840    36.9490 
  106.1250   352.6970    25.5810     6.4090    59.4690    44.4560   -14.4900    50.7920 
  106.2500   364.0300    25.7400     6.4260    54.5400    41.3600   -14.6920    49.7380 
  106.3750   379.3000    25.9040     6.4490    47.5410    34.5770   -14.7690    33.7090 
  106.5000   386.9470    26.0330     6.4490    43.3140    29.9610   -14.7930    31.6810 
  106.6250   382.4000    26.1280     6.5190    40.4560    24.1430   -14.8940    31.7810 
  106.7500   376.7590    26.3910     6.6280    36.2640    21.9190   -14.8940    26.1370 
  106.8750   369.4330    26.6380     6.7330    32.2170    20.1480   -14.9180    20.4940 
  107.0000   363.6730    26.5300     6.8110    27.0430    20.4570   -14.9950    22.0560 
  107.1250   364.8450    26.3190     6.8660    27.8910    18.3940   -14.9940    23.5150 
  107.2500   365.4610    26.0930     6.9520    25.1300    13.3840   -14.9940    26.8460 
  107.3750   365.6530    25.8570     7.0120    13.1390    10.7830   -14.9940    19.7150 
  107.5000   365.6440    25.7440     7.0520    11.0810     7.7530   -14.9940    12.3020 
  107.6250   365.9590    25.7340     7.1190     9.6260     6.9040   -15.0650     5.9410 
  107.7500   363.1350    25.7330     7.2130     8.0750     6.2990   -15.0940     5.6310 
  107.8750   359.4430    25.8340     7.2250     9.1380     9.2630   -14.9930     5.4230 
  108.0000   356.7170    25.8720     7.2540    11.2100    12.0230   -14.9920     8.2930 
  108.1250   354.7010    25.9770     7.2940    15.0520    13.4720   -14.9920    15.0090 
  108.2500   351.5530    26.0540     7.2640    19.6090    10.2940   -14.8900    16.2890 
  108.3750   335.1120    26.1340     6.5710    15.1690     9.2410   -14.8900    13.6970 
  108.5000   321.5590    26.3100     6.3690    14.1420     8.5610   -14.8900    12.3860 
  108.6250   278.2960    26.4220     6.2420    11.7630     7.7310   -14.8900    11.7180 
  108.7500   262.5790    25.9490     6.1430    10.6390     7.1030   -14.8890     8.8950 
  108.8750   257.8250    25.7280     6.0500     9.8130     8.2090   -14.8080     8.4820 
  109.0000   256.1740    25.5190     5.9030    12.3960    12.0670   -14.7870    11.8130 
  109.1250   256.5020    25.4120     5.6960    32.2460    18.2080   -14.6860    27.0940 
  109.2500   258.4440    25.2100     5.5690    36.2520    23.3010   -14.6860    28.1170 
  109.3750   259.4760    25.1210     5.4400    41.0090    30.1540   -14.6850    32.6790 
  109.5000   260.6100    25.0780     5.2760    42.8890    31.1810   -14.6850    36.7790 
  109.6250   262.1610    24.9190     5.2070    41.5800    29.5090   -14.7150    39.0350 
