~V
VERS. 2.00: Ver 2.00
~W
STRT.M 76.0000:
STOP.M 232.0000:
STEP.M 0.1250:
NULL. -999.2500:
UWI. жи29:
~C
DEPT.M :
AC.US/MT :
CALI.CM :
GR.API :
RML.OHMM :
RI. :
SP.MV :
RXO.OHMM :
~A
# ...
  188.5000   399.9830    25.7610     4.1410     3.7160     2.9120   -17.5040     2.5880 
  188.6250   397.3860    25.6690     4.2090     3.5250     2.7120   -17.4040     3.2250 
  188.7500   393.2430    25.7440     4.2510     3.7270     2.7270   -17.3040     4.0160 
  188.8750   390.1050    25.7500     4.2740     5.1080     3.3180   -16.9410     4.9610 
  189.0000   388.8360    25.6680     4.3040     6.3200     3.7850   -16.6900     5.9570 
  189.1250   391.9390    25.6050     4.3520     6.0390     4.8190   -16.3030     4.5730 
  189.2500   395.0420    25.4660     4.4420     5.2850     3.9620   -15.9020     3.4190 
  189.3750   397.9040    25.4650     4.4330     4.2130     3.3570   -15.6560     1.7780 
  189.5000   401.2470    25.4650     4.3850     3.7620     2.7650   -15.3430     1.9810 
  189.6250   398.3750    25.4640     4.2070     3.5280     2.9210   -15.1200     2.3120 
  189.7500   393.2300    25.4640     4.0320     3.9160     3.1260   -14.9170     2.9240 
  189.8750   389.5090    25.5920     3.9070     3.9320     4.1600   -14.7020     3.8170 
  190.0000   388.3400    25.6630     3.8470     3.9330     4.2840   -14.3950     3.4820 
  190.1250   386.3300    25.8430     3.8320     3.9330     3.7950   -14.1890     2.2000 
  190.2500   385.3220    26.0080     3.8870     4.0890     3.4340   -14.0550     1.7110 
  190.3750   385.3140    25.8600     3.8910     3.9340     3.4510   -13.9260     2.1180 
  190.5000   387.3070    25.7030     3.8740     3.9340     4.2830   -13.7990     2.7310 
  190.6250   389.2710    25.6880     3.8480     4.1260     4.9140   -13.5990     3.5480 
  190.7500   393.4100    25.8990     3.7940     4.1320     4.3490   -13.6990     4.4410 
  190.8750   400.9810    26.1100     3.7450     3.7920     3.5290   -13.7960     3.6710 
  191.0000   409.8150    26.2600     3.6590     3.7340     3.1770   -13.9500     2.8240 
  191.1250   414.6500    26.2590     3.5900     3.8720     2.7590   -14.1130     2.1050 
  191.2500   413.5400    26.2590     3.5690     3.9360     2.3890   -14.3480     1.4880 
  191.3750   409.6430    26.2580     3.6320     4.0980     2.1300   -14.6330     1.5630 
  191.5000   404.5800    26.3580     3.6950     4.1870     2.1310   -14.9430     1.7140 
  191.6250   400.3550    26.5030     3.7710     4.4260     2.4100   -15.3050     2.1220 
  191.7500   396.2140    26.5270     3.8730     4.7410     2.7820   -15.5630     2.7080 
  191.8750   392.4550    26.4350     3.9820     4.7530     2.9400   -15.9730     3.3970 
  192.0000   389.9370    26.2000     4.2690     5.0690     3.3690   -16.3700     3.3180 
  192.1250   387.0000    26.0880     4.4150     5.4180     3.6970   -16.6920     3.1110 
  192.2500   384.6650    25.9640     4.5400     5.7170     3.7850   -17.0020     3.1850 
  192.3750   383.1820    25.9530     4.6380     5.7540     4.1010   -17.3120     3.3370 
  192.5000   382.1740    25.7500     4.7210     5.7540     4.1540   -17.5580     3.4630 
  192.6250   381.1650    25.6450     4.7150     5.8370     3.9820   -17.9320     3.6390 
  192.7500   382.1580    25.5500     4.7380     5.9560     3.7530   -18.4070     4.1750 
  192.8750   382.1490    25.5500     4.7900     5.9570     3.5520   -18.8360     5.1450 
  193.0000   382.7640    25.5490     4.8820     5.7380     3.5490   -19.1600     4.7840 
  193.1250   385.4900    25.5490     4.9340     5.2970     3.3530   -19.5690     4.0400 
  193.2500   388.5920    25.5480     4.9090     4.9910     3.3340   -19.9730     3.3470 
  193.3750   393.8210    25.6480     4.8540     4.7820     3.1370   -20.2880     2.8070 
  193.5000   397.7900    25.6470     4.8170     4.5060     3.0120   -20.4990     2.5490 
  193.6250   400.8930    25.7470     4.7830     4.2010     2.9540   -20.8090     2.4950 
  193.7500   398.1930    25.7460     4.7370     4.3140     2.9550   -21.0190     2.5700 
  193.8750   396.0590    25.7110     4.6830     4.3470     2.9560   -21.3290     2.7720 
  194.0000   392.7580    25.6450     4.6400     4.3690     3.0580   -21.6130     3.2310 
  194.1250   388.8770    25.6440     4.6280     5.6010     3.6750   -21.7860     3.7660 
  194.2500   386.6450    25.6440     4.6310     6.2330     3.9990   -21.7860     4.4550 
  194.3750   383.7800    25.6430     4.6740     6.0690     4.3700   -21.7850     4.4270 
  194.5000   381.3720    25.6430     4.7470     5.9610     4.5730   -21.5860     3.7850 
  194.6250   380.0350    25.6440     4.7890     6.5080     5.0170   -21.0730     3.0400 
  194.7500   380.0270    25.7210     4.8090     7.5250     5.7280   -20.6500     3.7030 
  194.8750   380.0180    25.7410     4.8090     8.9870     6.7320   -20.1670     4.9300 
  195.0000   379.8610    25.8010     4.8090    10.4590     8.3940   -19.1750     6.3860 
  195.1250   379.0020    25.8400     4.7420    12.0730     9.3910   -18.5470     9.3270 
  195.2500   383.0620    25.8400     4.6710    12.7300     8.7650   -17.9180    13.4200 
  195.3750   390.7010    25.7390     4.6230     9.8030     7.9380   -17.0900    10.6030 
  195.5000   396.2840    25.7380     4.5600     6.6630     7.3120   -16.6740     8.7320 
  195.6250   401.9950    25.6370     4.4970     5.2350     6.4850   -16.3110     6.1960 
  195.7500   409.1360    25.4660     4.4280     4.6650     5.6580   -15.9480     3.9930 
  195.8750   413.8480    25.3800     4.3840     4.3690     3.6730   -15.8850     2.4550 
  196.0000   419.9430    25.3350     4.2890     4.1550     2.9990   -15.9460     1.7870 
  196.1250   421.9590    25.3350     4.2040     3.8430     2.9740   -15.9850     1.5290 
  196.2500   421.7410    25.5650     4.0600     3.5470     2.7740   -16.0410     1.4500 
  196.3750   420.2750    25.7060     3.8290     3.6050     2.6260   -16.2160     1.3710 
  196.5000   419.2060    25.9340     3.6710     3.9510     2.5750   -16.3370     1.3430 
  196.6250   418.2800    26.4260     3.6280     4.1530     2.9790   -16.6000     1.5960 
  196.7500   417.9160    26.7350     3.6260     4.3550     2.9800   -17.1090     1.9020 
  196.8750   417.4540    26.9470     3.6150     4.1770     2.9810   -17.1820     2.3340 
  197.0000   416.6650    27.0340     3.5920     4.1540     2.9820   -17.4050     2.3580 
  197.1250   415.8900    26.5250     3.5620     4.2550     2.9830   -17.6400     2.3550 
  197.2500   415.8820    26.1050     3.4940     4.2140     2.9790   -17.7800     2.4040 
  197.3750   413.9720    25.8650     3.4730     4.3050     2.7250   -18.1600     2.4020 
  197.5000   409.4300    25.7910     3.4980     4.3570     2.5830   -18.4600     2.2980 
  197.6250   406.2930    25.7290     3.5290     4.4540     2.5840   -18.9110     2.2950 
  197.7500   403.1550    25.7280     3.5480     4.5590     2.5850   -19.3870     2.3950 
  197.8750   400.0170    25.7280     3.5730     4.7610     2.5860   -19.6970     2.4950 
  198.0000   397.1950    25.7270     3.5900     4.7620     2.7630   -20.1060     2.6980 
  198.1250   395.2810    25.8050     3.6500     5.0950     2.8770   -20.4860     3.0800 
  198.2500   392.4170    25.8260     3.8500     5.1740     2.9920   -20.8250     3.4620 
  198.3750   388.4710    25.7250     4.0380     5.5900     3.3960   -20.8730     4.0730 
  198.5000   388.7880    25.7250     4.1240     5.7710     3.6430   -20.8720     4.5320 
  198.6250   389.6330    25.6240     4.2040     5.8170     4.0020   -20.8290     3.9150 
  198.7500   389.9410    25.6230     4.2870     5.5700     3.6550   -20.8700     3.4780 
  198.8750   390.7120    25.6230     4.3490     5.3690     3.1220   -20.8740     3.2450 
  199.0000   391.7110    25.6220     4.4000     5.0480     2.7500   -20.9810     2.8590 
  199.1250   392.7610    25.6060     4.4250     4.7120     2.5960   -21.1360     2.6520 
  199.2500   393.8800    25.5210     4.4110     4.3620     2.5970   -21.3900     2.5220 
  199.3750   393.3450    25.5200     4.3990     4.3620     2.5980   -21.4410     2.4940 
  199.5000   389.3330    25.5200     4.4010     4.6890     2.8320   -21.3680     2.4410 
  199.6250   385.1930    25.4740     4.4420     5.4470     3.4620   -21.0890     2.4890 
