~V
VERS. 2.00: Ver 2.00
~W
STRT.M 76.0000:
STOP.M 232.0000:
STEP.M 0.1250:
NULL. -999.2500:
UWI. жи29:
~C
DEPT.M :
AC.US/MT :
CALI.CM :
GR.API :
RML.OHMM :
RI. :
SP.MV :
RXO.OHMM :
~A
# ...
  143.5000   398.8460    25.2700     6.6050    41.5350    31.6540   -16.2190    43.7790 
  143.6250   404.7050    25.2700     6.5650    37.7040    30.4020   -16.2020    45.7240 
  143.7500   407.3680    25.2690     6.5250    36.5800    29.6970   -16.2180    59.7620 
  143.8750   407.3600    25.2690     6.5250    37.8080    29.6920   -16.1480    52.3810 
  144.0000   407.3520    25.2680     6.5250    38.4430    30.8240   -16.1720    57.9380 
  144.1250   407.3440    25.2680     6.5660    38.2420    30.5200   -16.2170    54.0160 
  144.2500   405.4880    25.3160     6.5660    37.7900    29.7300   -16.2170    59.4200 
  144.3750   404.2770    25.2870     6.4620    37.2950    28.7170   -16.2170    56.3680 
  144.5000   402.1390    25.1650     6.3590    33.8590    28.0340   -16.2160    52.3200 
  144.6250   400.1010    25.1650     6.2790    31.1080    26.0100   -16.2160    36.6340 
  144.7500   398.0060    25.1640     6.2200    30.1990    23.7650   -16.2160    43.4730 
  144.8750   396.0030    25.1640     6.1700    32.8920    24.2810   -16.2150    40.2430 
  145.0000   394.1490    25.1630     6.1270    33.4120    26.0970   -16.2090    45.8260 
  145.1250   391.4490    25.1630     6.0810    32.0330    25.7460   -16.1140    47.7730 
  145.2500   386.4050    25.1620     6.0060    30.7890    24.5730   -16.0450    33.4710 
  145.3750   380.0920    25.2380     5.9660    29.7880    23.8440   -16.0130    33.3180 
  145.5000   374.0570    25.2610     5.9540    30.6130    23.7100   -15.9820    23.2950 
  145.6250   363.4050    25.2610     5.9260    33.1810    24.3420   -15.9110    27.5460 
  145.7500   354.6230    25.3080     5.9330    35.8370    26.1780   -15.9110    35.3840 
  145.8750   356.7920    25.3600     5.9580    35.3150    27.8560   -15.9110    37.0750 
  146.0000   366.3680    25.3600     5.9430    32.7540    28.3170   -15.9100    26.1570 
  146.1250   373.3410    25.3280     5.9660    30.6660    26.8630   -15.9100    24.6930 
  146.2500   363.1860    25.2670     5.9860    29.6980    25.4990   -15.9100    23.2040 
  146.3750   355.8660    25.3450     6.0400    31.6900    26.3400   -15.9090    26.2000 
  146.5000   354.7440    25.3580     6.0710    39.1710    29.6090   -15.9090    32.1160 
  146.6250   355.1100    25.3570     6.1130    43.4590    34.0290   -15.9090    47.3580 
  146.7500   364.8220    25.3560     6.1670    51.5200    39.7570   -15.9080    50.8140 
  146.8750   394.9610    25.3590     6.2180    48.5360    35.9460   -15.9080    24.6790 
  147.0000   409.1930    25.3550     6.3160    37.1970    27.3430   -15.9080    21.9350 
  147.1250   413.7750    25.3550     6.3680    30.1460    25.8360   -15.9070    20.2930 
  147.2500   418.5910    25.3540     6.4080    27.8950    24.1080   -15.9070    21.2640 
  147.3750   420.4260    25.3540     6.4860    31.4090    23.6740   -15.9070    23.9010 
  147.5000   421.1420    25.3020     6.5290    41.5550    26.4330   -15.9070    30.5090 
  147.6250   421.4880    25.2520     6.5690    40.6780    31.1290   -15.9060    37.5260 
  147.7500   421.9470    25.2510     6.5690    33.6000    34.4840   -15.9060    34.5780 
  147.8750   421.8850    25.2510     6.5890    30.7090    25.8080   -15.9060    28.5550 
  148.0000   421.9710    25.2000     6.6090    29.1000    24.1730   -15.9050    24.8630 
  148.1250   421.1010    25.1870     6.6090    31.3240    23.0120   -15.9050    23.4770 
  148.2500   420.5390    25.2490     6.6100    37.6500    24.1720   -15.9050    26.0880 
  148.3750   420.0830    25.2490     6.5700    39.2950    26.4590   -15.9370    28.3400 
  148.5000   419.6250    25.2480     6.5700    40.7980    29.0300   -16.0050    30.5410 
  148.6250   419.0660    25.2470     6.5700    42.8810    32.0610   -16.0040    33.0240 
  148.7500   419.0580    25.2040     6.5700    44.8340    33.4560   -16.0040    35.9420 
  148.8750   419.0490    25.1630     6.5820    42.9800    34.8940   -16.0040    34.5820 
  149.0000   419.3860    25.2250     6.5530    39.3720    33.0370   -16.0030    31.5570 
  149.1250   420.0340    25.2450     6.4700    38.2250    30.6170   -15.9370    30.4790 
  149.2500   419.7200    25.2480     6.4350    39.2580    30.4560   -15.9020    30.2460 
  149.3750   419.0170    25.3110     6.3840    34.0490    30.4570   -15.9020    29.4240 
  149.5000   419.6260    25.3440     6.3700    32.2080    29.5820   -15.8010    27.9350 
  149.6250   420.0020    25.3430     6.2900    30.9650    27.5270   -15.8010    25.6530 
  149.7500   419.9930    25.3430     6.2350    29.9220    24.8630   -15.8000    22.8320 
  149.8750   419.9850    25.3420     6.1720    30.2720    23.6310   -15.8230    24.5210 
  150.0000   419.9770    25.3420     6.1500    33.6300    23.7860   -15.9000    26.7990 
  150.1250   419.9690    25.4420     6.0910    36.5400    27.2510   -15.9000    28.7690 
  150.2500   419.1050    25.5420     6.1310    35.4390    28.4440   -15.9000    27.8190 
  150.3750   418.9510    25.6420     6.1780    34.2040    27.8380   -16.0000    26.6380 
  150.5000   417.1330    25.9770     6.2110    33.8330    26.9420   -16.0000    25.7650 
  150.6250   412.5110    26.0430     6.2490    33.8340    26.4270   -15.9990    25.1220 
  150.7500   408.8630    26.0420     6.2510    33.1850    26.5640   -15.9490    24.6070 
  150.8750   406.7000    25.9720     6.2440    31.9670    26.6310   -15.9790    24.0410 
  151.0000   403.5570    25.8580     6.1980    30.5780    25.9550   -15.9300    23.5520 
  151.1250   400.4140    25.7650     6.1720    29.5090    25.4610   -15.8970    22.8840 
  151.2500   398.1400    25.6970     6.1570    29.2030    25.1690   -15.7480    22.2150 
  151.3750   395.9980    25.6370     6.1320    29.6060    24.1650   -15.6260    22.7770 
  151.5000   394.0020    25.6370     6.0540    30.1810    23.6070   -15.4940    23.7480 
  151.6250   390.8590    25.6360     6.0120    31.8290    23.7010   -15.4270    25.0520 
  151.7500   388.8230    25.6350     6.0120    35.2900    24.3330   -15.3700    26.8690 
  151.8750   386.5850    25.6520     6.0520    37.1370    25.3110   -15.1910    28.4550 
  152.0000   383.6210    25.6340     6.1320    38.1730    26.1920   -14.8170    26.8390 
  152.1250   381.7900    25.7290     6.2530    37.7040    27.3720   -14.8890    27.1690 
  152.2500   393.5810    25.7340     6.3100    37.3180    27.2110   -14.8890    30.1900 
  152.3750   398.6230    25.6280     6.3340    36.2930    26.5110   -14.9890    28.7530 
  152.5000   402.6720    25.5320     6.3700    33.9370    25.8430   -15.0430    26.7780 
  152.6250   399.8910    25.5310     6.3330    30.8510    25.0620   -15.1990    24.4450 
  152.7500   396.7490    25.5300     6.3330    28.8220    24.1690   -15.3290    22.5720 
  152.8750   394.6850    25.5300     6.3340    27.5820    23.1280   -15.5570    21.2120 
  153.0000   391.6080    25.5290     6.3980    26.9750    22.5610   -15.6780    20.2620 
  153.1250   390.7360    25.5900     6.4920    26.7350    21.2910   -15.7630    21.0030 
  153.2500   390.7280    25.6290     6.5740    28.1780    20.9950   -15.7920    21.9480 
  153.3750   393.6590    25.6820     6.5690    33.5870    20.7940   -15.8920    23.4320 
  153.5000   398.3080    25.7220     6.5260    35.9800    20.8330   -15.9970    25.7860 
  153.6250   403.3690    25.6270     6.4950    37.4750    24.9750   -16.0920    29.1140 
  153.7500   405.6700    25.6260     6.4550    37.5030    28.1650   -16.3290    28.7020 
  153.8750   407.7540    25.5480     6.4550    34.2130    28.1420   -16.5120    24.3190 
  154.0000   409.7030    25.5250     6.4550    33.4980    27.3680   -16.7190    21.6010 
  154.1250   409.6950    25.5240     6.4550    34.1290    26.6860   -16.8530    16.9370 
  154.2500   407.9840    25.5240     6.4550    35.5950    26.6450   -17.0650    20.0850 
  154.3750   406.9130    25.4230     6.4950    41.1140    28.3430   -17.3160    27.1280 
  154.5000   404.1750    25.4370     6.4950    43.3050    32.3080   -17.4430    30.6090 
  154.6250   401.8180    25.5350     6.4960    45.6130    34.1580   -17.6990    37.5230 
