~V
VERS. 2.00: Ver 2.00
~W
STRT.M 76.0000:
STOP.M 232.0000:
STEP.M 0.1250:
NULL. -999.2500:
UWI. жи29:
~C
DEPT.M :
AC.US/MT :
CALI.CM :
GR.API :
RML.OHMM :
RI. :
SP.MV :
RXO.OHMM :
~A
# ...
  177.2500   356.5350    26.0600     5.5970     6.4700     7.9270   -17.7320    11.0340 
  177.3750   365.5880    25.9970     5.5820     5.5750     7.1690   -17.4150     8.7280 
  177.5000   376.4880    25.8340     5.5940     4.8230     6.4320   -17.2010     6.0120 
  177.6250   385.1040    25.7190     5.6380     4.2880     5.5140   -16.7860     4.1910 
  177.7500   388.8960    25.6180     5.6780     4.0630     4.8870   -16.5920     3.9590 
  177.8750   395.7020    25.6180     5.5980     4.1000     4.4380   -16.5460     4.1360 
  178.0000   400.2720    25.6170     5.5360     4.1000     4.4390   -16.5320     4.1850 
  178.1250   404.8960    25.6170     5.3700     3.8990     4.2390   -16.6280     3.3380 
  178.2500   407.7750    25.6160     5.2040     3.8990     3.9140   -16.7000     2.5930 
  178.3750   403.0310    25.6150     5.0380     3.4570     3.3660   -16.9370     1.8740 
  178.5000   398.6550    25.6760     4.7920     3.0940     2.8860   -17.0310     1.3340 
  178.6250   395.2990    25.7150     4.7590     3.2960     2.8890   -17.0310     1.9200 
  178.7500   392.3760    26.0190     4.7590     3.8510     3.1730   -16.8550     2.9170 
  178.8750   390.0640    26.2300     4.8110     4.4830     4.0060   -16.5650     4.0920 
  179.0000   388.1050    26.2890     4.8390     5.1140     4.2420   -16.1730     4.4990 
  179.1250   392.1030    26.0940     4.8390     5.7770     4.8580   -15.8760     4.7530 
  179.2500   400.3380    25.9110     4.7990     6.5800     5.1730   -15.4570     5.2630 
  179.3750   409.2810    25.8120     4.7960     6.8420     5.5190   -15.2090     5.4400 
  179.5000   416.7010    25.6100     4.7590     6.4180     5.6610   -14.7090     4.5420 
  179.6250   422.8950    25.6100     4.7600     5.2700     5.1050   -14.4360     3.2080 
  179.7500   430.8370    25.7100     4.7600     4.1950     4.3250   -14.1660     1.6950 
  179.8750   436.4640    25.7090     4.8000     2.7380     3.6980   -13.8520     0.8990 
  180.0000   440.0300    25.8090     4.8400     2.2920     3.0720   -13.7310     0.8970 
  180.1250   444.8540    25.8530     3.2670     2.4940     2.6420   -13.6210     0.8440 
  180.2500   446.9900    25.9080     2.9910     2.6370     2.6430   -13.3210     0.9950 
  180.3750   450.0380    26.0360     2.8380     2.8460     2.6440   -13.1800     1.0950 
  180.5000   451.5870    26.2080     2.6520     2.4950     2.6450   -13.0760     1.1190 
  180.6250   449.9970    26.3870     2.5510     2.2940     2.6020   -12.9760     1.0910 
  180.7500   449.5810    26.6980     2.4460     2.4950     2.4740   -12.9190     0.9600 
  180.8750   447.4450    27.1080     2.4660     2.4960     2.6320   -12.9190     1.1120 
  181.0000   441.6240    27.6180     2.4840     2.6980     2.6490   -12.9190     1.2890 
  181.1250   438.3540    27.6020     2.5060     2.9640     2.7430   -12.8880     1.7470 
  181.2500   438.8630    27.4920     2.4050     3.1740     3.0550   -12.8180     2.4360 
  181.3750   441.4540    27.3350     2.3410     3.3450     2.6420   -12.8180     2.7160 
  181.5000   443.3600    27.1770     2.2630     2.9750     2.4250   -12.7540     2.1500 
  181.6250   447.0510    26.9700     2.2630     2.6990     2.1820   -12.7170     1.4820 
  181.7500   447.2840    26.7200     2.2630     2.8560     2.0510   -12.7170     0.9680 
  181.8750   445.6670    26.6030     2.2630     2.9020     2.0520   -12.7170     0.9400 
  182.0000   444.0950    26.4020     2.2450     2.9020     2.2540   -12.7160     0.9890 
  182.1250   442.8920    26.3400     2.2220     2.7010     2.2550   -12.7160     1.0900 
  182.2500   441.9550    26.3000     2.2020     2.7010     2.3540   -12.7160     1.3180 
  182.3750   440.8740    26.5750     2.2040     2.7020     2.4590   -12.7150     1.5200 
  182.5000   439.8150    27.5060     2.2560     2.5000     2.4600   -12.8250     1.4920 
  182.6250   438.2430    28.2630     2.3130     2.5010     2.4610   -13.0020     1.4390 
  182.7500   436.1710    28.7730     2.3750     2.5010     2.3740   -13.1860     1.3850 
  182.8750   433.3580    29.1270     2.4300     2.5010     2.2610   -13.3910     1.3320 
  183.0000   431.9600    28.7120     2.4630     2.5020     2.2630   -13.5900     1.3040 
  183.1250   430.8170    28.6030     2.4250     2.5020     2.2640   -13.7300     1.5580 
  183.2500   430.1940    28.7180     2.4220     2.5020     2.2650   -13.9980     1.7860 
  183.3750   429.8000    28.9290     2.4420     2.7110     2.0650   -14.3730     1.8090 
  183.5000   429.8090    28.5610     2.4420     2.9060     2.2230   -14.6510     1.6020 
  183.6250   430.4240    28.0440     2.4870     2.9070     2.1290   -14.8720     1.2670 
  183.7500   430.4580    26.5200     2.5290     2.9070     2.2690   -14.7150     1.1370 
  183.8750   429.7670    26.3060     2.5720     2.9070     2.0680   -14.8520     1.1860 
  184.0000   428.4780    26.1920     2.6380     2.9970     2.1910   -14.9140     1.3380 
  184.1250   427.7500    26.0870     2.7170     3.1020     2.2720   -14.9140     1.7190 
  184.2500   427.7410    25.9780     2.8040     2.9080     2.2160   -14.9140     1.6150 
  184.3750   426.7580    25.8890     2.9030     2.9090     2.1370   -15.0050     1.4070 
  184.5000   426.7240    25.8890     3.0270     3.0970     2.2750   -15.0130     1.2000 
  184.6250   426.7160    25.8880     3.1700     2.7840     2.2760   -15.1190     1.3510 
  184.7500   426.5220    25.7970     3.2530     2.7320     2.2770   -15.2130     1.6560 
  184.8750   424.6980    25.8250     3.3300     2.9100     2.2780   -15.3130     1.9620 
  185.0000   424.1810    25.7860     3.4590     2.9110     2.2790   -15.3120     2.0110 
  185.1250   423.1320    25.8820     3.5300     3.1120     2.4140   -15.4120     1.9830 
  185.2500   422.0820    25.7850     3.5700     3.3140     2.5610   -15.3480     2.0830 
  185.3750   421.0330    25.7840     3.6070     3.5090     2.6850   -15.2610     2.2600 
  185.5000   420.6640    25.8840     3.6310     4.1400     4.1100   -15.0820     2.6930 
  185.6250   423.8060    25.9020     3.6290     4.9750     4.1840   -14.9440     3.3820 
  185.7500   428.3110    26.0160     3.5670     4.6580     3.8620   -14.6970     4.3260 
  185.8750   432.9650    26.1600     3.5290     4.2340     3.4950   -14.4410     3.2230 
  186.0000   437.9220    26.3710     3.4840     3.6640     2.9940   -14.1710     2.6580 
  186.1250   442.1620    26.5820     3.4530     3.1840     2.8930   -13.9580     1.9390 
  186.2500   447.8940    26.7920     3.3740     3.1160     3.0950   -13.8080     1.5530 
  186.3750   453.7220    26.6820     3.3270     3.1160     2.9270   -13.6320     1.2950 
  186.5000   457.4560    26.9300     3.2860     2.5790     2.4970   -13.7940     1.1390 
  186.6250   454.6340    27.7240     3.2150     2.2360     2.0840   -13.9560     1.1110 
  186.7500   450.4910    28.1850     3.2070     1.9460     1.7710   -14.1190     1.1600 
  186.8750   441.8360    28.4440     3.2830     1.7060     1.6900   -14.5070     1.3630 
  187.0000   435.1780    29.0910     3.4010     1.7970     1.7750   -14.6360     1.4880 
  187.1250   432.0390    29.5570     3.4960     1.9660     1.8930   -14.9470     1.3320 
  187.2500   427.2440    30.5420     3.5590     2.3120     1.9600   -15.2320     1.2280 
  187.3750   422.1780    31.0830     3.6050     2.5020     2.0970   -15.3870     1.2770 
  187.5000   419.8860    30.5820     3.6440     2.6620     2.2920   -15.7770     1.4020 
  187.6250   417.9960    30.3650     3.6680     2.8550     2.4220   -15.9880     1.5540 
  187.7500   415.3410    29.7120     3.6990     3.1570     2.6170   -16.2020     1.7820 
  187.8750   413.0650    28.1120     3.7520     3.5540     2.9570   -16.6080     2.0360 
  188.0000   411.0720    27.1030     3.8370     3.7250     3.1100   -16.9180     2.3150 
  188.1250   408.9360    26.6000     3.9180     3.7260     3.2780   -17.2050     1.9290 
  188.2500   405.7980    26.1700     3.9800     3.7260     3.1120   -17.3610     1.9010 
  188.3750   402.6590    25.8640     4.0630     3.7260     2.9680   -17.5050     2.1030 
