~V
VERS. 2.00: Ver 2.00
~W
STRT.M 76.0000:
STOP.M 232.0000:
STEP.M 0.1250:
NULL. -999.2500:
UWI. жи29:
~C
DEPT.M :
AC.US/MT :
CALI.CM :
GR.API :
RML.OHMM :
RI. :
SP.MV :
RXO.OHMM :
~A
# ...
  199.7500   382.0550    25.4190     4.4860     6.2810     4.1730   -20.6840     2.9740 
  199.8750   380.1040    25.4180     4.5490     6.7830     4.7700   -20.3640     3.7650 
  200.0000   378.6850    25.4170     4.5940     6.7840     4.5530   -20.1510     5.2210 
  200.1250   381.6860    25.4800     4.6340     6.6580     4.2400   -19.8380     6.5240 
  200.2500   385.7100    25.5160     4.6960     6.3840     4.2170   -19.3030     5.9840 
  200.3750   386.8920    25.6160     4.7790     5.8680     3.8180   -18.8540     5.4190 
  200.5000   390.6600    25.7770     4.8220     5.3540     3.1920   -18.5690     4.8280 
  200.6250   395.0920    25.8880     4.7880     5.1720     2.8100   -18.2870     4.0070 
  200.7500   397.1980    26.0070     4.6250     5.1730     3.2810   -18.0720     3.3650 
  200.8750   401.5160    26.0150     4.4300     5.1730     3.6170   -17.8690     3.3630 
  201.0000   404.6320    26.1140     4.3420     5.1730     3.6180   -17.7290     3.7190 
  201.1250   407.4420    26.0130     4.2640     5.0180     3.1480   -17.4480     3.5370 
  201.2500   409.8600    26.0130     4.2190     4.7790     2.8350   -17.2240     3.2790 
  201.3750   412.7110    25.8500     4.1960     4.7710     2.6150   -16.9980     3.1490 
  201.5000   415.8140    25.7110     4.1580     4.5700     2.4140   -16.7230     3.3000 
  201.6250   418.9160    25.7780     4.1540     4.5700     2.5310   -16.5080     3.0930 
  201.7500   423.2910    25.9100     4.1940     4.6410     2.4660   -16.2730     3.0140 
  201.8750   429.1110    26.1030     4.1670     4.7730     2.5770   -16.0620     3.0890 
  202.0000   433.2110    26.4100     4.0750     4.7730     2.5190   -15.8600     3.0350 
  202.1250   439.0420    26.7150     3.9700     4.6320     2.4190   -15.7040     2.8540 
  202.2500   444.4050    26.8200     3.8570     4.5720     2.3470   -15.5700     2.7240 
  202.3750   450.5000    26.9090     3.7530     4.4780     2.2200   -15.3420     2.5940 
  202.5000   450.4380    26.8080     3.6890     4.3710     2.0230   -15.1700     2.5150 
  202.6250   445.1580    26.7510     3.6410     4.3720     2.3310   -15.1890     2.5120 
  202.7500   436.8610    26.5220     3.6160     4.3720     2.5460   -15.1700     2.8940 
  202.8750   430.5770    26.2230     3.5810     4.3720     2.8280   -15.1710     3.4550 
  203.0000   423.6790    26.1730     3.5740     4.4070     2.8290   -15.2730     3.7340 
  203.1250   418.7560    26.0040     3.6170     4.5750     2.8680   -15.3500     3.6290 
  203.2500   413.4880    25.9440     3.6590     4.5750     3.0330   -15.4080     3.2940 
  203.3750   413.8120    26.0350     3.6640     4.5750     2.8320   -15.4590     2.8570 
  203.5000   413.4720    26.2640     3.6510     4.5760     2.4500   -15.6670     2.6760 
  203.6250   413.4640    26.5790     3.6560     4.5760     2.4320   -15.7810     2.5970 
  203.7500   412.4560    26.8650     3.6880     4.5760     2.4330   -16.0480     2.6460 
  203.8750   411.4470    27.1760     3.7750     4.5770     2.5180   -16.1620     2.7200 
  204.0000   409.2370    27.5680     3.8910     4.5770     2.6360   -16.7660     2.9480 
  204.1250   403.9580    27.8960     3.9460     4.5770     2.7880   -17.2870     3.1000 
  204.2500   402.4190    28.3080     4.0030     4.7790     2.8390   -17.8050     3.4040 
  204.3750   404.3820    28.0470     4.0460     4.7800     2.9100   -18.2910     3.4790 
  204.5000   404.9480    27.6710     4.0750     4.8430     3.0370   -18.7420     3.1440 
  204.6250   406.8630    27.2120     4.0980     4.8760     3.2430   -19.2340     2.8600 
  204.7500   407.3880    26.6820     4.1300     4.7810     3.2460   -19.8580     2.8070 
  204.8750   408.1920    26.2240     4.2340     4.9110     3.0460   -20.4650     2.8560 
  205.0000   407.3720    25.9670     4.3160     4.7820     3.1160   -21.1110     2.9560 
  205.1250   405.6850    25.8950     4.3650     4.7820     3.2490   -21.5660     2.9540 
  205.2500   403.9040    25.8940     4.4010     4.7820     3.2500   -22.0470     2.9770 
  205.3750   402.7300    25.8940     4.4840     4.7830     3.2510   -22.4660     3.0000 
  205.5000   400.8130    25.9020     4.5400     4.8270     3.2520   -23.0830     3.0490 
  205.6250   399.2140    25.9790     4.5770     4.9850     3.2530   -23.6710     3.2260 
  205.7500   397.1220    25.9920     4.6320     4.9850     3.0530   -24.1790     3.3010 
  205.8750   395.1710    25.9920     4.6840     5.0680     3.0540   -24.5880     3.2730 
  206.0000   393.2130    26.0120     4.7560     5.0520     3.1070   -24.7380     3.2450 
  206.1250   389.9480    26.2810     4.8060     5.2870     3.4090   -24.3650     3.2430 
  206.2500   387.4860    26.3910     4.9380     5.5510     3.8290   -23.3630     3.4450 
  206.3750   380.4010    26.3900     5.0980     6.3440     4.5160   -22.4350     3.7500 
  206.5000   375.1940    26.2640     5.1940     7.5580     5.3720   -21.8080     4.5410 
  206.6250   370.4510    26.1700     5.2530     8.2130     6.2550   -21.4980     5.4090 
  206.7500   366.9140    26.2370     5.3940     7.5880     6.6850   -20.9560     7.7600 
  206.8750   367.9590    26.5480     5.5000     6.8830     6.0620   -20.4880     7.0670 
  207.0000   370.7860    26.8580     5.5850     6.2910     5.5850   -19.9750     6.0670 
  207.1250   373.3340    27.3070     5.5130     5.7120     5.1680   -19.5630     4.5290 
  207.2500   376.8800    27.6770     5.3840     5.4400     4.4980   -19.3510     3.4270 
  207.3750   380.0940    27.8880     5.2480     5.2560     3.7600   -19.1390     3.1430 
  207.5000   382.1990    28.3970     5.0710     5.5720     3.6710   -19.0470     3.2690 
  207.6250   382.0750    28.7260     4.9450     5.7860     3.6720   -18.9310     3.3690 
  207.7500   380.0230    27.9800     4.7450     5.7980     3.9660   -18.7020     3.4690 
  207.8750   377.9310    27.5350     4.6720     5.7980     4.0820   -18.4950     3.8760 
  208.0000   375.9210    27.5450     4.6500     6.0100     3.9340   -18.4480     4.2330 
  208.1250   374.3510    27.9840     4.6280     6.1360     4.0790   -18.2660     4.6910 
  208.2500   374.8800    27.5520     4.5960     6.1540     3.9420   -18.3400     5.3280 
  208.3750   377.3700    27.0840     4.5630     5.9410     3.8800   -18.4460     5.8120 
  208.5000   381.1100    26.4670     4.5230     5.7280     3.7190   -18.5750     4.9140 
  208.6250   384.1880    26.0520     4.4660     5.2330     3.5350   -18.7710     3.6580 
  208.7500   387.2910    25.5780     4.4110     4.8080     3.2950   -19.0930     2.9650 
  208.8750   388.8300    25.4770     4.3480     4.7930     2.6860   -19.4740     2.9880 
  209.0000   386.6960    25.4770     4.3660     4.9950     2.6770   -19.6990     3.2680 
  209.1250   383.2910    25.6530     4.4090     5.3260     2.8790   -19.9960     3.5720 
  209.2500   380.2550    25.9630     4.5150     5.3990     3.0820   -20.2180     3.8510 
  209.3750   380.0780    26.1760     4.6100     5.5690     3.2450   -20.3380     4.2070 
  209.5000   380.9690    26.8820     4.7080     5.7120     3.1820   -20.4370     4.2050 
  209.6250   383.0740    27.5910     4.8010     5.5250     3.1960   -20.4370     4.0240 
  209.7500   385.6170    27.4490     4.8440     5.1490     3.2870   -20.4780     3.6120 
  209.8750   388.2820    26.9330     4.8900     4.7320     3.0870   -20.4360     3.2520 
  210.0000   391.0410    27.0270     4.8910     4.4480     2.8860   -20.5720     2.9420 
  210.1250   393.0330    27.3990     4.8680     4.1910     2.7740   -20.6940     2.7870 
  210.2500   391.4440    27.7010     4.8350     4.3930     2.4860   -20.9140     2.9380 
  210.3750   389.3100    27.3870     4.7620     4.8420     2.4870   -21.1680     3.2170 
  210.5000   387.0920    26.9210     4.6990     5.1040     2.4880   -21.3770     3.5220 
  210.6250   385.0290    26.5570     4.6980     5.4290     2.4890   -21.5330     3.7240 
  210.7500   382.9110    26.2560     4.7540     5.7270     2.4900   -21.8050     3.7990 
  210.8750   380.8460    26.1290     4.8390     5.8070     2.8760   -22.0520     3.9250 
