~V
VERS. 2.00: Ver 2.00
~W
STRT.M 76.0000:
STOP.M 232.0000:
STEP.M 0.1250:
NULL. -999.2500:
UWI. жи29:
~C
DEPT.M :
AC.US/MT :
CALI.CM :
GR.API :
RML.OHMM :
RI. :
SP.MV :
RXO.OHMM :
~A
# ...
  154.7500   398.8230    25.6340     6.4960    49.8400    36.0490   -17.8360    40.2880 
  154.8750   397.5660    25.7220     6.4970    50.0640    36.8830   -18.0000    42.6420 
  155.0000   394.4570    25.7210     6.5280    48.9190    36.3970   -18.1880    42.8440 
  155.1250   392.6090    25.7210     6.5600    46.4200    35.8580   -18.3490    38.1290 
  155.2500   390.1820    25.6200     6.5760    43.9580    35.3440   -18.4780    39.4840 
  155.3750   388.5870    25.5200     6.6050    33.7090    30.4680   -18.5680    38.2780 
  155.5000   388.2380    25.4180     6.6170    28.9020    24.5820   -18.7190    29.2590 
  155.6250   391.3410    25.4170     6.6570    28.4780    23.1910   -18.8960    29.0540 
  155.7500   394.4440    25.3490     6.7200    28.4510    22.4260   -19.0020    20.7240 
  155.8750   389.5350    25.3150     6.7900    28.6140    23.0080   -19.1570    22.2840 
  156.0000   384.0950    25.2960     6.8870    28.4110    24.0430   -19.2330    22.5640 
  156.1250   378.2370    25.2140     6.9700    27.7360    24.1570   -19.3030    22.3560 
  156.2500   372.6550    25.2130     7.0540    25.8380    24.3680   -19.3740    21.4060 
  156.3750   364.7660    25.2130     7.1370    25.3930    23.4580   -19.5040    20.7380 
  156.5000   357.0300    25.2120     7.1820    28.6120    23.0420   -19.5860    22.1960 
  156.6250   347.9570    25.2110     7.2680    33.4920    25.0190   -19.5150    24.4480 
  156.7500   340.3540    25.3110     7.3950    42.1400    31.8720   -19.4140    27.1090 
  156.8750   334.7830    25.3310     7.5610    44.3190    35.4600   -19.3010    30.3090 
  157.0000   325.1490    25.4860     7.7280    98.9500    40.2010   -19.1870    38.0170 
  157.1250   309.3980    25.5110     7.8970   105.3700    43.9300   -18.9350    38.6310 
  157.2500   305.3680    25.5100     8.0610   103.9370    58.0380   -18.6770    90.7020 
  157.3750   303.3580    25.6030     8.1900    92.1450    67.5850   -18.5960    94.1320 
  157.5000   306.0690    25.6090     8.3130    67.2650    57.7630   -18.3300    89.9030 
  157.6250   320.1740    25.7090     8.3930    25.3970    26.5370   -18.0150    78.1690 
  157.7500   328.3760    25.5680     8.4860    21.4710    15.9330   -17.8950    73.9940 
  157.8750   339.7280    25.4630     8.5410    18.0400    14.6350   -17.5860    29.8830 
  158.0000   363.9870    25.3330     8.6190    17.6790    12.8960   -17.4730    18.7360 
  158.1250   399.5300    25.2860     8.7850     8.7620    10.7700   -17.1870    11.7660 
  158.2500   416.0960    25.2040     8.9520     4.9410     6.9050   -16.9850     6.0010 
  158.3750   431.8960    25.2040     9.2140     4.5800     4.5660   -16.7840     3.5910 
  158.5000   436.7860    25.3000     9.3020     5.3320     3.5360   -16.7500     2.0770 
  158.6250   429.7170    25.4400     9.4110     6.2410     3.2740   -16.6830     3.1250 
  158.7500   422.9480    25.6190     9.4970     7.0670     3.6640   -16.6820     3.6100 
  158.8750   416.6360    25.9180     9.5840     7.0680     4.0940   -16.8830     3.9150 
  159.0000   414.4600    26.1050     9.7030     7.0680     4.4880   -17.2500     4.1690 
  159.1250   412.3670    26.1870     9.7310     7.2700     4.6900   -17.4370     4.2430 
  159.2500   410.2250    26.3250     9.6230     7.3070     4.6910   -17.6170     3.9850 
  159.3750   408.5100    26.4050     9.4930     7.5170     4.6920   -17.9980     3.7260 
  159.5000   406.4150    26.3630     9.3210     7.6740     4.6930   -18.3390     3.5710 
  159.6250   404.5740    26.2030     9.1460     7.6740     4.8800   -18.7300     3.4660 
  159.7500   403.0020    26.0470     8.7770     7.8760     4.9860   -19.0610     3.4120 
  159.8750   401.4300    25.9270     8.6130     8.0780     5.1510   -19.2720     3.4610 
  160.0000   399.7100    25.8110     8.4070     8.0780     5.3150   -19.5830     3.4850 
  160.1250   396.2880    25.6250     8.2180     7.8770     5.5060   -19.9270     3.5340 
  160.2500   394.7070    25.5110     7.8460     7.9280     5.7090   -20.3050     3.8390 
  160.3750   390.9930    25.4530     7.6330     8.1880     5.9110   -20.8250     4.7840 
  160.5000   387.8510    25.3540     7.4620     8.4310     6.2350   -21.3270     5.9340 
  160.6250   385.4780    25.2470     7.2490     8.8020     6.5670   -21.6750     7.9050 
  160.7500   382.5730    25.1930     7.0490     9.2900     7.4670   -22.1640    13.4350 
  160.8750   380.3280    25.1190     6.8240    10.7940     9.3390   -22.5040    19.5540 
  161.0000   378.2990    25.0910     6.7090    13.6590    13.4120   -22.8700    24.9300 
  161.1250   378.2030    25.0090     6.6220    31.5940    17.5850   -23.1810    35.0450 
  161.2500   379.1960    24.9900     6.5830    39.6420    21.4400   -23.3990    36.7350 
  161.3750   378.5540    24.9890     6.5260    43.2230    31.4920   -23.5060    40.3170 
  161.5000   377.1770    24.8950     6.4570    45.2720    36.1580   -23.5060    37.4970 
  161.6250   377.1690    24.8880     6.3820    45.7280    35.7910   -23.5060    36.2140 
  161.7500   376.1600    24.8870     6.3420    43.6300    35.8030   -23.5050    35.5970 
  161.8750   374.7730    24.8900     6.3420    42.1600    36.7580   -23.5050    36.9780 
  162.0000   374.1420    24.9680     6.3420    42.5340    40.4460   -23.4260    39.6900 
  162.1250   373.1330    24.9860     6.3430    44.6480    43.2600   -23.4030    46.1680 
  162.2500   371.1220    25.0480     6.3430    49.1730    45.6660   -23.2620    51.6470 
  162.3750   369.9900    25.1260     6.3560    54.1230    47.6090   -23.0700    54.4870 
  162.5000   369.1040    25.1850     6.3830    56.8040    49.0930   -22.9470    52.6150 
  162.6250   370.0970    25.2060     6.4080    57.8410    51.9860   -22.7810    54.9430 
  162.7500   370.0890    25.2830     6.4550    60.9610    54.8670   -22.5970    60.6270 
  162.8750   371.0820    25.3840     6.5440    65.4030    56.5150   -22.4540    68.3340 
  163.0000   372.4900    25.4230     6.6240    69.7330    63.7490   -22.1950    71.6610 
  163.1250   374.0400    25.4840     6.6740    74.8110    65.7950   -21.9400    66.9200 
  163.2500   376.0630    25.4830     6.7600    76.8080    63.3810   -21.6090    61.9490 
  163.3750   377.0560    25.5000     6.8460    71.5610    61.0200   -21.4910    66.3260 
  163.5000   377.4770    25.5820     7.0130    69.5070    59.0310   -21.2820    72.9320 
  163.6250   378.0410    25.5820     7.2880    73.7370    62.3160   -20.9810    78.0770 
  163.7500   378.0330    25.5810     7.6250    76.1510    65.7140   -20.8540    80.9430 
  163.8750   378.0250    25.5810     7.4020    79.1980    61.3600   -20.5620    73.3620 
  164.0000   374.2410    25.5800     7.2920    65.2270    36.2930   -20.3040    57.3270 
  164.1250   370.1440    25.6800     7.1260    35.0510    30.4080   -19.9090    21.2870 
  164.2500   368.9910    25.6790     7.0250    28.7390    24.5230   -19.6370    17.2380 
  164.3750   368.9830    25.7020     6.9450    20.5770    19.8410   -19.2280    17.2360 
  164.5000   369.1070    25.8580     6.9450    16.4920    16.7470   -18.8630    21.8950 
  164.6250   370.7210    25.8790     6.9670    18.6330    16.0330   -18.4470    33.8020 
  164.7500   374.4460    25.7840     6.9860    24.1250    30.6290   -18.0310    41.4310 
  164.8750   377.5490    25.7300     7.0260    34.5800    42.4950   -17.2990    51.0840 
  165.0000   380.6510    25.6760     7.0370    46.9040    44.2820   -16.8960    43.5520 
  165.1250   382.7560    25.5750     7.1200    48.5420    37.6200   -16.5730    36.0460 
  165.2500   381.4740    25.3740     7.2030    44.3460    33.7250   -16.1630    30.8700 
  165.3750   379.5770    25.3010     7.3070    36.7000    31.2010   -15.7500    30.2790 
  165.5000   377.8590    25.2720     7.3930    35.0770    30.4580   -15.4350    28.1770 
  165.6250   376.7590    25.1710     7.4140    33.6170    27.9170   -15.1200    23.3340 
  165.7500   374.6850    25.0800     7.3570    30.9330    25.2920   -14.6780    23.1550 
  165.8750   373.8910    25.0700     7.3470    24.1800    24.1490   -14.4550    17.8740 
