~V
VERS. 2.00: Ver 2.00
~W
STRT.M 76.0000:
STOP.M 232.0000:
STEP.M 0.1250:
NULL. -999.2500:
UWI. жи29:
~C
DEPT.M :
AC.US/MT :
CALI.CM :
GR.API :
RML.OHMM :
RI. :
SP.MV :
RXO.OHMM :
~A
# ...
  109.7500   264.7120    25.0190     5.1910    36.9390    27.6510   -14.7860    30.4920 
  109.8750   269.1480    24.9840     5.2830    35.3080    26.9520   -14.7850    27.6440 
  110.0000   274.3410    25.0180     5.3660    34.9020    27.3060   -14.7850    28.6670 
  110.1250   279.4190    25.0170     5.4090    34.6880    27.8390   -14.6950    29.2550 
  110.2500   281.7460    25.0170     5.4250    34.5010    27.2850   -14.4910    28.0470 
  110.3750   282.9600    25.0160     5.4490    33.6130    27.1570   -14.2780    29.3520 
  110.5000   281.0530    25.0150     5.4890    37.5010    29.5820   -14.0750    33.1450 
  110.6250   278.9770    25.0150     5.5230    40.4730    33.3920   -13.9440    36.1430 
  110.7500   277.4040    25.0140     5.5700    43.5600    35.5330   -13.8720    42.1660 
  110.8750   275.8300    25.0140     5.6300    43.0480    32.7140   -13.8720    47.2400 
  111.0000   275.2410    25.0130     5.7360    40.7040    31.6120   -13.8720    49.9040 
  111.1250   275.1530    25.0130     5.8230    39.5350    33.6160   -13.8710    34.9280 
  111.2500   273.0130    24.9550     5.9200    42.7480    35.7270   -13.8710    32.6180 
  111.3750   271.0420    25.0110     5.9320    44.3510    37.2620   -13.8710    34.1800 
  111.5000   269.7400    25.0110     5.8920    45.8170    36.4750   -13.8700    34.2030 
  111.6250   268.3970    25.0100     5.8000    45.5570    39.1360   -13.8700    34.8930 
  111.7500   267.1780    25.0100     5.7720    50.9100    41.2530   -13.8870    38.0450 
  111.8750   268.9920    25.0090     5.8080    53.0930    40.9520   -13.9710    40.9390 
  112.0000   271.6330    25.0760     5.8120    47.4650    38.1870   -14.0570    36.9630 
  112.1250   274.1990    25.1800     5.8120    46.1470    36.4750   -14.1620    32.3970 
  112.2500   276.3040    25.2090     5.7720    46.1850    38.1670   -14.2430    33.3170 
  112.3750   278.7850    25.2870     5.7350    49.7830    39.8210   -14.2730    35.3660 
  112.5000   279.7460    25.3090     5.6920    53.0110    40.9300   -14.2730    39.0300 
  112.6250   280.6250    25.3080     5.6920    51.4020    34.4260   -14.2730    50.1300 
  112.7500   281.7330    25.3620     5.7180    42.4340    31.7730   -14.3140    46.0770 
  112.8750   282.1370    25.4280     5.7730    38.0580    30.2550   -14.3740    39.0490 
  113.0000   283.1310    25.5060     5.7710    36.9250    31.9770   -14.3730    28.2520 
  113.1250   284.1250    25.5080     5.6980    39.2240    33.3470   -14.4740    35.0960 
  113.2500   285.1190    25.5070     5.6550    41.8890    33.4480   -14.5090    39.5550 
  113.3750   285.6530    25.5060     5.5850    42.8700    32.6940   -14.5750    40.3980 
  113.5000   287.1760    25.4050     5.5160    42.1330    32.1590   -14.5750    31.9100 
  113.6250   287.9480    25.2780     5.4520    41.4230    31.7040   -14.5740    31.0610 
  113.7500   290.6960    25.1700     5.4120    40.2970    31.3210   -14.5740    30.4180 
  113.8750   291.9360    25.1010     5.4130    40.0350    31.0250   -14.6380    28.1080 
  114.0000   292.9940    25.1010     5.4130    40.5510    31.0260   -14.6750    29.1310 
  114.1250   296.4540    25.2000     5.4320    41.9060    31.1100   -14.6740    30.6420 
  114.2500   298.5490    25.2430     5.4930    43.2920    31.9450   -14.7550    32.7670 
  114.3750   300.0760    25.3000     5.4930    44.4690    33.1870   -14.8470    36.5850 
  114.5000   302.0720    25.3000     5.5020    44.3520    31.7290   -14.8760    38.2240 
  114.6250   301.0630    25.2990     5.5660    42.5140    29.0370   -14.8760    29.9140 
  114.7500   298.8470    25.3390     5.6140    34.0560    27.2090   -14.7740    25.7330 
  114.8750   295.4960    25.3990     5.6540    34.3030    25.9850   -14.7690    27.9610 
  115.0000   291.5070    25.4510     5.6950    36.2160    29.2960   -14.6900    32.1120 
  115.1250   288.1980    25.5400     5.6710    38.6420    29.5510   -14.6720    40.7500 
  115.2500   283.9910    25.6510     5.5870    40.1850    29.2140   -14.6720    34.6200 
  115.3750   281.9060    25.6990     5.5240    40.0210    30.8110   -14.6050    30.7470 
  115.5000   281.3570    25.6980     5.4680    43.5610    35.1310   -14.5440    34.4620 
  115.6250   284.2660    25.7780     5.3980    49.8770    37.6490   -14.4690    42.7150 
  115.7500   289.7570    25.8230     5.3350    51.8560    36.0960   -14.4340    46.8150 
  115.8750   293.4640    25.8290     5.3340    46.6660    31.7990   -14.3670    32.4550 
  116.0000   296.3670    25.8980     5.2940    38.8550    29.9040   -14.2650    34.0940 
  116.1250   298.6720    25.8970     5.4320    32.9980    27.1500   -14.2650    33.5270 
  116.2500   296.1120    25.8970     5.5590    31.1450    25.4460   -14.1640    24.9110 
  116.3750   290.7160    25.8960     5.8160    29.8920    24.8610   -14.1090    25.3700 
  116.5000   284.5350    25.8950     5.7000    30.8990    25.7250   -14.0620    25.8800 
  116.6250   280.3890    25.8950     5.7790    30.2600    25.3990   -14.0620    24.0060 
  116.7500   278.4960    25.8940     5.5680    29.6920    24.2980   -13.9600    23.0550 
  116.8750   276.1950    25.8940     5.4410    30.3450    24.3520   -13.9600    25.0530 
  117.0000   273.2110    25.8700     5.4160    33.2460    28.8830   -13.9600    27.7940 
  117.1250   271.0720    25.7720     5.5230    39.7780    31.0260   -13.9590    30.1760 
  117.2500   269.8720    25.6920     5.6420    36.7770    28.4270   -13.9590    27.5070 
  117.3750   266.8250    25.5880     5.6960    34.9300    27.3250   -13.9010    30.5560 
  117.5000   263.6470    25.5250     5.6920    38.1570    28.6750   -13.8570    34.0140 
  117.6250   261.0920    25.4870     5.6570    40.9270    30.7840   -13.8300    34.1660 
  117.7500   269.3690    25.4660     5.6520    40.8640    29.8420   -13.7560    32.2410 
  117.8750   275.4780    25.3320     5.6170    38.4120    28.6250   -13.7550    32.1870 
  118.0000   279.8980    25.3510     5.6170    37.2140    28.4230   -13.7550    26.7240 
  118.1250   283.1430    25.2950     5.5770    31.7850    27.1230   -13.7410    24.0560 
  118.2500   285.5820    25.2830     5.6180    29.8220    24.7460   -13.6540    22.5150 
  118.3750   288.6850    25.3830     5.6180    28.2770    21.7310   -13.6270    20.5390 
  118.5000   290.7940    25.3830     5.6180    26.3270    19.9340   -13.5520    19.0500 
  118.6250   283.4920    25.3900     5.6580    25.4710    20.5060   -13.5520    22.6620 
  118.7500   280.4900    25.4820     5.6980    27.3940    21.8080   -13.5510    26.5820 
  118.8750   278.0500    25.4820     5.7750    33.2130    23.7640   -13.5510    27.7080 
  119.0000   277.7430    25.4810     5.8580    33.0260    25.3790   -13.5510    25.7570 
  119.1250   278.0550    25.4810     5.8990    30.2000    22.9770   -13.4490    23.9860 
  119.2500   279.3140    25.3850     5.9110    29.1150    21.9610   -13.4490    24.9070 
  119.3750   279.9400    25.2780     5.9590    29.0410    22.1650   -13.3480    24.9810 
  119.5000   280.7130    25.2770     6.0200    28.4350    21.9630   -13.2460    22.7230 
  119.6250   281.4850    25.2770     6.0310    27.1230    20.8730   -13.2460    17.9780 
  119.7500   281.7030    25.2760     5.9450    25.2950    20.1270   -13.1450    18.0290 
  119.8750   280.6930    25.2760     5.9000    24.0430    19.3450   -13.0460    16.0770 
  120.0000   277.7010    25.2750     5.9850    22.9720    18.4000   -13.0430    15.1260 
  120.1250   275.6040    25.2750     6.0610    21.0050    17.6340   -12.9420    14.6360 
  120.2500   273.5070    25.3040     6.1010    21.4530    16.9140   -12.9420    16.1720 
  120.3750   271.7200    25.3560     6.1410    22.7570    17.3380   -12.9410    17.9640 
  120.5000   270.1470    25.3740     6.1010    24.2580    18.0950   -12.8630    19.6030 
  120.6250   268.5740    25.3730     6.0620    22.9420    19.0690   -12.8400    19.0620 
  120.7500   267.0010    25.3730     5.9660    22.2130    16.9630   -12.8390    19.9060 
  120.8750   266.0170    25.3720     5.8900    20.9750    16.5810   -12.8390    18.4930 
