~V
VERS. 2.00: Ver 2.00
~W
STRT.M 76.0000:
STOP.M 232.0000:
STEP.M 0.1250:
NULL. -999.2500:
UWI. жи29:
~C
DEPT.M :
AC.US/MT :
CALI.CM :
GR.API :
RML.OHMM :
RI. :
SP.MV :
RXO.OHMM :
~A
   76.0000  -999.2500  -999.2500  -999.2500  -999.2500  -999.2500  -999.2500  -999.2500 
   76.1250  -999.2500  -999.2500  -999.2500  -999.2500  -999.2500  -999.2500  -999.2500 
   76.2500  -999.2500  -999.2500  -999.2500  -999.2500  -999.2500  -999.2500  -999.2500 
   76.3750  -999.2500  -999.2500  -999.2500  -999.2500  -999.2500  -999.2500  -999.2500 
   76.5000  -999.2500  -999.2500  -999.2500  -999.2500  -999.2500  -999.2500  -999.2500 
   76.6250  -999.2500  -999.2500  -999.2500  -999.2500  -999.2500  -999.2500  -999.2500 
   76.7500  -999.2500  -999.2500  -999.2500  -999.2500  -999.2500  -999.2500  -999.2500 
   76.8750  -999.2500  -999.2500  -999.2500  -999.2500  -999.2500  -999.2500  -999.2500 
   77.0000  -999.2500  -999.2500  -999.2500  -999.2500  -999.2500  -999.2500  -999.2500 
   77.1250  -999.2500  -999.2500  -999.2500  -999.2500  -999.2500  -999.2500  -999.2500 
   77.2500  -999.2500  -999.2500  -999.2500  -999.2500  -999.2500  -999.2500  -999.2500 
   77.3750  -999.2500  -999.2500  -999.2500  -999.2500  -999.2500  -999.2500  -999.2500 
   77.5000  -999.2500  -999.2500  -999.2500  -999.2500  -999.2500  -999.2500  -999.2500 
   77.6250  -999.2500  -999.2500  -999.2500  -999.2500  -999.2500  -999.2500  -999.2500 
   77.7500  -999.2500  -999.2500  -999.2500  -999.2500  -999.2500  -999.2500  -999.2500 
   77.8750  -999.2500  -999.2500  -999.2500  -999.2500  -999.2500  -999.2500  -999.2500 
   78.0000  -999.2500  -999.2500  -999.2500  -999.2500  -999.2500  -999.2500  -999.2500 
   78.1250  -999.2500  -999.2500  -999.2500  -999.2500  -999.2500  -999.2500  -999.2500 
   78.2500  -999.2500  -999.2500  -999.2500  -999.2500  -999.2500  -999.2500  -999.2500 
   78.3750  -999.2500  -999.2500  -999.2500  -999.2500  -999.2500  -999.2500  -999.2500 
   78.5000  -999.2500  -999.2500  -999.2500  -999.2500  -999.2500  -999.2500  -999.2500 
   78.6250  -999.2500  -999.2500  -999.2500  -999.2500  -999.2500  -999.2500  -999.2500 
   78.7500  -999.2500  -999.2500  -999.2500  -999.2500  -999.2500  -999.2500  -999.2500 
   78.8750  -999.2500  -999.2500  -999.2500  -999.2500  -999.2500  -999.2500  -999.2500 
   79.0000  -999.2500  -999.2500  -999.2500  -999.2500  -999.2500  -999.2500  -999.2500 
   79.1250  -999.2500  -999.2500  -999.2500  -999.2500  -999.2500  -999.2500  -999.2500 
   79.2500  -999.2500  -999.2500  -999.2500  -999.2500  -999.2500  -999.2500  -999.2500 
   79.3750  -999.2500  -999.2500  -999.2500  -999.2500  -999.2500  -999.2500  -999.2500 
   79.5000  -999.2500  -999.2500  -999.2500  -999.2500  -999.2500  -999.2500  -999.2500 
   79.6250  -999.2500  -999.2500  -999.2500  -999.2500  -999.2500  -999.2500  -999.2500 
   79.7500  -999.2500  -999.2500  -999.2500  -999.2500  -999.2500  -999.2500  -999.2500 
   79.8750   426.3030    26.6670     6.2230     5.8330     5.4700   -33.5370     1.6150 
   80.0000   426.3030    26.6670     6.2230     5.8330     5.4700   -33.5370     1.6150 
   80.1250   434.4710    26.5960     6.1420     6.2510     5.4710   -32.4900     2.1260 
   80.2500   446.6130    26.5650     6.2350     6.4080     5.4720   -30.4720     2.6880 
   80.3750   462.7590    26.4640     6.3220     6.7480     5.4730   -27.0490     3.0710 
   80.5000   474.4100    26.5630     6.4240     6.9070     5.5300   -25.0640     3.7100 
   80.6250   490.9640    26.8530     6.5600     7.0420     5.6780   -22.6950     3.9130 
   80.7500   497.9180    27.4720     6.7430     6.8410     5.6790   -20.8920     3.0130 
   80.8750   500.0360    28.3610     6.9900     6.4390     5.2960   -20.3350     2.5240 
   81.0000   491.6800    29.8840     7.1980     6.4400     5.0730   -19.8730     2.0080 
   81.1250   484.7020    30.7070     7.3650     6.2900     4.8720   -19.3900     1.8520 
   81.2500   463.4460    31.2450     7.6530     6.0380     4.7890   -19.0430     2.3630 
   81.3750   464.5710    29.2350     7.8200     6.0380     4.6710   -18.6470     2.6940 
   81.5000   468.1970    27.9690     8.0610     6.0390     4.5230   -18.4300     2.1790 
   81.6250   471.3850    26.3340     8.2550     5.9260     4.6730   -17.8030     1.8430 
   81.7500   468.3420    25.9150     8.4820     5.8380     4.4710   -17.4820     1.8150 
   81.8750   466.0910    25.8500     8.8100     5.7100     4.4720   -17.0880     1.8380 
   82.0000   463.7370    25.9030     9.0470     5.6380     4.4740   -16.7100     1.8360 
   82.1250   463.5190    25.9500     9.0800     5.6380     4.2720   -16.3160     1.7570 
   82.2500   465.7210    25.8570     9.0090     5.6110     4.2730   -15.7010     1.7290 
   82.3750   468.4270    25.8450     8.8820     5.5150     4.1580   -14.8620     1.7270 
   82.5000   469.5090    25.8540     8.7150     5.8410     4.0010   -14.2280     1.9040 
   82.6250   469.5000    26.0940     8.5570     6.0420     3.8710   -13.9080     2.2350 
   82.7500   469.4920    26.3360     8.5170     5.9250     3.7620   -13.1330     2.3870 
   82.8750   467.7840    26.5720     8.5170     5.6550     3.6700   -12.6930     2.4880 
   83.0000   465.4660    26.7540     8.4770     5.6410     3.7300   -12.3600     2.5110 
   83.1250   464.6330    26.8540     8.4600     5.6410     3.9750   -11.7610     2.3800 
   83.2500   464.0630    26.5770     8.4100     5.6420     4.3630   -11.0700     2.3010 
   83.3750   463.4360    26.3610     8.3540     5.9100     4.7340   -10.2440     2.2480 
   83.5000   463.0910    26.1460     8.3170     6.6410     5.3680    -9.5730     2.4250 
   83.6250   462.4170    26.5590     8.3170     7.4370     6.5090    -8.4770     2.9870 
   83.7500   461.9910    26.9120     8.3170     8.8930     7.9080    -7.2480     4.0110 
   83.8750   460.0150    27.7870     8.2860    10.2400     8.7910    -6.0940     5.4710 
   84.0000   456.6060    28.1690     8.2370    11.3210     7.9610    -5.2350     9.1120 
   84.1250   452.1520    28.5130     7.9930    10.0080     7.1330    -4.5450    11.1880 
   84.2500   448.5500    28.6670     7.6250     6.9780     6.1120    -3.9240     8.4920 
   84.3750   445.4000    28.6660     7.2360     5.9920     5.7080    -3.4820     4.5640 
   84.5000   445.4300    27.8860     6.9290     6.3290     6.1760    -2.9570     2.9970 
   84.6250   452.2080    27.1500     6.7220     7.6800     7.9740    -2.5830     4.4840 
   84.7500   458.5500    27.5710     6.6690     9.1530     9.6380    -2.2160     7.6870 
   84.8750   461.9720    28.3180     6.6700    12.6460    14.0330    -2.0330    10.1480 
   85.0000   466.9570    29.9440     6.6700    15.3790    16.0260    -1.8300    13.3270 
   85.1250   469.5950    30.8140     6.4970    19.0020    16.7570    -1.7080    16.0440 
   85.2500   470.3290    31.5280     6.2490    21.0500    17.2770    -1.5530    18.7610 
   85.3750   471.1970    31.6910     6.0670    21.5400    17.6380    -1.5330    18.6300 
   85.5000   471.0240    31.6280     5.9560    21.7420    17.8700    -1.4230    18.9100 
   85.6250   470.1050    31.1320     5.9060    21.6520    17.8710    -1.4230    20.0370 
   85.7500   469.4710    30.8010     5.9070    21.2400    17.6040    -1.4230    18.7010 
   85.8750   469.2070    30.2670     5.9510    20.8270    17.2900    -1.4230    17.3130 
   86.0000   468.2740    29.7510     6.0430    20.5220    16.7740    -1.4230    15.0530 
   86.1250   469.2680    29.1640     6.2500    20.3350    16.6590    -1.4230    14.7690 
   86.2500   469.2600    28.3050     6.3770    20.3360    16.4390    -1.4230    15.6900 
   86.3750   469.2520    28.1140     6.4670    20.3360    16.0540    -1.3830    15.9440 
   86.5000   469.9510    27.9370     6.5900    20.1350    15.6170    -1.3210    15.0700 
   86.6250   470.2370    27.4550     6.6710    19.7790    15.3030    -1.3210    14.6060 
   86.7500   470.2290    27.0370     6.6190    19.6070    14.7320    -1.3210    14.5780 
   86.8750   469.2190    26.8990     6.4920    19.3330    14.3490    -1.3210    14.7300 
   87.0000   468.7750    26.8500     6.4710    18.8990    13.9560    -1.3210    14.8040 
   87.1250   467.1970    27.0380     6.5420    17.2520    13.6540    -1.2200    13.8010 
