~V
VERS. 2.00: Ver 2.00
~W
STRT.M 76.0000:
STOP.M 232.0000:
STEP.M 0.1250:
NULL. -999.2500:
UWI. жи29:
~C
DEPT.M :
AC.US/MT :
CALI.CM :
GR.API :
RML.OHMM :
RI. :
SP.MV :
RXO.OHMM :
~A
# ...
  166.0000   374.4390    25.0010     7.3070    15.3350    22.5150   -14.2690    14.9780 
  166.1250   375.7670    24.9680     7.2840    15.1860    19.4680   -14.1080    14.2070 
  166.2500   378.5390    24.8910     7.2460    16.7420    16.2280   -13.9500    17.5090 
  166.3750   380.8660    24.8660     7.2180    18.5770    14.9580   -13.8520    18.3520 
  166.5000   387.2490    24.8660     7.2030    19.9780    12.7840   -13.9150    20.4490 
  166.6250   396.1400    25.0470     7.2060    20.7490     8.1620   -14.0310    11.4070 
  166.7500   402.9750    25.1240     7.2420    18.1900     6.6750   -14.2880     4.5410 
  166.8750   410.6020    25.2510     7.3420    11.5630     5.2150   -14.5210     1.3630 
  167.0000   414.3340    25.5620     7.4280     5.3710     4.2140   -14.8210     1.7450 
  167.1250   415.4590    25.7200     7.5150     4.2990     3.3860   -15.0550     1.9730 
  167.2500   413.1250    26.0840     7.5880     4.1730     2.6180   -15.3430     1.8690 
  167.3750   408.1230    26.5950     7.6780     4.0700     2.2680   -15.7520     1.5850 
  167.5000   400.8220    27.2050     7.7490     4.1120     2.0220   -16.0650     1.3270 
  167.6250   393.9490    27.7160     7.7090     4.6080     2.3630   -16.2940     1.8880 
  167.7500   388.5070    27.5710     7.5520     5.0060     2.7250   -16.6730     2.6020 
  167.8750   381.8780    27.3310     7.2650     5.7440     3.3960   -16.7590     3.0360 
  168.0000   377.2030    26.9850     6.9300     6.2330     4.2190   -16.8590     3.5200 
  168.1250   375.0670    26.7690     6.8010     6.6910     4.5350   -16.8270     4.1830 
  168.2500   374.7380    26.4460     6.6470     7.2960     4.8890   -16.2800     4.9240 
  168.3750   374.6890    25.9380     6.4810     8.1190     5.3000   -15.7630     6.1250 
  168.5000   379.7650    25.6230     6.3890     8.5060     5.6840   -15.3480     6.7380 
  168.6250   385.4020    25.3920     6.3490     8.8470     5.9330   -14.9320     6.2740 
  168.7500   395.1310    25.2200     6.2510     9.2130     5.5080   -14.5170     4.9400 
  168.8750   404.1750    25.1560     6.1830     8.9880     5.0830   -14.1020     3.0430 
  169.0000   411.4910    25.1560     6.0800     8.1820     4.4560   -13.9460     1.6070 
  169.1250   418.9140    25.2560     5.9320     7.2530     3.8300   -13.5970     1.6300 
  169.2500   423.1410    25.2550     5.7580     6.1320     3.3820   -13.3600     1.5260 
  169.3750   421.3590    25.3970     5.6320     5.2860     3.0690   -13.0450     1.4980 
  169.5000   419.7870    25.6870     5.5090     5.0730     2.9590   -12.8420     1.5720 
  169.6250   416.7320    25.8840     5.4200     4.8820     3.1610   -12.8410     1.6470 
  169.7500   416.7580    26.0830     5.3490     5.0840     3.2120   -12.7410     1.6450 
  169.8750   419.9520    26.1560     5.2990     5.1150     3.5240   -12.6400     1.6680 
  170.0000   424.5330    26.1550     5.2420     5.2860     3.7700   -12.5400     1.6140 
  170.1250   429.0580    26.1550     5.2700     5.1470     3.6490   -12.4390     1.4070 
  170.2500   432.1610    26.1540     5.2700     4.7030     2.9940   -12.4110     1.1230 
  170.3750   434.2660    26.2650     5.3100     4.3940     2.8540   -12.3380     0.9420 
  170.5000   435.6510    26.4760     5.3100     3.9760     2.5250   -12.4380     0.8630 
  170.6250   434.6420    26.7870     5.3100     3.8690     2.4010   -12.4470     0.8090 
  170.7500   434.6330    27.2390     5.2950     3.6760     2.3730   -12.5380     0.8580 
  170.8750   435.6260    27.8080     5.2710     3.9150     2.5310   -12.5380     0.9840 
  171.0000   435.6180    28.3190     5.2320     4.1130     2.5680   -12.5380     1.1100 
  171.1250   435.6100    28.8290     5.1700     4.3230     2.5690   -12.4500     1.1330 
  171.2500   435.8180    28.5770     5.1460     4.4840     2.5700   -12.3610     0.9520 
  171.3750   436.5940    28.2610     5.1510     4.6710     2.4940   -12.3360     1.0780 
  171.5000   436.5860    28.1600     5.2130     4.4850     2.5600   -12.3360     1.2290 
  171.6250   436.5780    28.4340     5.3910     4.2830     2.5730   -12.3360     0.8430 
  171.7500   437.5220    28.7090     5.4660     4.2840     2.3720   -12.3360     0.7890 
  171.8750   436.5610    29.0960     5.5920     4.2840     2.5750   -12.3350     0.7870 
  172.0000   436.5530    29.4810     5.5920     4.2850     2.6850   -12.3350     0.8610 
  172.1250   434.2730    30.1170     5.5920     4.3400     2.9380   -12.3350     1.0130 
  172.2500   430.1280    31.2270     5.5920     4.4870     2.9810   -12.3350     1.4460 
  172.3750   429.5220    31.8940     5.5920     5.0520     2.9820   -12.3340     2.1090 
  172.5000   430.1540    31.7650     5.5210     5.4810     3.3080   -12.4800     2.6190 
  172.6250   433.6290    31.2640     5.4340     5.7080     3.3880   -12.6020     2.9760 
  172.7500   439.1990    30.6390     5.3890     5.7140     3.3890   -12.6410     2.2050 
  172.8750   442.9770    30.1290     5.3430     5.4390     2.9070   -12.7760     1.2040 
  173.0000   444.8710    29.1630     5.4480     4.7380     2.7860   -12.8520     0.8180 
  173.1250   447.1200    27.6550     5.5560     3.9890     2.7160   -13.0080     0.9690 
  173.2500   449.1260    26.5610     5.5930     3.5240     2.5860   -13.1640     1.2490 
  173.3750   450.2760    26.7340     5.6180     3.4820     2.5040   -13.3710     1.4510 
  173.5000   451.7260    27.5440     5.6870     3.4830     2.3860   -13.6210     1.5260 
  173.6250   450.1790    27.8550     5.7140     3.4830     2.3870   -13.8250     1.5240 
  173.7500   446.9080    27.8220     5.7140     3.6850     2.5220   -14.0360     1.3940 
  173.8750   444.5410    27.4060     5.6950     3.2710     2.5910   -14.2360     1.3910 
  174.0000   440.3670    27.0910     5.5690     3.0530     2.5100   -14.3360     1.7990 
  174.1250   436.0890    26.9780     5.4990     2.8800     2.3910   -14.2690     2.5900 
  174.2500   433.4020    26.9390     5.4370     2.8800     2.3920   -14.2130     2.6390 
  174.3750   433.3940    26.9380     5.6380     2.8810     2.4730   -14.0780     2.0730 
  174.5000   432.8760    26.8370     5.8840     2.8810     2.5960   -14.0000     1.7900 
  174.6250   432.3770    26.4290     6.0780     2.8810     2.5970   -13.9070     1.5570 
  174.7500   433.2520    26.1340     6.2570     2.8820     2.5980   -13.7870     1.3750 
  174.8750   432.4740    26.0700     6.4630     2.6800     2.5990   -13.7390     1.2960 
  175.0000   431.3470    26.1330     6.5890     2.6810     2.5890   -14.0490     1.3710 
  175.1250   430.2100    26.4510     6.7960     2.6810     2.4000   -14.2970     1.3690 
  175.2500   428.1610    27.1350     6.9160     2.7040     2.4010   -14.5520     1.2640 
  175.3750   426.3220    27.7130     7.0020     2.8610     2.3250   -14.8810     1.2110 
  175.5000   423.8030    28.0230     7.0760     3.0640     2.2010   -15.2910     1.2080 
  175.6250   420.6630    27.8360     7.1680     2.8840     2.2020   -15.9330     1.1040 
  175.7500   414.9600    27.6340     7.2320     2.8840     2.2030   -16.4110     1.2040 
  175.8750   412.0720    27.4080     7.2760     2.8850     2.2040   -17.2610     1.3550 
  176.0000   406.2220    27.1310     7.1530     2.8850     2.2050   -17.8300     1.5320 
  176.1250   400.8930    26.7290     6.9280     2.9130     2.1620   -18.2400     1.4790 
  176.2500   395.9530    26.6290     6.6850     3.3690     2.0060   -18.7050     1.4250 
  176.3750   386.7590    26.6280     6.4150     3.9050     2.0370   -19.0510     1.5770 
  176.5000   381.0070    26.8720     6.2630     5.3450     2.2090   -19.1410     2.5220 
  176.6250   375.2110    26.9280     6.1970     6.4430     2.2950   -19.2410     4.1330 
  176.7500   370.4370    26.8220     6.1170     7.5120     2.5760   -19.1400     5.8200 
  176.8750   366.1540    26.6140     6.0240     8.7780     3.3150   -18.8730     8.3780 
  177.0000   356.1570    26.4060     5.8250     9.4890     5.4680   -18.5990    10.8850 
  177.1250   354.8660    26.2740     5.6590     7.9740     7.0950   -18.2510    13.1870 
