~V
VERS. 2.00: Ver 2.00
~W
STRT.M 76.0000:
STOP.M 232.0000:
STEP.M 0.1250:
NULL. -999.2500:
UWI. жи29:
~C
DEPT.M :
AC.US/MT :
CALI.CM :
GR.API :
RML.OHMM :
RI. :
SP.MV :
RXO.OHMM :
~A
# ...
  211.0000   378.6450    26.0680     4.9070     6.2100     3.1600   -22.3970     3.9730 
  211.1250   376.2370    26.1680     5.0100     5.7730     3.3050   -22.6710     3.9970 
  211.2500   374.9560    26.5870     5.0520     5.3000     3.2990   -22.9800     3.9690 
  211.3750   374.9470    27.2680     5.1100     4.9230     3.3000   -23.2890     3.9670 
  211.5000   374.9390    26.9720     5.1100     4.4980     3.1840   -23.5200     4.0420 
  211.6250   374.9310    26.4570     5.1100     4.3970     3.4730   -23.8440     4.1410 
  211.7500   373.2380    26.0420     5.1300     4.9500     3.6160   -24.2160     4.2920 
  211.8750   370.1270    26.3980     5.1470     5.4940     3.7070   -24.6250     4.5970 
  212.0000   366.5960    26.6640     5.1870     5.8080     3.9090   -24.8270     5.4650 
  212.1250   362.4570    26.7640     5.2490     6.1540     4.3150   -25.0280     6.5880 
  212.2500   359.8870    26.8640     5.3130     6.3950     4.6290   -24.6240     8.0190 
  212.3750   361.2380    27.1400     5.3510     6.6540     4.9360   -23.3960     7.7350 
  212.5000   363.7670    27.0740     5.3710     7.0210     5.1960   -22.5450     6.1210 
  212.6250   364.8640    26.7610     5.3710     6.6180     5.3230   -22.0380     5.5820 
  212.7500   365.8780    26.6040     5.3790     6.6190     5.4860   -21.5210     5.9370 
  212.8750   368.9810    26.3600     5.3910     6.4290     5.5270   -20.9510     6.4210 
  213.0000   371.2560    26.2130     5.3530     6.2200     5.3260   -20.4820     6.1120 
  213.1250   372.7400    26.1060     5.2920     6.0040     5.1350   -19.9850     5.3930 
  213.2500   374.7090    25.9580     5.2290     5.5960     4.9110   -19.1160     4.9310 
  213.3750   376.5690    25.9190     5.0420     5.2820     4.2480   -18.6610     4.5700 
  213.5000   379.2050    25.8120     4.9190     5.0230     3.7200   -18.2490     4.1070 
  213.6250   379.8030    25.7560     4.8380     4.8060     3.2770   -18.2320     3.7470 
  213.7500   379.7950    26.0560     4.7650     5.1330     3.1180   -18.1320     4.4870 
  213.8750   379.8120    26.0790     4.7220     5.0090     3.4080   -18.1710     4.8680 
  214.0000   380.7790    26.5210     4.6890     4.6060     3.7240   -18.3170     4.1490 
  214.1250   381.4130    27.2140     4.6830     4.5070     3.3460   -18.4430     3.4820 
  214.2500   381.7630    26.8540     4.6820     4.3970     2.9220   -18.5460     2.8660 
  214.3750   381.7540    26.5690     4.7660     4.4440     2.7210   -18.7530     3.4520 
  214.5000   381.4270    26.2710     4.9480     4.7630     2.9230   -19.0990     4.3450 
  214.6250   379.8570    26.4520     5.2190     4.9540     3.1260   -19.4080     4.2920 
  214.7500   378.7290    26.5040     5.3480     5.1830     3.1270   -19.9160     3.7520 
  214.8750   373.7200    26.5350     5.4750     5.2130     3.2870   -20.1210     3.7240 
  215.0000   372.5740    26.2860     5.5760     5.2130     3.5310   -20.1740     4.2850 
  215.1250   370.4420    25.8350     5.6540     5.4160     3.5320   -20.0920     4.7690 
  215.2500   368.5030    25.5360     5.7670     5.4160     3.7300   -19.8800     5.4060 
  215.3750   367.6870    25.2480     5.8320     5.5870     3.9370   -19.7680     6.1970 
  215.5000   367.6790    25.3470     5.8940     5.2150     4.3580   -19.8200     5.8620 
  215.6250   367.6710    25.4470     5.9370     5.0140     4.5420   -19.8200     5.6040 
  215.7500   367.6630    25.5430     6.0410     4.9640     4.5430   -19.7760     5.2950 
  215.8750   368.3140    25.5040     6.1140     5.2630     4.5440   -19.7190     4.7300 
  216.0000   369.1710    25.6020     6.1460     5.4180     4.3800   -19.7080     4.4220 
  216.1250   370.0430    25.6720     6.1120     5.1310     4.2680   -19.5570     4.7760 
  216.2500   371.0730    25.7340     6.0180     4.4310     3.9560   -19.5770     5.1070 
  216.3750   372.3440    25.8440     5.9130     4.2090     3.6430   -19.6540     4.6700 
  216.5000   374.1710    25.9290     5.8710     4.0430     3.2300   -19.7170     3.7720 
  216.6250   377.2740    26.0370     5.9130     4.8780     2.8950   -19.7170     3.8210 
  216.7500   376.8140    26.1420     5.9280     5.3150     2.7400   -19.9060     4.6370 
  216.8750   372.6760    26.2110     5.9030     5.6220     2.8880   -20.0600     5.3510 
  217.0000   367.5500    26.2320     5.8600     5.6910     3.2610   -20.2650     5.1440 
  217.1250   365.4020    26.1410     5.8170     5.8250     3.6190   -20.4690     5.9860 
  217.2500   362.2670    26.0400     5.8090     6.1200     3.9520   -20.5240     6.9050 
  217.3750   360.1340    26.0390     5.8690     6.0190     3.9530   -20.6110     8.1050 
  217.5000   357.7740    26.0250     5.9400     5.2500     3.7420   -20.6100     8.1050 
  217.6250   357.2070    25.9620     5.9710     4.5670     2.9720   -20.6300     5.4910 
  217.7500   364.3000    25.9380     5.9560     4.2130     2.5190   -20.7090     4.7210 
  217.8750   366.5250    25.9030     5.8620     4.0120     2.3470   -20.8080     3.7730 
  218.0000   363.0110    25.8360     5.8080     4.0120     2.4500   -20.9040     4.2050 
  218.1250   359.9960    25.8360     5.8080     4.1940     2.8790   -20.9420     4.5100 
  218.2500   356.2370    25.8350     5.8220     4.4720     3.1550   -21.0450     4.5590 
  218.3750   352.0990    25.8970     5.8670     4.6820     3.3310   -21.1120     4.5050 
  218.5000   347.7220    25.9340     6.0460     4.9640     3.3610   -21.1890     4.6310 
  218.6250   342.6020    25.9340     6.1530     5.4660     3.9850   -21.3030     5.5240 
  218.7500   338.6820    25.9330     6.2150     6.5720     5.2190   -21.5020     6.5960 
  218.8750   334.5000    25.9570     6.2580     8.6550     6.3240   -21.6010     7.7450 
  219.0000   331.3900    26.0320     6.3200     9.5250     7.4850   -21.6430     9.3290 
  219.1250   327.2720    26.0310     6.4030     9.8640     7.9910   -21.7000    11.6290 
  219.2500   321.7320    26.0310     6.5270    10.2460     8.0480   -21.9020    14.2620 
  219.3750   330.9510    26.0740     6.5690     9.4670     7.6230   -21.9980    15.4110 
  219.5000   335.0870    26.1570     6.6320     7.2310     6.9020   -22.0120    12.9010 
  219.6250   339.0200    26.2290     6.6950     6.7230     5.9650   -22.1170    13.3340 
  219.7500   342.3620    26.2880     6.1450     6.3820     5.2630   -22.1950    10.8250 
  219.8750   347.0480    26.3280     5.9070     6.0340     4.7200   -22.1950     7.3690 
  220.0000   350.3860    26.4610     5.7440     5.8330     4.1750   -22.2700     5.9090 
  220.1250   353.9020    26.5270     5.4230     5.8330     4.3780   -22.3870     5.8550 
  220.2500   356.5290    26.5260     5.2570     5.8340     4.5070   -22.4910     6.2370 
  220.3750   359.6310    26.5260     5.1510     5.8340     4.5810   -22.5910     6.7200 
  220.5000   363.5440    26.5250     5.0040     6.0300     4.8710   -22.6900     5.6180 
  220.6250   369.2690    26.4250     4.9380     6.0360     4.9850   -22.6900     4.6950 
  220.7500   373.9270    26.4240     4.8740     5.8150     4.4730   -22.6890     4.1560 
  220.8750   378.0270    26.4240     4.8030     5.3700     4.0860   -22.6890     3.4630 
  221.0000   380.3240    26.4230     4.7080     5.0680     3.8260   -22.6880     2.7700 
  221.1250   383.2350    26.5600     4.5550     4.8590     3.4530   -22.5880     2.2810 
  221.2500   387.8460    26.6760     4.4510     4.5610     3.2670   -22.5880     2.1770 
  221.3750   391.3680    26.8210     4.3580     4.4250     3.2120   -22.5840     2.4560 
  221.5000   392.5430    26.9610     4.3040     4.4250     3.1280   -22.4880     2.2490 
  221.6250   392.9170    27.2210     4.3670     4.4260     2.8590   -22.4870     2.7330 
  221.7500   393.1050    27.8380     4.3900     4.1500     2.5800   -22.4870     3.2680 
  221.8750   390.8620    29.0150     4.4000     4.0010     2.4370   -22.4370     3.7770 
  222.0000   387.5230    29.8380     4.4140     4.1580     2.1800   -22.4860     3.8770 
  222.1250   384.3880    30.6990     4.4770     4.3910     2.1810   -22.3860     3.7980 
