~V
VERS. 2.00: Ver 2.00
~W
STRT.M 76.0000:
STOP.M 232.0000:
STEP.M 0.1250:
NULL. -999.2500:
UWI. жи29:
~C
DEPT.M :
AC.US/MT :
CALI.CM :
GR.API :
RML.OHMM :
RI. :
SP.MV :
RXO.OHMM :
~A
# ...
  132.2500   345.5860    25.2200     6.3590    12.6280    10.7540   -13.4030    10.2890 
  132.3750   349.6240    25.0690     6.4130    12.9270    11.0700   -13.5500    11.6190 
  132.5000   353.6660    24.8710     6.4740    13.3960    11.2240   -13.7060    12.5140 
  132.6250   357.1970    24.8160     6.6070    13.8120    10.5890   -14.0010    10.7950 
  132.7500   363.7500    24.8150     6.7100    13.5510     9.6090   -14.2200     7.8450 
  132.8750   379.7420    24.8150     6.7760    12.9470     8.3770   -14.4240     7.1770 
  133.0000   397.7430    24.8140     6.8790    12.2080     8.1170   -14.5300     6.9180 
  133.1250   409.1240    25.1120     6.9700    10.9660     7.9220   -14.5300     6.4550 
  133.2500   421.4960    25.3230     7.1160     9.5250     6.4860   -14.5300     5.4020 
  133.3750   426.5550    25.5960     7.2500     8.3430     5.4640   -14.5530     3.4510 
  133.5000   418.7140    25.7460     7.3900     6.6420     4.4330   -14.6050     1.6810 
  133.6250   411.3970    26.1710     7.5550     5.6920     3.6760   -14.6300     2.3710 
  133.7500   411.9620    26.5940     7.6830     4.7560     3.7740   -14.6880     3.1630 
  133.8750   412.5450    26.9030     7.8090     5.4630     4.1640   -14.7300     3.9040 
  134.0000   414.1770    27.2580     7.8390     7.1100     3.9390   -14.8290     2.4150 
  134.1250   416.6460    27.0430     7.7270     6.2110     3.4960   -15.0360     1.4130 
  134.2500   418.1960    26.8280     7.7190     5.5770     3.1820   -15.1330     1.4620 
  134.3750   420.4930    26.6670     7.6810     5.0960     3.0760   -15.2430     1.7420 
  134.5000   421.9940    26.7550     7.6790     4.6550     3.0770   -15.3340     1.5600 
  134.6250   422.9870    27.2220     7.6470     4.5810     3.0780   -15.5860     1.5840 
  134.7500   422.9790    27.1010     7.6790     4.5810     3.0790   -15.8180     1.9920 
  134.8750   420.9670    26.9430     7.6990     4.5820     3.0800   -16.0190     1.9890 
  135.0000   419.9580    26.6740     7.7860     4.7830     3.4500   -16.1670     1.9870 
  135.1250   418.8950    26.4890     7.9930     4.7840     3.6890   -16.2400     2.0360 
  135.2500   418.1050    26.3540     8.1590     4.7840     3.6900   -16.3410     2.1110 
  135.3750   415.6960    26.2090     8.2810     4.9950     4.1460   -16.4560     2.4930 
  135.5000   414.1230    25.9950     8.0600     5.4330     4.3230   -16.7050     2.9010 
  135.6250   410.1810    25.8090     7.8470     5.9060     4.8290   -16.9800     3.3860 
  135.7500   406.0310    25.7370     7.6970     6.4930     5.1830   -17.1280     3.9470 
  135.8750   400.8780    25.6300     7.5820     7.1250     5.6640   -17.2320     4.6620 
  136.0000   394.1400    25.6060     7.5250     7.6810     6.0420   -17.3140     4.9440 
  136.1250   389.5590    25.6050     7.5200     8.3870     6.6000   -17.3470     7.3230 
  136.2500   386.8870    25.4040     7.4800     9.0190     7.3070   -17.3470     6.0900 
  136.3750   385.0470    25.4030     7.4800     9.8530     7.9390   -17.3460     7.0370 
  136.5000   384.8060    25.4020     7.4300    10.6860     8.7820   -17.3460     8.3410 
  136.6250   392.2930    25.3390     7.3340    12.0150     9.6090   -17.3540     9.6710 
  136.7500   400.0990    25.3010     7.2800    12.9610    10.3800   -17.4460    11.1040 
  136.8750   404.6700    25.3000     7.2400    13.9980    11.2780   -17.4460    10.1540 
  137.0000   408.1650    25.3000     7.1960    13.0990    10.6960   -17.4600    11.1250 
  137.1250   407.4900    25.2410     7.1350    13.0460    11.1250   -17.5380    12.2760 
  137.2500   404.0710    25.1980     7.0120    15.0820    13.1490   -17.5460    14.4270 
  137.3750   401.8320    25.1970     6.9600    15.7680    13.0000   -17.5450    12.7840 
  137.5000   399.9940    25.1970     6.9600    14.1180    13.2670   -17.5420    13.9350 
  137.6250   397.0810    25.1960     6.8850    15.8510    15.0960   -17.4440    15.5470 
  137.7500   393.9360    25.1960     6.7190    18.6210    16.6290   -17.4580    17.5690 
  137.8750   392.7530    25.1950     6.6320    21.0120    18.8710   -17.5440    21.0270 
  138.0000   398.7400    25.1940     6.5460    24.3210    19.9450   -17.5940    18.0000 
  138.1250   398.5820    25.1090     6.4700    23.8920    19.2040   -17.6440    16.8450 
  138.2500   395.5740    25.0930     6.4270    22.7690    18.6900   -17.6440    16.7660 
  138.3750   392.5950    25.0920     6.3680    21.4750    18.2620   -17.6430    16.5070 
  138.5000   387.6020    25.0400     6.3790    21.3070    18.0790   -17.7180    17.3250 
  138.6250   383.6560    25.0290     6.4420    21.8250    18.9140   -17.7430    18.2200 
  138.7500   380.2500    25.0910     6.4910    23.0070    20.0880   -17.7430    20.5490 
  138.8750   377.7070    25.0900     6.4640    24.6580    21.2890   -17.7430    23.3910 
  139.0000   374.6290    25.2070     6.3950    28.4130    23.7200   -17.7420    24.2600 
  139.1250   375.9790    25.2900     6.3240    29.6630    24.1250   -17.7420    23.1310 
  139.2500   388.8600    25.2900     6.2450    30.1700    24.3020   -17.7420    23.8710 
  139.3750   399.2850    25.2890     6.1190    30.2690    25.5410   -17.7410    26.2010 
  139.5000   404.8660    25.3380     6.0330    30.5740    24.9130   -17.7410    23.2770 
  139.6250   408.1620    25.4100     5.9200    29.2850    23.4790   -17.7410    20.4050 
  139.7500   411.6350    25.4720     5.8200    27.6890    21.7190   -17.7400    19.4800 
  139.8750   412.6280    25.4880     5.7600    24.8430    20.8980   -17.7400    18.8370 
  140.0000   413.5740    25.5880     5.7200    24.5200    21.4120   -17.7400    21.1160 
  140.1250   412.6120    25.5870     5.7200    28.8910    22.9910   -17.7390    25.6750 
  140.2500   412.2360    25.5870     5.7480    32.9440    26.6590   -17.7390    29.3110 
  140.3750   411.5940    25.5860     5.7600    38.5600    37.0910   -17.7390    34.4850 
  140.5000   410.5850    25.4940     5.7600    44.4170    39.0400   -17.6430    43.4250 
  140.6250   408.4160    25.3840     5.7760    47.8630    37.8080   -17.5360    51.9810 
  140.7500   407.2660    25.3250     5.8010    46.0110    34.8450   -17.5330    34.1960 
  140.8750   404.8280    25.1820     5.8200    36.8340    31.4190   -17.4240    32.9120 
  141.0000   403.5420    24.9800     5.8550    37.9930    31.1610   -17.3340    35.1140 
  141.1250   402.0460    24.9790     5.8890    39.5670    34.2390   -17.2850    38.1610 
  141.2500   399.4860    24.9790     5.9750    38.0520    31.8830   -17.2320    31.1370 
  141.3750   398.5100    24.8850     6.0320    35.3160    28.2180   -17.2320    28.6490 
  141.5000   397.7190    24.8770     6.0820    32.8670    27.1700   -17.1410    27.4940 
  141.6250   395.8430    24.8770     6.1220    31.8970    27.1990   -17.0300    26.3650 
  141.7500   394.0820    24.9470     6.1220    31.3870    27.9580   -17.0250    28.1560 
  141.8750   392.1070    24.9760     6.1230    32.9190    29.0230   -16.9280    30.8440 
  142.0000   387.7380    24.9750     6.1230    35.4320    30.5120   -16.9140    38.1440 
  142.1250   384.4520    25.0240     6.1390    36.4230    30.6100   -16.7860    40.7980 
  142.2500   380.2400    25.0750     6.2540    37.1000    30.6100   -16.6620    47.6570 
  142.3750   374.8830    25.0740     6.3330    38.6950    32.8120   -16.6250    40.8430 
  142.5000   372.0050    25.0740     6.3640    42.0960    34.8610   -16.5650    35.3340 
  142.6250   372.3910    25.0730     6.4440    43.6500    33.5860   -16.5230    34.6400 
  142.7500   372.3830    25.0730     6.5080    42.4810    32.3830   -16.5230    39.0660 
  142.8750   374.2480    25.1450     6.5640    38.6470    31.6840   -16.5160    39.1910 
  143.0000   379.6340    25.1720     6.5840    36.8180    29.2250   -16.4220    36.6020 
  143.1250   384.2830    25.1720     6.6050    36.3210    28.5060   -16.4210    39.6460 
  143.2500   389.4480    25.2980     6.6050    38.7790    32.6660   -16.3460    40.1820 
  143.3750   395.0750    25.3720     6.6050    41.2690    32.3240   -16.2890    42.0980 
