~V
VERS. 2.00: Ver 2.00
~W
STRT.M 80.0000:
STOP.M 287.0000:
STEP.M 0.1250:
NULL. -999.2500:
UWI. жи32:
~C
DEPT.M :
DEN.GM/CC :
CNL.V/V :
RI. :
RML.OHMM :
AC.US/MT :
SP.MV :
GR.API :
CALI.CM :
RXO.OHMM :
~A
# ...
  143.8750     0.0000     0.0000    39.5000   101.2590   425.8430   -16.2720     6.1990    25.5250   175.6220 
  144.0000     0.0000     0.0000    47.4820   111.2610   427.4870   -16.1340     6.2090    25.5260   181.5920 
  144.1250     0.0000     0.0000    57.5380   117.6020   429.2060   -16.0590     6.0970    25.5260   180.5820 
  144.2500     0.0000     0.0000    64.0130   117.4420   431.9120   -15.9340     5.9720    25.3790   159.4490 
  144.3750     0.0000     0.0000    63.0490   105.8290   434.1360   -15.9330     5.9700    25.3280   144.3730 
  144.5000     0.0000     0.0000    60.1940    88.6440   434.2250   -15.9330     5.9470    25.3280   120.2680 
  144.6250     0.0000     0.0000    56.7760    77.0820   434.6880   -15.9330     5.8850    25.3280    93.1640 
  144.7500     0.0000     0.0000    53.2610    68.6490   433.6330   -15.9330     5.8970    25.3750   106.1500 
  144.8750     0.0000     0.0000    48.0320    68.6810   431.2440   -15.9330     5.9600    25.5270   121.1330 
  145.0000     0.0000     0.0000    45.9270    66.7070   427.8130   -16.0010     6.0020    25.5270   106.0560 
  145.1250     0.0000     0.0000    41.7510    58.0010   424.7070   -16.0330     6.0050    25.4280    85.9670 
  145.2500     0.0000     0.0000    39.3820    50.7220   421.2620   -16.1330     6.0900    25.4280   112.9840 
  145.3750     0.0000     0.0000    41.2280    62.6660   416.5000   -16.1320     6.1300    25.4180   253.2590 
  145.5000     0.0000     0.0000    45.3190    85.3630   412.3360   -15.9440     6.0900    25.2740   521.8400 
  145.6250     0.0000     0.0000    57.0420   127.1340   410.2870   -15.7320     6.1550    25.2300   570.9110 
  145.7500     0.0000     0.0000    61.3560   135.1190   409.3460   -15.5560     6.1700    25.2310   293.2220 
  145.8750     0.0000     0.0000    63.5880   108.5720   410.5410   -15.4300     6.2200    25.3110   162.8740 
  146.0000     0.0000     0.0000    61.2420    89.0590   412.3000   -15.3300     6.2470    25.3680    86.6490 
  146.1250     0.0000     0.0000    51.7220    67.7750   415.8250   -15.5300     6.2150    25.4300    47.5080 
  146.2500     0.0000     0.0000    44.3200    57.9720   417.9660   -15.7930     6.1350    25.5290    48.4670 
  146.3750     0.0000     0.0000    40.9430    62.3560   417.3190   -16.3840     6.0700    25.5300    78.4920 
  146.5000     0.0000     0.0000    46.6350    68.1610   416.8750   -17.2190     6.1010    25.6290   167.6550 
  146.6250     0.0000     0.0000    51.4430    73.0170   421.3750   -17.7380     6.1810    25.5920   159.5930 
  146.7500     0.0000     0.0000    57.7760    77.4880   423.5160   -17.9340     6.2380    25.4310   150.5290 
  146.8750     0.0000     0.0000    60.3980    92.2100   425.0340   -18.0110     6.2900    25.2320   284.7990 
  147.0000     0.0000     0.0000    61.3280   121.1000   425.0680   -18.0820     6.3070    25.0550   436.1160 
  147.1250     0.0000     0.0000    61.7550   124.1040   422.3560   -18.1900     6.3100    24.9040   295.7390 
  147.2500     0.0000     0.0000    59.3530   118.1340   419.6970   -18.4030     6.3100    24.8420   216.5040 
  147.3750     0.0000     0.0000    59.3700   119.4990   417.5860   -18.6760     6.2370    25.0350   362.8120 
  147.5000     0.0000     0.0000    61.0010   111.6790   418.3310   -18.8300     6.1870    25.0650   347.7340 
  147.6250     0.0000     0.0000    59.6340    95.4340   419.4020   -19.0350     6.1100    25.1340   340.7110 
  147.7500     0.0000     0.0000    56.4700    76.4710   420.9740   -19.3570     6.1110    25.0790    72.9780 
  147.8750     0.0000     0.0000    48.9070    59.4260   422.3940   -19.5530     6.1000    24.8520    81.9560 
  148.0000     0.0000     0.0000    43.1620    60.1060   422.4000   -19.6830     6.0100    24.5960   140.0510 
  148.1250     0.0000     0.0000    49.2140    79.5160   424.4490   -19.8360     5.9060    24.4420   245.2650 
  148.2500     0.0000     0.0000    74.4570    96.6030   426.2610   -20.0820     5.8050    24.2410   456.7340 
  148.3750     0.0000     0.0000    88.1440   128.5090   427.4190   -20.4370     5.6520    24.2170   531.8720 
  148.5000     0.0000     0.0000   100.1140   187.4210   429.3850   -20.5370     5.4640    24.1610   599.9940 
  148.6250     0.0000     0.0000   107.6310   208.6290   430.9770   -20.4280     5.3110    24.2920   592.9360 
  148.7500     0.0000     0.0000   112.1480   222.5880   435.6740   -20.2120     5.3580    24.4720   504.6760 
  148.8750     0.0000     0.0000   116.1640   244.5740   441.8310   -19.9990     5.4010    24.5400   447.4890 
  149.0000     0.0000     0.0000   120.3000   253.8080   443.4500   -19.9110     5.4430    24.5410   406.3480 
  149.1250     0.0000     0.0000   124.6820   256.2810   436.2250   -19.8140     5.4790    24.4420   384.2530 
  149.2500     0.0000     0.0000   130.9440   264.3840   429.7470   -19.7340     5.4910    24.3280   579.6850 
  149.3750     0.0000     0.0000   133.2640   305.0210   424.6480   -19.7340     5.5120    24.2710   646.8140 
  149.5000     0.0000     0.0000   129.0030   319.4050   420.5450   -19.7340     5.5340    24.3820   627.7200 
  149.6250     0.0000     0.0000   122.7330   321.7030   418.9570   -19.7330     5.6040    24.5930   595.6010 
  149.7500     0.0000     0.0000   116.4610   278.8120   415.4880   -19.8330     5.6040    24.6410   582.5280 
  149.8750     0.0000     0.0000   106.1690   247.2700   416.7850   -19.9010     5.5960    24.6410   622.5850 
  150.0000     0.0000     0.0000    88.9260   228.6690   419.2140   -20.0580     5.6120    24.5970   445.0930 
  150.1250     0.0000     0.0000    80.8090   205.8030   426.3780   -20.2960     5.6660    24.4430   468.1020 
  150.2500     0.0000     0.0000    72.3950   191.7530   432.2430   -20.4340     5.7090    24.4430   470.0590 
  150.3750     0.0000     0.0000    64.0880   166.7320   435.5190   -20.4340     5.7920    24.6070   459.0250 
  150.5000     0.0000     0.0000    56.8030   116.4100   436.5250   -20.4340     5.7670    24.7220   383.7890 
  150.6250     0.0000     0.0000    51.7250    74.0920   433.4190   -20.3770     5.7190    24.8410    98.9900 
  150.7500     0.0000     0.0000    49.7770    75.0100   430.3120   -20.3090     5.7260    24.9240   136.0330 
  150.8750     0.0000     0.0000    46.9300    74.2540   427.5440   -19.9960     5.7220    24.9410   185.1120 
  151.0000     0.0000     0.0000    42.8260    67.9790   428.2840   -19.6840     5.7380    24.5510   131.9320 
  151.1250     0.0000     0.0000    44.7300    65.1840   431.1620   -19.4110     5.7220    24.3460   106.8190 
  151.2500     0.0000     0.0000    47.8530    86.0570   434.5630   -19.2300     5.6720    24.3460   294.2350 
  151.3750     0.0000     0.0000    63.1390   111.1350   436.0070   -19.0460     5.7420    24.3460   521.7450 
  151.5000     0.0000     0.0000    75.6300   134.7670   436.0740   -18.7980     5.8370    24.4600   617.9350 
  151.6250     0.0000     0.0000    80.5440   157.5180   434.5810   -18.6210     5.9120    24.5450   553.7270 
  151.7500     0.0000     0.0000    85.3680   163.4700   432.3490   -18.3480     5.9600    24.5450   588.7630 
  151.8750     0.0000     0.0000    83.9410   159.9630   430.2380   -18.1270     5.9720    24.4460   617.7840 
  152.0000     0.0000     0.0000    80.2530   137.5450   428.1270   -17.9830     5.9460    24.2480   452.3310 
  152.1250     0.0000     0.0000    72.1860   122.1680   424.0240   -17.9270     5.9320    23.9620   349.0330 
  152.2500     0.0000     0.0000    62.7900    99.2150   420.2270   -17.9830     5.9700    23.9750   259.7690 
  152.3750     0.0000     0.0000    51.9410    73.5590   416.8140   -17.9260     6.0120    24.0500   200.5760 
  152.5000     0.0000     0.0000    42.8220    62.7030   411.7150   -17.9260     6.0550    24.0500    66.2010 
  152.6250     0.0000     0.0000    38.2850    58.5580   408.6310   -18.0800     6.1180    24.0500   110.2660 
  152.7500     0.0000     0.0000    38.5500    56.6690   408.6370   -18.2260     6.1800    23.8750   422.9660 
  152.8750     0.0000     0.0000    40.5530    56.7020   410.0640   -18.1600     6.2320    23.5620   506.1210 
