~V
VERS. 2.00: Ver 2.00
~W
STRT.M 80.0000:
STOP.M 287.0000:
STEP.M 0.1250:
NULL. -999.2500:
UWI. жи32:
~C
DEPT.M :
DEN.GM/CC :
CNL.V/V :
RI. :
RML.OHMM :
AC.US/MT :
SP.MV :
GR.API :
CALI.CM :
RXO.OHMM :
~A
# ...
  116.5000     0.0000     0.0000     2.0840     2.9840   460.7880   -13.8800     7.0560    25.2540     5.0180 
  116.6250     0.0000     0.0000     2.0850     2.7840   461.3580   -13.7680     6.9660    25.1810     4.8140 
  116.7500     0.0000     0.0000     2.0850     2.7850   462.8370   -13.7190     6.7860    25.1810     4.8110 
  116.8750     0.0000     0.0000     2.0850     2.7850   463.5300   -13.7680     6.6310    25.0960     4.7060 
  117.0000     0.0000     0.0000     2.1960     2.7860   460.0000   -13.7680     6.5570    24.9840     4.6020 
  117.1250     0.0000     0.0000     2.2870     2.9870   455.3240   -14.3310     6.4330    24.9720     4.5980 
  117.2500     0.0000     0.0000     2.5690     3.3570   448.9660   -15.1520     6.3150    24.7600     4.9960 
  117.3750     0.0000     0.0000     2.8910     3.5880   438.1540   -16.1170     6.1620    24.4870     5.7940 
  117.5000     0.0000     0.0000     3.7060     3.8110   434.1390   -17.0390     6.0200    24.4880     7.0930 
  117.6250     0.0000     0.0000     4.0980     4.4390   427.9560   -21.6050     5.9810    24.5200     8.3930 
  117.7500     0.0000     0.0000     4.3600     5.1440   424.8870   -22.6210     5.9480    24.5870     9.5930 
  117.8750     0.0000     0.0000     4.7020     5.7910   427.0670   -23.0480     5.8570    24.6870     8.9870 
  118.0000     0.0000     0.0000     4.7020     6.3230   430.2110   -24.5820     5.7950    24.7860     8.7830 
  118.1250     0.0000     0.0000     4.7020     6.3930   433.3550   -24.7850     5.8140    24.7790     8.7790 
  118.2500     0.0000     0.0000     4.7020     6.3930   436.9130   -24.9590     5.9330    24.5880     8.9750 
  118.3750     0.0000     0.0000     4.7030     6.3940   432.3240   -25.1790     6.0580    24.5470     9.2720 
  118.5000     0.0000     0.0000     4.7030     6.2260   430.1120   -25.3860     6.1850    24.4050     9.2690 
  118.6250     0.0000     0.0000     4.5560     6.1950   427.9310   -25.5990     6.3300    24.2910     8.3620 
  118.7500     0.0000     0.0000     4.5020     6.0370   428.9580   -25.8120     6.4080    24.2910     8.3580 
  118.8750     0.0000     0.0000     4.4130     6.1960   429.9440   -25.8470     6.5360    24.2910     9.2570 
  119.0000     0.0000     0.0000     4.3020     6.1970   431.6110   -25.4600     6.6780    24.3910     8.6510 
  119.1250     0.0000     0.0000     4.4730     6.3770   425.2680   -25.2030     6.8120    24.4010     8.8480 
  119.2500     0.0000     0.0000     4.5030     6.3980   405.0940   -24.8090     6.8970    24.4910     9.8460 
  119.3750     0.0000     0.0000     4.7050     6.5390   393.8740   -24.3970     6.9520    24.5900    10.2440 
  119.5000     0.0000     0.0000     4.9060     6.8000   385.6930   -23.9840     7.1250    24.5330    10.1390 
  119.6250     0.0000     0.0000     5.0270     7.2630   380.9810   -23.2540     7.2600    24.4910    10.0350 
  119.7500     0.0000     0.0000     5.4420     7.8910   380.0530   -22.2590     7.4170    24.3920    11.7360 
  119.8750     0.0000     0.0000     5.5560     7.8020   400.2210   -21.2170     7.5450    24.3920    10.7290 
  120.0000     0.0000     0.0000     5.7110     7.4330   412.1220   -20.2340     7.6710    24.3930    10.2130 
  120.1250     0.0000     0.0000     5.5110     6.0010   431.2600   -19.5220     7.8300    24.4140     9.0110 
  120.2500     0.0000     0.0000     5.1970     4.8030   439.2290   -18.5610     8.0620    24.5920     7.4090 
  120.3750     0.0000     0.0000     4.7140     3.7980   449.7950   -17.6510     8.2230    24.7730     5.2060 
  120.5000     0.0000     0.0000     4.1030     3.4040   456.9550   -16.4190     8.1830    24.8900     4.2050 
  120.6250     0.0000     0.0000     3.5340     3.0040   459.0640   -14.9870     8.2230    25.1240     4.3050 
  120.7500     0.0000     0.0000     3.0280     2.8050   461.2360   -14.3600     8.2230    25.2710     4.2050 
  120.8750     0.0000     0.0000     2.6000     2.6540   464.3810   -13.9520     8.1830    25.4840     4.2050 
  121.0000     0.0000     0.0000     2.3210     2.4420   466.0500   -13.7340     8.1630    25.5860     4.2050 
  121.1250     0.0000     0.0000     2.2450     2.4070   462.4760   -13.4610     8.1280    25.6850     4.2050 
  121.2500     0.0000     0.0000     2.0940     2.4070   458.6990   -13.8150     8.0830    25.6850     4.6050 
  121.3750     0.0000     0.0000     2.0940     2.4080   454.3690   -14.2950     8.0430    25.3410     5.3060 
  121.5000     0.0000     0.0000     2.0940     2.4090   442.4430   -14.9440     7.9860    24.9300     5.6060 
  121.6250     0.0000     0.0000     2.2190     2.6650   419.3940   -15.5520     7.8890    24.8180     5.6060 
  121.7500     0.0000     0.0000     2.4970     3.0920   396.2810   -16.0260     7.7740    24.7930     5.9060 
  121.8750     0.0000     0.0000     2.5970     3.8110   365.3090   -16.7090     7.7310    24.7930     8.0080 
  122.0000     0.0000     0.0000     3.3490     4.8240   325.7290   -17.2190     7.7920    24.7930    13.7140 
  122.1250     0.0000     0.0000     4.4070     6.7490   315.8060   -17.8900     7.8600    24.7930    18.7180 
  122.2500     0.0000     0.0000     5.0590     6.8140   303.0380   -18.4940     7.9430    24.8930    19.0180 
  122.3750     0.0000     0.0000     5.5150     7.8680   292.6440   -19.0220     8.0230    24.8930    15.6150 
  122.5000     0.0000     0.0000     6.3430     9.7190   268.9360   -18.6050     8.0480    24.8930    11.7110 
  122.6250     0.0000     0.0000     7.3730    11.6990   266.1310   -17.2710     8.1110    24.9620    23.3210 
  122.7500     0.0000     0.0000     9.4090    13.7570   274.0600   -15.7420     8.2330    24.9930    35.8320 
  122.8750     0.0000     0.0000    10.7450    11.9510   387.3010   -14.9260     8.4160    25.0920    39.0340 
  123.0000     0.0000     0.0000     9.8430     9.2600   424.0850   -14.4310     8.5510    24.9930    23.4200 
  123.1250     0.0000     0.0000     8.8200     5.5490   439.1510   -14.0190     8.5250    24.9940    10.6090 
  123.2500     0.0000     0.0000     3.8190     3.0180   444.1630   -13.7820     8.4730    24.9530     3.7030 
  123.3750     0.0000     0.0000     3.3050     2.8180   443.1690   -13.8910     8.4400    24.8680     6.2370 
  123.5000     0.0000     0.0000     3.2280     2.8190   442.2320   -14.3180     8.4290    24.6960     4.7250 
  123.6250     0.0000     0.0000     3.1040     2.8190   443.1810   -14.6670     8.4440    24.5970     5.5140 
  123.7500     0.0000     0.0000     2.9030     3.0200   444.3340   -14.3550     8.4440    24.6210     5.4690 
  123.8750     0.0000     0.0000     2.7020     3.0210   441.9320   -14.0000     8.4500    24.6970     5.0630 
  124.0000     0.0000     0.0000     2.4580     3.0210   440.2000   -13.8300     8.4990    24.6970     4.4580 
  124.1250     0.0000     0.0000     2.3010     3.0220   439.2060   -13.6170     8.5240    24.6970     4.4530 
  124.2500     0.0000     0.0000     2.3010     3.0230   440.0280   -13.5570     8.4630    24.6980     4.8500 
  124.3750     0.0000     0.0000     2.2980     3.1300   441.2190   -13.8230     8.3890    24.7360     5.3450 
  124.5000     0.0000     0.0000     2.1000     3.2240   442.1160   -14.0370     8.2890    24.9100     5.1410 
  124.6250     0.0000     0.0000     2.1010     3.4250   443.2310   -14.3500     8.3480    24.9730     4.9350 
  124.7500     0.0000     0.0000     2.2430     3.4250   442.6650   -14.4680     8.3840    25.0450     5.3310 
  124.8750     0.0000     0.0000     2.3020     3.4260   441.2440   -14.7580     8.4040    25.1950     5.1270 
  125.0000     0.0000     0.0000     2.3020     3.4980   441.2500   -14.8890     8.3880    25.1950     4.5210 
  125.1250     0.0000     0.0000     2.3030     3.4430   442.5170   -15.1590     8.4020    25.2950     4.9180 
  125.2500     0.0000     0.0000     2.5040     3.4280   443.8130   -15.0020     8.5050    25.3100     5.9140 
  125.3750     0.0000     0.0000     2.3030     3.2280   446.0550   -14.6900     8.6470    25.5130     5.8090 
  125.5000     0.0000     0.0000     2.3210     2.9080   447.1910   -14.4170     8.7240    25.5930     5.3050 
