~V
VERS. 2.00: Ver 2.00
~W
STRT.M 80.0000:
STOP.M 287.0000:
STEP.M 0.1250:
NULL. -999.2500:
UWI. жи32:
~C
DEPT.M :
DEN.GM/CC :
CNL.V/V :
RI. :
RML.OHMM :
AC.US/MT :
SP.MV :
GR.API :
CALI.CM :
RXO.OHMM :
~A
# ...
  171.2500     0.0000     0.0000     9.7880     5.9370   362.4540   -11.7590     5.3990    24.9490    12.9350 
  171.3750     0.0000     0.0000     6.2760     5.4870   375.7750   -11.5640     5.2790    25.2690    13.3280 
  171.5000     0.0000     0.0000     5.1820     5.2620   401.5390   -11.4460     5.2200    25.6520    11.0220 
  171.6250     0.0000     0.0000     4.7800     5.2620   404.5810   -11.2390     5.2050    25.6520     7.6160 
  171.7500     0.0000     0.0000     4.7430     5.2630   403.3650   -11.1830     5.2820    26.5470     6.4100 
  171.8750     0.0000     0.0000     4.6610     5.0630   402.5940   -11.0850     5.3360    26.3550     4.6040 
  172.0000     0.0000     0.0000     4.3360     4.7890   408.0930   -10.5550     5.3960    26.3550     6.2980 
  172.1250     0.0000     0.0000     4.0030     4.3130   413.5260    -9.7430     5.4350    25.7350     6.8910 
  172.2500     0.0000     0.0000     3.6410     3.8020   425.0470    -8.9310     5.4590    25.4060     6.4850 
  172.3750     0.0000     0.0000     3.2520     3.4890   432.6510    -8.7180     5.4400    25.2180     6.1790 
  172.5000     0.0000     0.0000     2.9990     3.2890   427.4790    -8.5790     5.4600    24.7210     4.8730 
  172.6250     0.0000     0.0000     2.9990     3.0660   419.6310    -8.2930     5.4740    24.5440     3.9710 
  172.7500     0.0000     0.0000     2.9990     3.0660   409.1360    -8.3780     5.4110    24.1040     5.1550 
  172.8750     0.0000     0.0000     3.0000     3.0670   404.0000    -8.3780     5.3640    23.9440     5.2500 
  173.0000     0.0000     0.0000     3.0000     3.0680   416.3030    -8.6140     5.3420    24.1820     4.6440 
  173.1250     0.0000     0.0000     3.0000     3.2200   426.0460    -9.1040     5.3200    23.7980     3.9380 
  173.2500     0.0000     0.0000     3.0000     3.2690   433.5130    -9.3810     5.3400    24.0540     4.4350 
  173.3750     0.0000     0.0000     3.0760     3.5210   438.6580    -9.3160     5.3400    24.1180     5.4320 
  173.5000     0.0000     0.0000     3.2020     3.6710   442.8140    -8.8040     5.3420    24.1180     5.7270 
  173.6250     0.0000     0.0000     3.2020     3.6710   446.9620    -8.5150     5.3730    24.1820     5.3220 
  173.7500     0.0000     0.0000     3.2020     3.6720   450.1070    -8.2790     5.3990    25.7160     4.6160 
  173.8750     0.0000     0.0000     3.2020     3.6720   453.2510    -8.2820     5.4510    28.5930     4.0100 
  174.0000     0.0000     0.0000     3.1770     3.6730   455.5460    -8.3760     5.5070    30.0000     3.8060 
  174.1250     0.0000     0.0000     3.0020     3.6740   443.1700    -8.4940     5.5570    31.0870     3.8010 
  174.2500     0.0000     0.0000     3.0020     3.7400   432.0140    -8.5770     5.6690    31.9180     4.0970 
  174.3750     0.0000     0.0000     2.9250     3.7180   417.8820    -8.5760     5.7970    32.8130     4.1920 
  174.5000     0.0000     0.0000     2.8020     3.8760   413.7250    -8.5390     5.9350    31.9820     4.1870 
  174.6250     0.0000     0.0000     2.8000     4.0770   415.0480    -8.4760     6.1600    31.0230     3.8820 
  174.7500     0.0000     0.0000     2.6170     4.2770   421.0460    -8.3750     6.4470    30.1920     4.0770 
  174.8750     0.0000     0.0000     2.6020     4.2780   424.1900    -8.4310     6.7600    30.5860     4.0730 
  175.0000     0.0000     0.0000     2.8030     4.1170   424.4630    -8.4750     6.9740    34.2200     3.5670 
  175.1250     0.0000     0.0000     2.8390     4.0790   422.7560    -8.3750     7.2170    34.7950     3.4620 
  175.2500     0.0000     0.0000     3.1360     4.0800   422.7630    -8.4720     7.4050    34.9520     3.9590 
  175.3750     0.0000     0.0000     3.3620     4.0800   426.6870    -9.1650     7.5630    31.5090     4.1540 
  175.5000     0.0000     0.0000     3.7890     4.2660   429.0570   -10.1340     7.6680    28.9400     4.7510 
  175.6250     0.0000     0.0000     4.1130     4.8870   435.4040   -11.5700     7.7200    26.1940     5.2460 
  175.7500     0.0000     0.0000     4.4430     5.1190   415.9100   -12.9050     7.7560    25.1590     4.7410 
  175.8750     0.0000     0.0000     4.8140     5.7450   410.0040   -14.6580     7.5930    24.7800     4.9360 
  176.0000     0.0000     0.0000     4.9750     6.2280   411.0630   -15.7330     7.4690    24.9400     5.8330 
  176.1250     0.0000     0.0000     4.9170     6.4560   419.1720   -16.4780     7.4350    25.1380     7.9320 
  176.2500     0.0000     0.0000     5.0160     6.4860   428.5030   -17.1650     7.4960    25.6350     8.2280 
  176.3750     0.0000     0.0000     4.8370     6.2990   430.7990   -17.4790     7.4780    25.9560     8.8240 
  176.5000     0.0000     0.0000     4.8150     6.2880   434.0230   -17.8930     7.5030    26.8030     8.9190 
  176.6250     0.0000     0.0000     4.8150     6.0880   439.0300   -18.6240     7.5740    27.2510     9.5160 
  176.7500     0.0000     0.0000     4.8160     5.9690   441.3870   -19.6570     7.6450    26.4830     9.1110 
  176.8750     0.0000     0.0000     4.8160     5.8890   445.3850   -20.3270     7.6430    26.2280     9.3060 
  177.0000     0.0000     0.0000     5.0170     5.9790   448.6900   -20.4400     7.6210    25.5590    10.5030 
  177.1250     0.0000     0.0000     5.1260     6.0910   451.6740   -20.2630     7.5970    26.1000    10.2980 
  177.2500     0.0000     0.0000     5.2180     6.0910   454.8630   -21.1210     7.5570    26.7390     9.4920 
  177.3750     0.0000     0.0000     5.2190     6.6230   449.8080   -22.5050     7.5770    25.9080     7.6840 
  177.5000     0.0000     0.0000     5.6050     7.0930   440.4270   -24.4430     7.5910    25.4690     8.0800 
  177.6250     0.0000     0.0000     6.0320     7.4940   429.6490   -25.5420     7.5480    25.5800    10.0790 
  177.7500     0.0000     0.0000     6.5140     7.6950   422.2320   -26.5100     7.5090    25.3480    12.3780 
  177.8750     0.0000     0.0000     6.9140     8.1630   414.4710   -26.7410     7.4620    25.1320    14.2760 
  178.0000     0.0000     0.0000     7.5130     8.9890   403.9000   -26.5350     7.4090    24.5600    14.9730 
  178.1250     0.0000     0.0000     8.0870     9.6160   395.7090   -25.7370     7.2990    24.3000    15.7690 
  178.2500     0.0000     0.0000     8.5020    10.0990   385.2300   -24.8200     7.2270    24.1460    16.5670 
  178.3750     0.0000     0.0000     8.8370    10.6690   376.6930   -24.0870     7.1690    24.0190    17.6630 
  178.5000     0.0000     0.0000     9.1300    11.1010   382.6190   -22.7720     7.0330    23.7850    20.0610 
  178.6250     0.0000     0.0000     9.4410    10.2260   401.4270   -21.9740     6.9390    24.2460    32.9770 
  178.7500     0.0000     0.0000     7.9660     6.2110   424.6220   -20.8280     6.7580    23.9900    32.1720 
  178.8750     0.0000     0.0000     6.5040     5.6990   435.4550   -19.2660     6.6020    23.9850    13.6370 
  179.0000     0.0000     0.0000     5.8810     5.2050   439.9150   -18.7850     6.4520    24.3620    11.2290 
  179.1250     0.0000     0.0000     5.1070     4.8760   459.8160   -14.0770     6.3280    24.8590    10.1220 
  179.2500     0.0000     0.0000     4.4780     4.7510   461.9630   -12.9360     6.2410    26.3440     8.0140 
  179.3750     0.0000     0.0000     4.0170     4.7010   458.7540   -11.8340     6.2450    27.5590     3.5020 
  179.5000     0.0000     0.0000     3.6220     4.9020   454.5430   -11.3110     6.3320    29.1470     3.1970 
  179.6250     0.0000     0.0000     3.6160     4.9020   436.1770   -10.6810     6.3870    30.2580     3.4930 
  179.7500     0.0000     0.0000     3.6600     4.7790   430.9880   -10.1680     6.3600    30.3710     3.9890 
  179.8750     0.0000     0.0000     3.8170     4.7030   430.9940    -9.8400     6.2880    30.0290     4.3850 
  180.0000     0.0000     0.0000     3.8170     4.5040   432.3150    -9.5700     6.3180    29.1680     4.3800 
  180.1250     0.0000     0.0000     3.5090     4.5050   435.7750    -9.4700     6.3980    28.6450     4.3750 
  180.2500     0.0000     0.0000     3.2420     4.5050   436.9120    -9.4180     6.4800    28.6520     4.4710 
