~V
VERS. 2.00: Ver 2.00
~W
STRT.M 80.0000:
STOP.M 287.0000:
STEP.M 0.1250:
NULL. -999.2500:
UWI. жи32:
~C
DEPT.M :
DEN.GM/CC :
CNL.V/V :
RI. :
RML.OHMM :
AC.US/MT :
SP.MV :
GR.API :
CALI.CM :
RXO.OHMM :
~A
# ...
  180.3750     0.0000     0.0000     3.0140     4.5060   435.0020    -9.3690     6.5700    29.7970     4.7670 
  180.5000     0.0000     0.0000     3.2150     4.5060   432.0250    -9.4580     6.6700    30.3440     5.0620 
  180.6250     0.0000     0.0000     3.2160     4.6490   430.4060    -9.5640     6.8210    30.5930     4.9570 
  180.7500     0.0000     0.0000     3.4170     4.5080   429.3520    -9.7670     6.9750    30.5510     4.5520 
  180.8750     0.0000     0.0000     3.4170     4.5080   433.8310    -9.5540     7.1050    30.2350     4.8480 
  181.0000     0.0000     0.0000     3.4170     4.5090   442.3990    -8.8420     7.1740    30.4850     5.0430 
  181.1250     0.0000     0.0000     3.4180     4.5100   451.7320    -8.4300     7.2950    31.2480     4.2370 
  181.2500     0.0000     0.0000     3.2430     4.5100   446.1810    -7.9700     7.3790    31.6830     3.7320 
  181.3750     0.0000     0.0000     3.2170     4.7990   421.2010    -7.7580     7.4050    32.4030     3.8280 
  181.5000     0.0000     0.0000     3.4170     4.9120   415.0070    -7.5780     7.5040    32.6420     3.6220 
  181.6250     0.0000     0.0000     3.4190     5.1130   413.4880    -7.6560     7.6580    32.4070     3.7180 
  181.7500     0.0000     0.0000     3.4190     5.1130   412.4700    -7.8290     7.6580    31.3040     4.2150 
  181.8750     0.0000     0.0000     3.6200     5.0210   407.0940    -8.0380     7.6700    28.8120     4.9110 
  182.0000     0.0000     0.0000     3.8210     4.9140   404.5710    -8.1650     7.5420    27.8060     5.6080 
  182.1250     0.0000     0.0000     3.8210     4.9150   406.7690    -7.9960     7.4600    27.1120     6.4040 
  182.2500     0.0000     0.0000     3.9730     4.9160   410.9180    -7.9640     7.4970    26.8990     7.1990 
  182.3750     0.0000     0.0000     3.8220     4.9160   412.1190    -7.8330     7.4710    26.3340     7.2950 
  182.5000     0.0000     0.0000     3.8220     5.0190   415.1620    -7.7050     7.3990    25.9720     6.9900 
  182.6250     0.0000     0.0000     3.6210     4.9170   417.3390    -7.5620     7.4070    25.4580     6.3850 
  182.7500     0.0000     0.0000     3.6220     4.8900   421.4880    -7.4310     7.4700    25.1690     5.4780 
  182.8750     0.0000     0.0000     3.4210     4.5180   424.6320    -7.4160     7.5150    24.9310     4.6720 
  183.0000     0.0000     0.0000     3.4210     4.5190   429.9670    -7.5060     7.5950    24.8070     4.3670 
  183.1250     0.0000     0.0000     3.4220     4.6510   427.6540    -7.5620     7.6770    24.7970     4.5630 
  183.2500     0.0000     0.0000     3.4220     4.9210   423.4420    -7.8840     7.7190    24.6980     5.1590 
  183.3750     0.0000     0.0000     3.2210     5.1120   421.1920    -8.2030     7.9370    24.6980     5.8550 
  183.5000     0.0000     0.0000     3.2210     5.1220   420.1750    -8.4370     7.9040    24.6980     6.4520 
  183.6250     0.0000     0.0000     3.4220     5.1390   421.1810    -8.7510     7.8630    24.6270     5.9460 
  183.7500     0.0000     0.0000     3.5510     5.3810   421.1880    -9.2670     7.8490    24.5990     6.3430 
  183.8750     0.0000     0.0000     3.7440     5.7240   420.9550    -9.7970     7.8920    24.5990     6.1370 
  184.0000     0.0000     0.0000     3.8250     5.7250   418.2000   -10.4270     7.9140    24.6000     6.3320 
  184.1250     0.0000     0.0000     4.1570     5.9260   416.9200   -10.9840     7.8980    24.6000     8.5310 
  184.2500     0.0000     0.0000     4.3840     5.9260   420.0640   -11.5270     7.8780    24.5010     9.9280 
  184.3750     0.0000     0.0000     4.8110     5.9270   423.2090   -12.1790     7.8900    24.5220     9.2230 
  184.5000     0.0000     0.0000     5.0320     6.1370   425.2250   -12.4560     7.9250    24.6450     7.9160 
  184.6250     0.0000     0.0000     4.8310     6.7290   424.2310   -12.4710     7.9000    24.8440     7.3100 
  184.7500     0.0000     0.0000     5.0600     7.3900   423.0540   -12.3590     7.8420    25.0260     7.3060 
  184.8750     0.0000     0.0000     5.5150     8.3590   419.2900   -12.3520     7.7840    24.9290     7.1010 
  185.0000     0.0000     0.0000     6.1430     9.5540   413.2500   -12.5380     7.7420    24.7160     7.0950 
  185.1250     0.0000     0.0000     6.6050    10.6700   414.6110   -12.7200     7.7380    24.5360     8.5930 
  185.2500     0.0000     0.0000     6.8180    10.3550   415.6820   -12.9450     7.7170    24.4030    13.0940 
  185.3750     0.0000     0.0000     7.0420     9.9490   416.2690   -13.0700     7.6750    24.4030    17.8520 
  185.5000     0.0000     0.0000     7.2430    10.1360   417.2750   -12.9760     7.6520    24.4030    15.3550 
  185.6250     0.0000     0.0000     7.4450     9.7240   417.2810   -12.8700     7.5900    24.4030    11.3590 
  185.7500     0.0000     0.0000     7.6460     9.4750   417.4620   -12.8270     7.5080    24.4040    11.8620 
  185.8750     0.0000     0.0000     7.6460     9.0500   418.2940   -12.7610     7.4320    24.4040    13.7650 
  186.0000     0.0000     0.0000     7.4450     9.1940   418.3000   -12.6690     7.3230    24.4040    11.7690 
  186.1250     0.0000     0.0000     7.2450     9.3390   417.3060   -12.6680     7.2410    24.4040    10.2720 
  186.2500     0.0000     0.0000     7.2450     9.3390   417.3130   -12.7680     7.2190    24.5040     9.3740 
  186.3750     0.0000     0.0000     7.2450     9.1400   415.3500   -12.9060     7.1290    24.5040    11.6500 
  186.5000     0.0000     0.0000     7.2450     9.1400   415.3250   -13.0630     7.0740    24.5040    12.1460 
  186.6250     0.0000     0.0000     7.1280     9.1410   415.3310   -13.1700     6.9440    24.4200    11.2400 
  186.7500     0.0000     0.0000     7.2650     9.2740   416.0110   -13.3760     6.8290    24.4930    10.2340 
  186.8750     0.0000     0.0000     7.5310     9.7880   416.3440   -13.4690     6.7540    24.4060    10.7300 
  187.0000     0.0000     0.0000     7.9570    10.2590   415.3500   -13.4690     6.7460    24.4060    11.6260 
  187.1250     0.0000     0.0000     8.2960    10.7450   415.9310   -13.4170     6.7050    24.4060    11.9220 
  187.2500     0.0000     0.0000     8.6100    11.1110   415.3630   -13.3040     6.6610    24.4600    12.6180 
  187.3750     0.0000     0.0000     8.8540    11.1460   410.4150   -13.0910     6.6390    24.5060    16.3180 
  187.5000     0.0000     0.0000     8.8550    10.9630   406.3430   -12.8790     6.6020    24.5060    21.2200 
  187.6250     0.0000     0.0000     9.4900    12.1540   404.2010   -12.8670     6.5060    24.5060    30.7270 
  187.7500     0.0000     0.0000     9.4580    13.8820   401.0940   -12.8670     6.4420    24.5060    30.3220 
  187.8750     0.0000     0.0000    10.0610    15.1330   398.3940   -12.9290     6.3340    24.6920    19.3030 
  188.0000     0.0000     0.0000    11.0770    16.7850   391.8920   -13.2370     6.1830    24.6590    16.6950 
  188.1250     0.0000     0.0000    13.0940    18.2060   387.7890   -13.5690     5.9860    24.5030    34.2130 
  188.2500     0.0000     0.0000    15.2340    19.1110   384.4130   -13.7510     5.9440    24.4080    70.3560 
  188.3750     0.0000     0.0000    24.9210    26.7390   385.8490   -13.7890     5.9460    24.2910    84.6990 
  188.5000     0.0000     0.0000    28.6890    42.4040   391.4340   -13.7040     6.0040    24.2090   367.4150 
  188.6250     0.0000     0.0000    33.7240    50.0990   401.7830   -13.5660     5.9760    24.2100   421.4530 
  188.7500     0.0000     0.0000    43.6130    54.2340   419.8110   -13.4660     5.9310    24.1230   551.5040 
  188.8750     0.0000     0.0000    38.8450    49.5930   423.9590   -13.3660     5.8520    24.2100   186.4960 
  189.0000     0.0000     0.0000    34.6960    58.0800   427.4500   -13.4360     5.8790    24.3420   100.5110 
  189.1250     0.0000     0.0000    39.6630    59.6510   424.5720   -13.4660     5.9410    24.6170   149.5660 
  189.2500     0.0000     0.0000    49.8270    81.9120   421.5800   -13.8990     6.0040    24.9070   206.6050 
  189.3750     0.0000     0.0000    64.6330    92.6550   414.5080   -14.4890     5.9820    25.0060   235.6410 
