~V
VERS. 2.00: Ver 2.00
~W
STRT.M 80.0000:
STOP.M 287.0000:
STEP.M 0.1250:
NULL. -999.2500:
UWI. жи32:
~C
DEPT.M :
DEN.GM/CC :
CNL.V/V :
RI. :
RML.OHMM :
AC.US/MT :
SP.MV :
GR.API :
CALI.CM :
RXO.OHMM :
~A
# ...
  198.6250     0.0000     0.0000    46.4320    68.1750   420.9310   -19.5050     6.6650    24.8230    78.3110 
  198.7500     0.0000     0.0000    49.8830    72.5070   417.3170   -19.3660     6.6760    24.7270    99.3950 
  198.8750     0.0000     0.0000    53.5030    77.7270   411.4280   -19.2920     6.6120    24.7600    95.3790 
  199.0000     0.0000     0.0000    54.7310    81.1200   401.5440   -19.2050     6.5650    24.8240   102.4070 
  199.1250     0.0000     0.0000    54.7930    81.2540   398.9560   -19.1650     6.5840    24.8240   115.4590 
  199.2500     0.0000     0.0000    53.7890    78.1250   399.8090   -19.1500     6.6650    24.7950   108.4320 
  199.3750     0.0000     0.0000    53.3170    76.2170   416.0780   -19.2640     6.6250    24.7330    92.3680 
  199.5000     0.0000     0.0000    53.1070    74.2930   424.9750   -19.3650     6.5820    24.8160    77.3080 
  199.6250     0.0000     0.0000    52.0640    72.0320   427.1470   -19.7410     6.5460    24.7530    84.3370 
  199.7500     0.0000     0.0000    52.6910    71.9070   427.9880   -19.5650     6.5970    24.7250    75.3010 
  199.8750     0.0000     0.0000    55.6070    77.3000   426.9940   -19.3900     6.6590    24.7260    65.2610 
  200.0000     0.0000     0.0000    58.2480    92.8460   426.3180   -19.1340     6.6450    24.7260    82.3290 
  200.1250     0.0000     0.0000    64.7850    99.9840   425.0760   -18.9630     6.6260    24.7260   112.4500 
  200.2500     0.0000     0.0000    64.8650    98.9880   423.0500   -18.9630     6.6470    24.7260   141.5670 
  200.3750     0.0000     0.0000    63.0730    96.6630   418.9660   -18.9630     6.7290    24.7270   151.6080 
  200.5000     0.0000     0.0000    61.1100    93.7490   414.8630   -18.8080     6.8910    24.6530   137.5520 
  200.6250     0.0000     0.0000    57.2020    90.0880   406.8910   -18.2310     6.9850    24.7270   138.5570 
  200.7500     0.0000     0.0000    49.9580    66.2190   397.6750   -17.8290     6.9330    24.7270   146.5890 
  200.8750     0.0000     0.0000    43.5150    62.6390   382.1860   -17.4160     6.9050    24.7420   109.4400 
  201.0000     0.0000     0.0000    37.0240    51.1420   317.7730   -17.0310     6.9730    24.8900    57.2300 
  201.1250     0.0000     0.0000    35.3160    43.6470   291.8600   -16.7570     7.0040    24.9270    65.2630 
  201.2500     0.0000     0.0000    35.5950    44.0320   282.6750   -16.4790     7.0250    24.9270    55.2230 
  201.3750     0.0000     0.0000    34.3390    44.4420   313.7060   -16.3550     7.0250    24.8620    48.1940 
  201.5000     0.0000     0.0000    30.5550    41.2040   333.4430   -16.2880     6.9780    24.7390    41.1660 
  201.6250     0.0000     0.0000    27.8870    35.5380   349.1420   -16.3550     6.9050    24.6290    30.1220 
  201.7500     0.0000     0.0000    28.6130    35.1190   371.3320   -16.3550     6.9690    24.6290    32.1300 
  201.8750     0.0000     0.0000    31.1410    37.2460   370.0460   -16.4550     6.9990    24.6690    52.2110 
  202.0000     0.0000     0.0000    32.9930    44.4520   365.1570   -16.5310     6.9880    24.7290    79.3210 
  202.1250     0.0000     0.0000    33.1920    43.5070   360.5280   -16.7210     6.9660    24.7290    67.2730 
  202.2500     0.0000     0.0000    31.8670    42.8820   353.0900   -16.6660     6.9850    24.7300    42.1710 
  202.3750     0.0000     0.0000    32.8360    45.6180   337.1740   -16.3650     6.9650    24.7300    52.2120 
  202.5000     0.0000     0.0000    35.1970    52.8730   321.9210   -15.4530     6.9390    24.7300    49.2000 
  202.6250     0.0000     0.0000    39.6320    57.8430   293.8730   -15.0400     6.8770    24.7300    71.2900 
  202.7500     0.0000     0.0000    31.8650    52.4030   264.3150   -14.5070     6.8970    24.8300   111.4540 
  202.8750     0.0000     0.0000    30.4890    42.7830   280.1870   -13.5860     6.9420    24.9390   166.6790 
  203.0000     0.0000     0.0000    24.5830    13.8210   299.2800   -12.8630     7.0220    25.2560   158.6470 
  203.1250     0.0000     0.0000     6.4910     9.2430   338.8980   -11.9420     7.1440    25.5040   109.4460 
  203.2500     0.0000     0.0000     4.8720     8.3290   404.8200   -11.3410     7.2280    26.0620    38.1560 
  203.3750     0.0000     0.0000     5.3040     8.6250   415.1160   -11.6910     7.4820    26.2660     5.0210 
  203.5000     0.0000     0.0000     5.7900     8.8260   412.0090   -12.5530     7.6170    25.7520    12.0490 
  203.6250     0.0000     0.0000     6.5920     8.6270   449.5050   -13.7120     7.7830    24.9350    21.0860 
  203.7500     0.0000     0.0000     5.9630     8.4270   479.9410   -15.2440     7.9390    24.5770    17.0700 
  203.8750     0.0000     0.0000     5.6710     8.0920   470.9680   -16.0280     8.0920    24.3480    11.0450 
  204.0000     0.0000     0.0000     5.4900     7.6670   446.9680   -16.4280     8.1110    24.4340     8.0330 
  204.1250     0.0000     0.0000     5.3770     7.4280   422.3710   -16.6180     8.1220    24.4340     8.0330 
  204.2500     0.0000     0.0000     5.2710     7.2290   416.2760   -16.8120     8.1190    24.6420     8.0330 
  204.3750     0.0000     0.0000     5.3310     7.2670   412.1730   -16.9800     8.0740    24.7910     8.0330 
  204.5000     0.0000     0.0000     5.4720     7.4300   410.2250   -17.1480     8.0620    24.9250     8.0330 
  204.6250     0.0000     0.0000     5.4720     7.9180   406.9550   -17.0700     7.9820    24.9330     8.0330 
  204.7500     0.0000     0.0000     5.6730     8.5440   401.1690   -17.3070     7.7710    25.1320     8.0330 
  204.8750     0.0000     0.0000     6.2130    11.8370   395.5210   -17.5970     7.5600    25.2310     8.0330 
  205.0000     0.0000     0.0000     8.0430    15.1050   387.1020   -18.1130     7.3110    25.2250     9.0370 
  205.1250     0.0000     0.0000    10.5950    17.6850   384.5670   -18.4270     7.1470    25.1630    15.0620 
  205.2500     0.0000     0.0000    13.3070    20.0460   382.3920   -19.0350     6.9640    24.9080    22.0910 
  205.3750     0.0000     0.0000    15.7590    21.5290   383.2040   -19.1550     6.8380    24.4560    27.1120 
  205.5000     0.0000     0.0000    17.1580    22.9470   385.3440   -19.3630     6.7600    24.2900    30.1250 
  205.6250     0.0000     0.0000    18.0720    24.8800   387.6830   -19.4690     6.7030    24.2380    32.1330 
  205.7500     0.0000     0.0000    18.8030    26.1690   388.9580   -19.5950     6.6360    24.1390    32.1330 
  205.8750     0.0000     0.0000    19.8350    27.0720   391.7650   -19.7830     6.5930    24.0750    32.1330 
  206.0000     0.0000     0.0000    20.6770    28.1030   391.3000   -19.9570     6.5480    24.0400    32.1330 
  206.1250     0.0000     0.0000    21.1030    29.6500   391.3060   -19.9570     6.5670    23.9410    34.1420 
  206.2500     0.0000     0.0000    22.1310    29.9080   391.3130   -20.0570     6.5680    23.8490    38.1590 
  206.3750     0.0000     0.0000    22.3360    26.5560   389.6750   -19.9570     6.6710    23.7420    39.1630 
  206.5000     0.0000     0.0000    21.3910    24.6100   387.2840   -19.5430     6.7530    23.6430    38.1590 
  206.6250     0.0000     0.0000    20.0380    23.1080   386.1280   -19.2300     6.7980    23.6430    31.1300 
  206.7500     0.0000     0.0000    18.6500    21.7540   384.3380   -18.9860     6.7870    23.6860    23.0960 
  206.8750     0.0000     0.0000    18.1700    21.9820   385.7970   -18.5580     6.7670    23.7630    21.0880 
  207.0000     0.0000     0.0000    18.8770    24.8810   389.7410   -18.2520     6.7110    23.8430    28.1170 
  207.1250     0.0000     0.0000    23.6740    32.1220   391.3560   -18.3880     6.6290    23.7760    42.1760 
  207.2500     0.0000     0.0000    27.3260    38.6170   390.5140   -18.5520     6.5560    23.7440    53.2230 
  207.3750     0.0000     0.0000    29.9770    43.0570   387.4070   -18.7530     6.4720    23.7440    62.2610 
  207.5000     0.0000     0.0000    32.8290    44.2170   385.2960   -18.6520     6.4150    23.8430    71.2990 
  207.6250     0.0000     0.0000    30.7360    39.9630   383.7820   -18.4910     6.3940    23.8440    84.3540 
