~V
VERS. 2.00: Ver 2.00
~W
STRT.M 80.0000:
STOP.M 287.0000:
STEP.M 0.1250:
NULL. -999.2500:
UWI. жи32:
~C
DEPT.M :
DEN.GM/CC :
CNL.V/V :
RI. :
RML.OHMM :
AC.US/MT :
SP.MV :
GR.API :
CALI.CM :
RXO.OHMM :
~A
# ...
  244.2500     0.0000     0.0000    13.1760    18.4450   237.7890    -4.1840     6.3140    25.1320     9.1300 
  244.3750     0.0000     0.0000    12.9760    18.6010   236.4470    -4.1470     6.2210    25.0990     9.5260 
  244.5000     0.0000     0.0000    12.7940    18.6460   234.5630    -4.0640     6.2010    25.0990    10.1230 
  244.6250     0.0000     0.0000    12.3800    18.6470   234.2310    -4.0640     6.1810    25.1020    11.8290 
  244.7500     0.0000     0.0000    11.9580    17.8580   237.1990    -4.1590     6.1850    25.2070    23.0040 
  244.8750     0.0000     0.0000    11.4770    17.0120   238.2440    -4.2150     6.2010    25.2990    24.6080 
  245.0000     0.0000     0.0000    11.0690    16.2010   240.4380    -4.3720     6.2210    25.2990    23.1900 
  245.1250     0.0000     0.0000    10.2730    15.5740   242.2560    -4.4740     6.1910    25.1450    22.0730 
  245.2500     0.0000     0.0000     9.6440    15.1470   243.2620    -4.6060     6.1020    24.9020    23.9800 
  245.3750     0.0000     0.0000     9.3910    14.4460   244.2690    -4.7920     6.1000    24.4040    23.8710 
  245.5000     0.0000     0.0000     9.1640    14.0460   245.9870    -4.9650     6.0820    24.3050    23.7630 
  245.6250     0.0000     0.0000     8.9630    13.8460   249.9900    -5.0650     6.1270    24.4050    22.4450 
  245.7500     0.0000     0.0000     8.4920    13.8470   252.2760    -5.0650     6.1480    24.6040    16.5970 
  245.8750     0.0000     0.0000     8.2350    13.8470   257.4290    -5.0640     6.2050    24.4630    15.1850 
  246.0000     0.0000     0.0000     8.0050    13.8210   261.9390    -5.0640     6.2590    24.4050    11.4450 
  246.1250     0.0000     0.0000     7.9610    13.6480   258.9140    -5.0640     6.2800    24.5700     9.2210 
  246.2500     0.0000     0.0000     8.1620    13.2950   250.7980    -5.0640     6.2590    24.6050     8.0060 
  246.3750     0.0000     0.0000     7.6050    12.9820   263.9830    -5.1640     6.2350    24.6050     7.0920 
  246.5000     0.0000     0.0000     7.2320    12.8490   273.9840    -5.1990     6.2210    23.9210     7.0850 
  246.6250     0.0000     0.0000     7.1590    12.7580   280.3110    -5.3250     6.2270    24.1080     7.1790 
  246.7500     0.0000     0.0000     7.1590    12.6500   285.4010    -5.4620     6.2680    24.1720     7.5740 
  246.8750     0.0000     0.0000     7.1590    12.6510   287.3440    -5.5640     6.2970    24.0330     7.9700 
  247.0000     0.0000     0.0000     7.3600    12.6520   289.7450    -5.6860     6.3300    24.0090     8.0630 
  247.1250     0.0000     0.0000     7.3600    12.6090   291.3560    -5.8430     6.3400    24.0090     8.0570 
  247.2500     0.0000     0.0000     7.3610    12.6530   292.3620    -5.9120     6.3440    23.9720     7.6460 
  247.3750     0.0000     0.0000     7.5400    12.6530   285.8560    -5.9650     6.3750    24.0760     7.6380 
  247.5000     0.0000     0.0000     7.5620    12.4730   274.7000    -6.0010     6.3750    24.2150     7.9330 
  247.6250     0.0000     0.0000     7.9670    12.4540   269.5540    -6.0640     6.4020    24.3310    11.4490 
  247.7500     0.0000     0.0000     8.1480    12.6550   266.3320    -6.0640     6.4410    24.4250    16.6760 
  247.8750     0.0000     0.0000     7.9640    12.7750   261.2330    -6.0640     6.4800    24.6520    26.8350 
  248.0000     0.0000     0.0000     8.2070    13.0570   252.1500    -6.0640     6.5200    24.9590    23.9090 
  248.1250     0.0000     0.0000     8.4740    12.8580   250.4060    -6.0640     6.6010    25.0410    26.5180 
  248.2500     0.0000     0.0000     8.9000    13.5490   250.9160    -6.0640     6.6430    24.7260    24.8990 
  248.3750     0.0000     0.0000     9.0470    13.8600   250.4190    -5.9630     6.7050    24.3100    22.5770 
  248.5000     0.0000     0.0000     9.3610    14.6190   250.4250    -5.9630     6.7480    24.3230    23.5760 
  248.6250     0.0000     0.0000     9.9780    14.8570   249.4310    -5.8620     6.7590    24.5090    27.6940 
  248.7500     0.0000     0.0000    10.4890    15.8670   251.4370    -5.8620     6.7770    24.4730    25.2700 
  248.8750     0.0000     0.0000    10.9030    16.2940   254.5820    -5.9680     6.7990    24.3590    19.5260 
  249.0000     0.0000     0.0000    11.2560    16.8670   259.7350    -6.1630     6.7210    24.3110    22.6390 
  249.1250     0.0000     0.0000    11.4300    16.8680   261.4560    -6.1630     6.7400    24.3870    21.7250 
  249.2500     0.0000     0.0000    11.5790    16.8680   259.4620    -6.0620     6.7590    24.4110    20.1070 
  249.3750     0.0000     0.0000    11.7800    17.1330   256.8180    -6.0620     6.7730    24.2600    20.0990 
  249.5000     0.0000     0.0000    11.9810    17.4460   254.7070    -6.0620     6.7430    24.4180    22.8080 
  249.6250     0.0000     0.0000    12.1820    17.4710   253.4810    -6.0900     6.7230    24.5110    25.8200 
  249.7500     0.0000     0.0000    11.9820    17.2700   253.5020    -6.1950     6.6530    24.5110    25.0060 
  249.8750     0.0000     0.0000    12.0090    17.0720   254.4940    -6.2730     6.5410    24.4850    22.0810 
  250.0000     0.0000     0.0000    12.1830    17.0730   254.5000    -6.5880     6.5790    24.4450    19.7590 
  250.1250     0.0000     0.0000    12.3840    17.0730   254.3090    -6.6620     6.5990    24.6620    21.4620 
  250.2500     0.0000     0.0000    12.3840    17.1770   253.5120    -6.6620     6.5790    25.2690    19.7440 
  250.3750     0.0000     0.0000    12.5850    17.2750   251.8830    -6.6620     6.5380    25.3160    21.0440 
  250.5000     0.0000     0.0000    12.4740    17.4760   249.5250    -6.6620     6.4930    25.0010    20.3320 
  250.6250     0.0000     0.0000    12.5850    17.5650   248.2400    -6.6620     6.4460    25.0100    18.0110 
  250.7500     0.0000     0.0000    12.7010    17.6770   247.5370    -6.7120     6.4080    25.0880    18.6060 
  250.8750     0.0000     0.0000    12.9870    17.8780   246.5440    -6.7480     6.3820    24.3140    17.3920 
  251.0000     0.0000     0.0000    12.9880    18.1310   247.5500    -6.5610     6.3820    24.4140    19.3960 
  251.1250     0.0000     0.0000    13.0400    18.2410   247.7420    -6.4600     6.4430    24.4140    22.5060 
  251.2500     0.0000     0.0000    13.1890    17.5750   248.5620    -6.5440     6.4900    24.4140    31.0470 
  251.3750     0.0000     0.0000    13.0700    17.4800   247.5690    -6.9940     6.5410    24.4140    34.1560 
  251.5000     0.0000     0.0000    12.8070    17.6360   247.5750    -7.3190     6.5700    24.4870    15.5440 
  251.6250     0.0000     0.0000    12.5910    17.7720   245.7140    -7.3620     6.5810    24.5140    12.6200 
  251.7500     0.0000     0.0000    12.8200    18.0830   245.5910    -7.4140     6.5670    24.5140    13.5180 
  251.8750     0.0000     0.0000    12.9890    18.2840   248.7230    -7.3620     6.5610    24.6140    16.5270 
  252.0000     0.0000     0.0000    12.5040    18.2840   253.4230    -7.3330     6.6200    24.5300    19.9380 
  252.1250     0.0000     0.0000    12.1870    17.6030   259.0290    -7.2200     6.7020    24.6150    25.5600 
  252.2500     0.0000     0.0000    11.6490    16.9750   262.8940    -7.3140     6.7600    24.6150    27.3620 
  252.3750     0.0000     0.0000    11.4030    16.2840   264.3130    -7.3610     6.7730    24.6830    23.3330 
  252.5000     0.0000     0.0000    11.5790    15.6840   266.4540    -7.2820     6.8090    24.7870    22.5280 
  252.6250     0.0000     0.0000    11.7860    15.4840   264.6310    -7.1700     6.8200    24.8150    17.3850 
  252.7500     0.0000     0.0000    11.7860    15.6850   264.5640    -7.0580     6.8200    24.8150    20.2930 
  252.8750     0.0000     0.0000    11.7660    15.5650   262.0490    -6.9590     6.8400    24.9140    15.2600 
  253.0000     0.0000     0.0000    11.5860    15.4860   260.3420    -6.9590     6.8410    24.9150    13.9520 
  253.1250     0.0000     0.0000    11.3860    15.4860   260.0880    -6.9120     6.6610    24.8250    22.1800 
  253.2500     0.0000     0.0000    11.7260    15.4870   261.2250    -6.9100     6.7050    24.9130    20.3630 
