~V
VERS. 2.00: Ver 2.00
~W
STRT.M 80.0000:
STOP.M 287.0000:
STEP.M 0.1250:
NULL. -999.2500:
UWI. жи32:
~C
DEPT.M :
DEN.GM/CC :
CNL.V/V :
RI. :
RML.OHMM :
AC.US/MT :
SP.MV :
GR.API :
CALI.CM :
RXO.OHMM :
~A
# ...
  107.3750     0.0000     0.0000     4.0780     5.1380   458.2410   -21.7710     6.5690    24.5700     8.1110 
  107.5000     0.0000     0.0000     4.0780     4.9410   462.2620   -21.9240     6.5380    24.5700     8.1080 
  107.6250     0.0000     0.0000     4.0780     4.9390   465.4310   -22.0460     6.5160    24.6700     8.1040 
  107.7500     0.0000     0.0000     3.8780     4.8920   467.7070   -22.1940     6.4720    24.8180     8.1000 
  107.8750     0.0000     0.0000     3.6190     4.3590   470.6910   -21.9280     6.4090    25.0480     8.0960 
  108.0000     0.0000     0.0000     3.2750     3.8930   469.5100   -16.6030     6.3940    25.2400     7.2890 
  108.1250     0.0000     0.0000     2.5630     3.1410   464.3600   -15.7420     6.3780    25.4650     5.4780 
  108.2500     0.0000     0.0000     2.2690     3.1420   456.9360   -15.1300     6.3580    25.4650     3.3650 
  108.3750     0.0000     0.0000     2.2700     3.1430   452.6910   -15.7160     6.3200    25.2100     4.9680 
  108.5000     0.0000     0.0000     2.2700     3.1430   451.4250   -16.5350     6.2640    24.8430     5.5660 
  108.6250     0.0000     0.0000     2.4710     3.3440   449.9470   -17.1790     6.1950    24.6580     5.3620 
  108.7500     0.0000     0.0000     2.6170     3.5920   449.4380   -17.4390     6.1120    24.5200     5.9610 
  108.8750     0.0000     0.0000     2.9040     4.0190   448.2310   -18.0070     6.0780    24.4400     6.9610 
  109.0000     0.0000     0.0000     3.0750     4.5460   445.7860   -18.6380     6.0690    24.2750     7.8600 
  109.1250     0.0000     0.0000     3.3880     4.7470   443.0130   -19.2880     6.0580    24.2750     7.8560 
  109.2500     0.0000     0.0000     3.6150     4.7480   438.4620   -19.5880     5.9900    24.2750     7.5510 
  109.3750     0.0000     0.0000     3.8810     4.9480   439.4690   -19.7710     5.9780    24.2930     7.5470 
  109.5000     0.0000     0.0000     3.8810     4.9520   441.3820   -20.2640     5.9580    24.3750     8.0450 
  109.6250     0.0000     0.0000     3.8930     5.3800   443.4280   -21.1940     5.9380    24.3750     8.7440 
  109.7500     0.0000     0.0000     4.0450     5.8070   443.4150   -22.1080     5.9180    24.3750     9.4430 
  109.8750     0.0000     0.0000     4.0830     6.1510   440.1240   -22.5920     5.9180    24.3760     9.1380 
  110.0000     0.0000     0.0000     4.0830     6.2610   432.5000   -22.5920     5.9890    24.2940     8.7320 
  110.1250     0.0000     0.0000     4.2840     6.3520   433.9180   -22.4920     6.0720    24.2770     8.3270 
  110.2500     0.0000     0.0000     4.2850     6.3530   437.0620   -22.4920     6.1350    24.3720     7.7210 
  110.3750     0.0000     0.0000     4.4740     6.3680   440.5190   -22.4910     6.1390    24.2770     7.7170 
  110.5000     0.0000     0.0000     4.4860     6.1540   439.5250   -22.6840     6.1600    24.2770     8.1150 
  110.6250     0.0000     0.0000     4.4870     6.1550   437.6030   -23.0980     6.2220    24.2930     8.3120 
  110.7500     0.0000     0.0000     4.4870     6.1550   435.4920   -23.3520     6.2850    24.3770     8.3070 
  110.8750     0.0000     0.0000     4.4870     6.1560   436.1310   -23.6240     6.3370    24.3770     8.3030 
  111.0000     0.0000     0.0000     4.4870     6.0290   438.8610   -23.9380     6.4020    24.3770     8.3000 
  111.1250     0.0000     0.0000     4.2860     5.8220   442.0050   -24.1720     6.4730    24.3780     8.2960 
  111.2500     0.0000     0.0000     4.2870     5.5580   444.5630   -24.5650     6.5530    24.3780     8.3920 
  111.3750     0.0000     0.0000     4.4880     5.5580   443.3340   -24.7830     6.5990    24.4550     8.5890 
  111.5000     0.0000     0.0000     4.4880     5.5590   442.1620   -25.0910     6.6810    24.4780     8.7860 
  111.6250     0.0000     0.0000     4.4800     5.5600   444.5430   -25.1990     6.8940    24.4780     8.7810 
  111.7500     0.0000     0.0000     4.2880     5.3600   446.6830   -25.4170     6.9870    24.5770     8.7780 
  111.8750     0.0000     0.0000     4.2880     5.3610   447.5940   -25.5950     7.0900    24.5770     8.7740 
  112.0000     0.0000     0.0000     4.2880     5.3620   446.6000   -25.7950     7.1530    24.5840     8.5690 
  112.1250     0.0000     0.0000     4.2880     5.2990   446.6060   -25.5330     7.1980    24.5450     8.3640 
  112.2500     0.0000     0.0000     4.0870     5.4170   445.6130   -25.3210     7.2530    24.3800     8.5610 
  112.3750     0.0000     0.0000     4.0880     5.5630   446.6190   -24.9080     7.3010    24.3170     8.5570 
  112.5000     0.0000     0.0000     3.8870     5.5640   449.4860   -24.3960     7.4290    24.1810     8.5540 
  112.6250     0.0000     0.0000     3.6860     5.5650   453.1320   -23.7720     7.5730    24.1820     8.5500 
  112.7500     0.0000     0.0000     3.6400     5.3020   455.7750   -22.9700     7.6690    24.2460     8.5460 
  112.8750     0.0000     0.0000     3.4850     5.1660   458.7810   -21.8650     7.8240    24.3580     7.7390 
  113.0000     0.0000     0.0000     3.2190     4.5430   460.6500   -20.1920     7.9500    24.2820     6.5310 
  113.1250     0.0000     0.0000     2.8210     3.8320   462.1960   -15.9480     8.0810    24.4830     4.7210 
  113.2500     0.0000     0.0000     2.6070     3.2090   462.6630   -15.2210     8.0620    24.4810     4.0150 
  113.3750     0.0000     0.0000     2.4810     2.9680   460.8120   -15.1750     7.9800    24.4900     5.1150 
  113.5000     0.0000     0.0000     2.4810     2.7680   457.6750   -15.2650     7.9610    24.5800     5.0110 
  113.6250     0.0000     0.0000     2.4560     2.9690   461.8020   -15.3750     7.9380    24.5040     4.6050 
  113.7500     0.0000     0.0000     2.2800     2.9700   466.8740   -15.5710     7.9410    24.4810     6.0060 
  113.8750     0.0000     0.0000     2.1420     2.9700   465.6940   -14.7420     7.9090    24.5710     5.0990 
  114.0000     0.0000     0.0000     2.0800     2.6680   462.2810   -13.9190     7.8330    24.7710     4.0930 
  114.1250     0.0000     0.0000     2.0800     2.5720   460.8600   -13.4330     7.6650    24.9780     4.8910 
  114.2500     0.0000     0.0000     2.0800     2.5720   458.0590   -13.2710     7.6210    24.8790     4.1850 
  114.3750     0.0000     0.0000     2.0800     2.5730   454.9520   -13.9120     7.6010    24.7500     4.4820 
  114.5000     0.0000     0.0000     1.9790     2.7730   451.7250   -14.3500     7.5770    24.6810     4.4780 
  114.6250     0.0000     0.0000     1.8800     2.9740   452.7400   -15.2650     7.5150    24.4830     5.0770 
  114.7500     0.0000     0.0000     1.8800     2.9750   454.3080   -15.7690     7.4870    24.3990     5.6740 
  114.8750     0.0000     0.0000     1.8800     3.0190   454.7440   -15.5150     7.5030    24.3840     5.5700 
  115.0000     0.0000     0.0000     1.8800     3.0630   454.7500   -14.8440     7.6090    24.2870     5.6670 
  115.1250     0.0000     0.0000     1.8810     2.8640   454.7560   -13.4930     7.6610    24.2850     5.4620 
  115.2500     0.0000     0.0000     1.8810     2.7770   454.7630   -13.1190     7.6610    24.2850     4.5550 
  115.3750     0.0000     0.0000     1.8810     2.7780   453.7690   -12.6440     7.6000    24.2860     4.5520 
  115.5000     0.0000     0.0000     1.8810     2.7650   451.8900   -12.7430     7.5580    24.2860     4.9490 
  115.6250     0.0000     0.0000     1.8820     2.7790   446.7970   -13.2570     7.5410    24.3450     4.9450 
  115.7500     0.0000     0.0000     1.8820     2.8680   446.9040   -13.6700     7.5130    24.3850     5.0420 
  115.8750     0.0000     0.0000     1.8820     2.9800   451.0520   -13.8690     7.4900    24.5130     5.0380 
  116.0000     0.0000     0.0000     1.8820     2.9810   453.8000   -14.0210     7.4680    24.5840     5.1340 
  116.1250     0.0000     0.0000     1.9490     2.9820   455.3340   -14.1700     7.4210    24.7880     5.3310 
  116.2500     0.0000     0.0000     1.8830     2.9820   458.2560   -14.0430     7.3630    24.9640     5.3280 
  116.3750     0.0000     0.0000     1.8830     2.9830   459.8190   -13.9690     7.2200    25.1810     5.2230 
