~V
VERS. 2.00: Ver 2.00
~W
STRT.M 80.0000:
STOP.M 287.0000:
STEP.M 0.1250:
NULL. -999.2500:
UWI. жи32:
~C
DEPT.M :
DEN.GM/CC :
CNL.V/V :
RI. :
RML.OHMM :
AC.US/MT :
SP.MV :
GR.API :
CALI.CM :
RXO.OHMM :
~A
# ...
  216.8750     0.0000     0.0000     8.3390    10.3300   318.1460    -6.9110     6.8530    23.8250    20.9930 
  217.0000     0.0000     0.0000     7.9090     9.6960   290.3550    -6.8110     6.8040    23.6770    14.4640 
  217.1250     0.0000     0.0000     7.2820     9.6960   279.8630    -6.7320     6.7410    23.6570     7.4330 
  217.2500     0.0000     0.0000     7.3500     9.8180   276.8630    -6.7100     6.6790    23.6610     7.4330 
  217.3750     0.0000     0.0000     7.9420     9.4970   320.0710    -6.7400     6.5250    23.7670     7.3330 
  217.5000     0.0000     0.0000     8.2030     9.9910   340.5770    -6.8100     6.4310    23.8270     9.0400 
  217.6250     0.0000     0.0000     8.5090    10.6170   364.0510    -7.0100     6.2600    23.7610    12.1540 
  217.7500     0.0000     0.0000     8.6550    10.9010   373.2190    -7.2100     6.1810    23.6310    16.2720 
  217.8750     0.0000     0.0000     9.0820    11.5020   379.3760    -7.4240     6.0660    23.5620    19.8880 
  218.0000     0.0000     0.0000     9.5140    10.9090   381.9000    -7.4110     5.9970    23.5620    21.8970 
  218.1250     0.0000     0.0000     8.9120    11.1120   383.7820    -7.2730     5.9530    23.6610    23.5050 
  218.2500     0.0000     0.0000     8.9580    11.5880   368.8700    -7.0610     5.9140    23.7720    26.6190 
  218.3750     0.0000     0.0000     9.7850    12.9030   360.1040    -6.8090     5.8980    23.9610    30.9380 
  218.5000     0.0000     0.0000    10.6120    14.0840   347.9400    -6.5360     5.9140    23.8940    34.6550 
  218.6250     0.0000     0.0000    11.0800    15.0210   309.0210    -6.4070     5.9920    23.7790    34.0520 
  218.7500     0.0000     0.0000    11.6660    15.8470   293.8970    -6.3080     6.1160    23.6000    34.4540 
  218.8750     0.0000     0.0000    12.1260    16.4720   284.2820    -6.1370     6.2270    23.2250    36.0610 
  219.0000     0.0000     0.0000    12.5180    16.1270   279.3100    -5.9660     6.3090    23.1660    35.9610 
  219.1250     0.0000     0.0000    12.3270    16.0080   275.2950    -5.8390     6.4510    23.1660    36.9660 
  219.2500     0.0000     0.0000    11.5190    15.9140   277.8800    -5.6610     6.5420    23.2260    39.2760 
  219.3750     0.0000     0.0000    10.1190    15.1870   296.9410    -5.4480     6.5070    23.2660    40.7830 
  219.5000     0.0000     0.0000     9.3680    13.3280   313.9750    -5.3040     6.4720    23.2660    28.6290 
  219.6250     0.0000     0.0000     8.3870    11.7910   329.1020    -5.1230     6.4570    23.5710    20.9940 
  219.7500     0.0000     0.0000     7.3780     9.8870   338.5990    -5.1030     6.4720    23.8190    15.8710 
  219.8750     0.0000     0.0000     5.9570     8.9340   347.3580    -5.1020     6.5120    23.8880    11.0500 
  220.0000     0.0000     0.0000     5.0910     8.1060   360.2710    -5.1850     6.5320    23.6710     7.9360 
  220.1250     0.0000     0.0000     4.6810     7.3090   363.3460    -4.9720     6.5520    23.5970     5.9270 
  220.2500     0.0000     0.0000     4.4980     6.9090   360.8200    -4.7600     6.5740    23.4070     5.8260 
  220.3750     0.0000     0.0000     4.4980     6.7090   352.4690    -4.7010     6.5900    23.3670     6.7300 
  220.5000     0.0000     0.0000     4.6430     6.8170   345.0420    -4.7010     6.5720    23.3680     7.4340 
  220.6250     0.0000     0.0000     4.4140     7.1110   343.0310    -4.6000     6.5030    23.4670     7.5340 
  220.7500     0.0000     0.0000     4.2440     7.1550   343.0370    -4.5000     6.4600    23.4680     7.2330 
  220.8750     0.0000     0.0000     4.0980     7.1120   343.4950    -4.4340     6.4070    23.4260     6.5300 
  221.0000     0.0000     0.0000     4.0980     7.1130   343.3110    -4.3990     6.4490    23.4010     5.8260 
  221.1250     0.0000     0.0000     4.0980     6.9970   343.8590    -4.3990     6.4920    23.4680     5.6250 
  221.2500     0.0000     0.0000     4.0980     6.9140   344.0630    -4.1980     6.4520    23.4680     5.6260 
  221.3750     0.0000     0.0000     4.0990     6.5720   343.2140    -4.0980     6.4570    23.4690     5.5250 
  221.5000     0.0000     0.0000     3.9720     6.5150   342.0750    -4.1620     6.4650    23.3690     5.0230 
  221.6250     0.0000     0.0000     3.7210     6.5160   343.1880    -4.2980     6.4530    23.3690     4.8220 
  221.7500     0.0000     0.0000     3.6980     6.5160   348.9700    -4.0530     6.4090    23.3700     5.3240 
  221.8750     0.0000     0.0000     3.6980     6.4550   361.3850    -3.7960     6.2450    23.3700     5.5250 
  222.0000     0.0000     0.0000     3.6980     6.3120   376.9550    -3.6960     6.1420    23.3700     4.4200 
  222.1250     0.0000     0.0000     3.6990     6.1180   383.8780    -3.6830     6.1930    23.4700     4.1190 
  222.2500     0.0000     0.0000     3.6990     5.9180   390.9630    -3.5950     6.2140    23.9080     4.5210 
  222.3750     0.0000     0.0000     3.4980     5.9190   391.1190    -3.4950     6.2360    24.2310     4.5210 
  222.5000     0.0000     0.0000     3.4990     5.7190   388.8720    -3.4950     6.2630    24.5040     4.5210 
  222.6250     0.0000     0.0000     3.7000     5.7200   384.8530    -3.4950     6.2740    24.7880     4.5210 
  222.7500     0.0000     0.0000     3.7000     5.7200   380.5190    -3.4940     6.2540    24.8640     4.6210 
  222.8750     0.0000     0.0000     3.7000     6.1160   375.5570    -3.3940     6.2740    24.9540     4.6210 
  223.0000     0.0000     0.0000     3.9010     6.3220   367.9750    -3.3820     6.2940    24.9640     4.7220 
  223.1250     0.0000     0.0000     3.9840     6.5230   361.7790    -3.1930     6.2940    24.9640     5.0230 
  223.2500     0.0000     0.0000     4.1380     6.6560   355.5840    -3.1930     6.3140    24.9640     5.0230 
  223.3750     0.0000     0.0000     4.3030     6.8690   350.3810    -3.1930     6.3200    24.9080     5.0230 
  223.5000     0.0000     0.0000     4.4250     6.9260   345.1770    -3.1930     6.3350    24.8650     5.5250 
  223.6250     0.0000     0.0000     4.6780     7.0960   328.1250    -3.1920     6.3510    24.8650     6.0280 
  223.7500     0.0000     0.0000     4.7060     7.1270   321.1360    -3.2860     6.4060    24.8650     6.9320 
  223.8750     0.0000     0.0000     4.7060     7.1280   320.1940    -3.1930     6.4280    24.6670     7.7360 
  224.0000     0.0000     0.0000     4.9070     7.3280   320.6030    -3.2860     6.4500    24.6670     8.8410 
  224.1250     0.0000     0.0000     5.1900     7.3290   318.8150    -3.1920     6.4240    24.4680     8.5390 
  224.2500     0.0000     0.0000     5.4450     7.1300   316.4840    -3.1910     6.3760    24.2690     7.5350 
  224.3750     0.0000     0.0000     5.5100     7.1300   314.3820    -3.1910     6.4630    24.1520     6.3290 
  224.5000     0.0000     0.0000     5.5100     7.4470   309.6400    -3.2910     6.5670    24.0710     5.6260 
  224.6250     0.0000     0.0000     5.7850     7.7020   302.3140    -3.3600     6.7020    23.8720     7.7360 
  224.7500     0.0000     0.0000     6.0990     7.9880   294.2120    -3.3910     6.7650    23.8720    10.5490 
  224.8750     0.0000     0.0000     6.1130     8.1340   292.0750    -3.3910     6.7720    23.9170    13.6630 
  225.0000     0.0000     0.0000     6.3140     7.9260   290.2500    -3.3910     6.7720    24.1710    19.9930 
  225.1250     0.0000     0.0000     6.3150     7.7770   289.2560    -3.3780     6.7720    24.1960    18.1840 
  225.2500     0.0000     0.0000     6.3150     8.1360   286.7380    -3.2900     6.7920    24.4310    12.6590 
  225.3750     0.0000     0.0000     6.5160     8.2820   282.6350    -3.2900     6.7920    24.4700    11.9550 
  225.5000     0.0000     0.0000     6.7170     8.3370   280.5240    -3.2900     6.8160    24.5700    15.7730 
  225.6250     0.0000     0.0000     6.9180     8.4090   276.4210    -3.3270     6.8420    24.4710    18.4860 
  225.7500     0.0000     0.0000     6.9180     8.5060   275.2870    -3.4770     6.8580    24.3710    17.0790 
  225.8750     0.0000     0.0000     7.0170     8.5390   276.2940    -3.4900     6.8920    24.3280    14.6680 
