~V
VERS. 2.00: Ver 2.00
~W
STRT.M 80.0000:
STOP.M 287.0000:
STEP.M 0.1250:
NULL. -999.2500:
UWI. жи32:
~C
DEPT.M :
DEN.GM/CC :
CNL.V/V :
RI. :
RML.OHMM :
AC.US/MT :
SP.MV :
GR.API :
CALI.CM :
RXO.OHMM :
~A
# ...
  235.1250     0.0000     0.0000     7.6110     9.5870   276.0530    -3.8340     6.4570    24.6510    13.9680 
  235.2500     0.0000     0.0000     7.7390     9.6330   269.2580    -3.9470     6.4790    24.4370    12.1590 
  235.3750     0.0000     0.0000     7.7400     9.7890   267.7690    -4.0770     6.4710    24.2880     9.7480 
  235.5000     0.0000     0.0000     7.5650     9.7900   268.5280    -4.2430     6.4640    24.1090     8.4410 
  235.6250     0.0000     0.0000     7.5390     9.7900   272.5700    -4.3170     6.4420    23.9960     8.3410 
  235.7500     0.0000     0.0000     7.3390     9.7910   274.7870    -4.4780     6.4370    23.8860     8.3410 
  235.8750     0.0000     0.0000     7.3390     9.7910   274.4870    -4.4790     6.4920    23.8910     8.5420 
  236.0000     0.0000     0.0000     7.3390     9.9920   270.4060    -4.5610     6.5540    23.9240     8.9440 
  236.1250     0.0000     0.0000     7.3400    10.1260   264.4420    -4.4770     6.6670    24.1340    10.2500 
  236.2500     0.0000     0.0000     7.3400    10.3940   258.8130    -4.3770     6.7390    24.2890    11.1550 
  236.3750     0.0000     0.0000     7.3400    10.2370   257.8190    -4.3770     6.7880    24.5520    15.4760 
  236.5000     0.0000     0.0000     7.0630    10.0240   258.5430    -4.2930     6.8630    24.5880    15.1750 
  236.6250     0.0000     0.0000     6.7590     9.8280   261.6870    -4.2760     6.8400    24.4980    13.7680 
  236.7500     0.0000     0.0000     6.6030     9.4020   263.8270    -4.1750     6.8350    24.3370    10.3510 
  236.8750     0.0000     0.0000     6.5380     9.1960   266.9720    -4.1750     6.8350    24.1910     8.7430 
  237.0000     0.0000     0.0000     6.5380     8.9510   270.1160    -4.1750     6.8180    24.1910     8.2410 
  237.1250     0.0000     0.0000     6.6990     9.0670   271.2530    -4.0750     6.7950    24.1910     8.0400 
  237.2500     0.0000     0.0000     6.7390     9.4450   272.8620    -4.0550     6.7440    24.1920     7.7380 
  237.3750     0.0000     0.0000     6.9400     9.7590   272.8690    -3.9740     6.7560    24.0920     7.2360 
  237.5000     0.0000     0.0000     7.3420    10.0000   273.8750    -3.9060     6.7560    23.9930     6.8340 
  237.6250     0.0000     0.0000     7.5430    10.1900   273.8810    -3.8730     6.7560    23.9930     6.4320 
  237.7500     0.0000     0.0000     7.0380    10.2010   275.9090    -3.8730     6.7030    23.9930     6.2310 
  237.8750     0.0000     0.0000     6.7080     9.9820   278.0710    -3.9730     6.7040    23.9940     6.3310 
  238.0000     0.0000     0.0000     6.5690     9.5560   280.2120    -3.9730     6.6960    23.9940     7.3360 
  238.1250     0.0000     0.0000     6.8830     9.3300   281.9060    -3.9730     6.6360    24.0930     9.1450 
  238.2500     0.0000     0.0000     7.2500     9.5520   279.3530    -3.9630     6.5800    24.0940    11.0550 
  238.3750     0.0000     0.0000     7.4760     9.9650   276.5700    -3.8840     6.5970    24.0940    10.3510 
  238.5000     0.0000     0.0000     7.5450    10.2050   271.5850    -3.8720     6.5970    24.1870     9.3460 
  238.6250     0.0000     0.0000     7.5450    10.4060   264.0560    -3.7720     6.6170    24.2430     8.2410 
  238.7500     0.0000     0.0000     7.8500    10.7050   262.9370    -3.7710     6.6040    24.2940     8.6430 
  238.8750     0.0000     0.0000     7.9630    10.9130   265.0090    -3.6710     6.5970    24.2940     8.7430 
  239.0000     0.0000     0.0000     8.2770    11.2090   265.9500    -3.5710     6.6350    24.2940     8.3420 
  239.1250     0.0000     0.0000     8.3900    11.3450   266.1490    -3.5700     6.6770    24.2440     8.0400 
  239.2500     0.0000     0.0000     8.5500    11.4110   267.4450    -3.5700     6.7400    24.1950     8.9450 
  239.3750     0.0000     0.0000     8.5500    11.6510   266.3300    -3.5700     6.7690    24.0960    10.9550 
  239.5000     0.0000     0.0000     8.7300    11.8600   266.7410    -3.5700     6.7400    24.0960    13.5680 
  239.6250     0.0000     0.0000     8.8430    12.0690   268.8810    -3.5570     6.6710    23.9960    12.6630 
  239.7500     0.0000     0.0000     8.9560    12.2140   270.5030    -3.6640     6.4910    23.8870    13.1660 
  239.8750     0.0000     0.0000     9.1700    12.2150   270.9940    -3.7700     6.5450    23.7310    12.3620 
  240.0000     0.0000     0.0000     9.3540    12.2150   270.0000    -3.8700     6.5970    23.5990    10.9930 
  240.1250     0.0000     0.0000     9.3550    12.0160   268.6050    -3.8700     6.5970    23.6300    12.5990 
  240.2500     0.0000     0.0000     9.1850    12.0160   266.4940    -3.7000     6.5810    23.6990    14.3070 
  240.3750     0.0000     0.0000     8.9540    12.0170   264.7000    -3.6690     6.6230    23.6990    16.0140 
  240.5000     0.0000     0.0000     8.9540    12.0180   263.2690    -3.5680     6.6890    23.7990    14.8970 
  240.6250     0.0000     0.0000     8.7530    12.2190   263.0310    -3.6600     6.6880    23.7000     8.9390 
  240.7500     0.0000     0.0000     8.5580    12.2190   264.5440    -3.6570     6.7500    23.6370    12.2600 
  240.8750     0.0000     0.0000     8.7540    12.0200   265.1850    -3.7700     6.7770    23.6690    15.6820 
  241.0000     0.0000     0.0000     8.8160    12.1440   268.3290    -3.8680     6.8350    23.6510    15.2700 
  241.1250     0.0000     0.0000     9.1990    12.2930   266.6580    -3.8680     6.8760    23.7000    12.7420 
  241.2500     0.0000     0.0000     9.3570    12.7180   264.5470    -3.8680     6.8980    23.7010     9.6080 
  241.3750     0.0000     0.0000     9.5580    13.0230   261.4400    -3.9440     6.9290    23.8860    11.0120 
  241.5000     0.0000     0.0000     9.7590    13.0240   259.3290    -4.0510     6.9800    24.1940    13.2230 
  241.6250     0.0000     0.0000     9.9450    13.2250   261.0200    -4.1680     6.9960    24.3980    15.2330 
  241.7500     0.0000     0.0000    10.3610    13.6210   262.0870    -4.2640     6.9760    24.4800    16.3350 
  241.8750     0.0000     0.0000    10.3970    13.8460   262.0940    -4.2670     6.9760    24.1990    17.9400 
  242.0000     0.0000     0.0000    10.6220    14.1500   259.9330    -4.1730     6.9760    24.1990    22.9740 
  242.1250     0.0000     0.0000    10.7630    14.6290   257.1060    -4.2680     6.9960    24.3280    21.3530 
  242.2500     0.0000     0.0000    10.7640    14.7370   256.1120    -4.2680     6.9960    24.3990    18.3200 
  242.3750     0.0000     0.0000    10.4950    14.5710   257.1190    -4.2670     6.9760    24.3580    15.4910 
  242.5000     0.0000     0.0000    10.3630    14.4310   257.1250    -4.2670     6.9850    24.2510    15.1800 
  242.6250     0.0000     0.0000    10.1620    14.8160   257.1310    -4.1670     7.0160    24.1010    21.8260 
  242.7500     0.0000     0.0000    10.3630    14.8330   257.1370    -4.1670     7.0290    24.2010    21.6160 
  242.8750     0.0000     0.0000    10.5640    14.8330   257.0250    -4.1630     7.0000    24.2010    16.9720 
  243.0000     0.0000     0.0000    10.5640    14.8340   255.9100    -4.1660     6.9380    24.2010    17.0650 
  243.1250     0.0000     0.0000    10.6770    14.8350   253.7990    -4.1940     6.8560    24.3010    15.4450 
  243.2500     0.0000     0.0000    10.1630    15.0350   251.6880    -4.3870     6.7740    24.3010    15.9420 
  243.3750     0.0000     0.0000    10.5340    14.3140   253.1690    -4.5210     6.7120    24.3010    14.4230 
  243.5000     0.0000     0.0000    11.1670    13.6860   256.1750    -4.5670     6.6500    24.3020    12.7010 
  243.6250     0.0000     0.0000    11.7630    14.6080   253.2530    -4.5660     6.6180    24.4010    13.4000 
  243.7500     0.0000     0.0000    12.2770    16.0280   248.7400    -4.4660     6.5920    24.4250    13.9970 
  243.8750     0.0000     0.0000    12.6080    17.4420   242.1290    -4.3650     6.5610    24.6180    12.8800 
  244.0000     0.0000     0.0000    12.9150    17.8800   237.8550    -4.3490     6.5390    24.9420    11.3620 
  244.1250     0.0000     0.0000    12.8600    18.1060   237.5030    -4.2650     6.3990    25.0260     9.5400 
