~V
VERS. 2.00: Ver 2.00
~W
STRT.M 80.0000:
STOP.M 287.0000:
STEP.M 0.1250:
NULL. -999.2500:
UWI. жи32:
~C
DEPT.M :
DEN.GM/CC :
CNL.V/V :
RI. :
RML.OHMM :
AC.US/MT :
SP.MV :
GR.API :
CALI.CM :
RXO.OHMM :
~A
# ...
   89.1250     0.0000     0.0000     5.2500     7.0050   430.0390   -22.6200     6.5920    25.0680     8.3790 
   89.2500     0.0000     0.0000     4.8480     6.8470   437.9110   -22.7200     6.7850    24.9760     8.8780 
   89.3750     0.0000     0.0000     4.6470     6.8470   440.0520   -22.9570     6.8720    24.8520     9.3780 
   89.5000     0.0000     0.0000     4.6900     6.8480   442.4750   -23.1070     6.9550    24.7010     9.5750 
   89.6250     0.0000     0.0000     4.8480     6.8490   440.6460   -23.2200     6.9340    24.6390     9.5710 
   89.7500     0.0000     0.0000     4.9380     6.8490   438.5340   -23.3200     6.9140    24.6390     9.5670 
   89.8750     0.0000     0.0000     5.0500     6.6500   433.4350   -23.3200     6.8450    24.6400     9.5630 
   90.0000     0.0000     0.0000     5.0500     6.5220   431.4120   -23.2520     6.8020    24.6400     9.9620 
   90.1250     0.0000     0.0000     5.0500     6.4920   429.5060   -23.1190     6.7260    24.6400    10.3600 
   90.2500     0.0000     0.0000     5.0510     6.6520   429.5120   -23.1190     6.6170    24.6400     9.8530 
   90.3750     0.0000     0.0000     5.0510     6.6520   431.0700   -23.0320     6.5170    24.6400     8.9440 
   90.5000     0.0000     0.0000     4.9200     6.6530   433.3680   -22.9620     6.4120    24.6410     9.6440 
   90.6250     0.0000     0.0000     4.8500     6.6540   437.2730   -23.0190     6.2700    24.7400     9.7410 
   90.7500     0.0000     0.0000     4.8500     6.6540   440.5040   -23.0130     6.1080    24.8740    10.4410 
   90.8750     0.0000     0.0000     4.4420     6.4550   440.5440   -23.0180     6.0520    24.9390    12.2480 
   91.0000     0.0000     0.0000     4.0460     6.2360   441.7720   -23.2550     6.0730    25.0530    15.6650 
   91.1250     0.0000     0.0000     3.9880     6.0560   450.9410   -23.4690     6.1050    25.2370    14.4540 
   91.2500     0.0000     0.0000     4.0470     5.9490   454.0850   -23.7500     6.1130    25.2370     7.6080 
   91.3750     0.0000     0.0000     4.0470     5.6570   455.5690   -24.0570     6.1500    25.1380     7.8060 
   91.5000     0.0000     0.0000     3.8460     5.5390   455.5750   -24.2190     6.1930    25.0390     8.4060 
   91.6250     0.0000     0.0000     3.7660     5.4590   454.5810   -24.1210     6.2540    24.7950     7.6970 
   91.7500     0.0000     0.0000     3.6450     5.5280   453.6110   -24.4480     6.3200    24.7350     7.5930 
   91.8750     0.0000     0.0000     3.6450     5.6600   455.7510   -24.9470     6.3980    24.6430     8.5950 
   92.0000     0.0000     0.0000     3.6460     5.6610   458.8960   -25.4820     6.4470    24.9070     8.8930 
   92.1250     0.0000     0.0000     3.6460     5.4610   462.2590   -25.9750     6.5270    25.0850     8.6880 
   92.2500     0.0000     0.0000     3.6460     5.5160   466.1890   -26.3050     6.6680    25.3950     8.4830 
   92.3750     0.0000     0.0000     3.7510     5.6630   471.6190   -26.4210     6.7530    25.7060     8.3780 
   92.5000     0.0000     0.0000     3.8480     5.6630   473.6250   -26.3290     6.8160    25.3550     8.2740 
   92.6250     0.0000     0.0000     3.6660     5.8640   475.6310   -26.1210     6.9180    24.8460     7.9680 
   92.7500     0.0000     0.0000     3.5720     5.8640   473.6380   -25.7030     7.1090    24.7410     7.8630 
   92.8750     0.0000     0.0000     3.9560     5.8650   472.6440   -25.0910     7.3200    24.6640     7.9610 
   93.0000     0.0000     0.0000     4.0500     5.8660   471.9740   -24.6980     7.4080    24.6620     8.2580 
   93.1250     0.0000     0.0000     4.0180     5.8660   471.1810   -24.1650     7.5140    24.7440     8.1540 
   93.2500     0.0000     0.0000     3.8490     5.8670   472.2680   -23.3900     7.6190    24.7450     7.7470 
   93.3750     0.0000     0.0000     3.6480     5.9800   479.4280   -22.8400     7.8580    24.6590     7.6430 
   93.5000     0.0000     0.0000     3.4470     6.0680   479.6750   -21.9420     8.1980    24.6460     7.3370 
   93.6250     0.0000     0.0000     3.3290     5.9740   475.6850   -20.5270     8.4590    24.6460     7.0320 
   93.7500     0.0000     0.0000     3.4480     5.8620   470.5870   -19.3830     8.6280    24.6580     6.8270 
   93.8750     0.0000     0.0000     3.4480     5.4510   465.4870   -17.6990     8.7840    24.8450     7.3260 
   94.0000     0.0000     0.0000     3.4480     5.1400   462.7000   -13.3560     8.8330    25.1010     9.2330 
   94.1250     0.0000     0.0000     3.2470     4.7860   462.7070   -11.6020     8.8760    25.3910    11.5420 
   94.2500     0.0000     0.0000     3.2480     4.3620   462.7130    -9.7530     8.9190    25.5710     8.2190 
   94.3750     0.0000     0.0000     2.9880     3.9390   462.7190    -9.4400     8.9180    25.6400     3.8910 
   94.5000     0.0000     0.0000     2.6730     3.6730   461.7250    -9.4580     8.8980    25.4410     4.1890 
   94.6250     0.0000     0.0000     2.4440     3.7650   459.7940    -9.6820     8.8640    25.3420     4.7880 
   94.7500     0.0000     0.0000     2.4440     4.2740   454.6950    -9.8930     8.8080    25.1300     5.5900 
   94.8750     0.0000     0.0000     2.2430     4.2750   454.8000   -10.0930     8.7650    25.0310     5.5850 
   95.0000     0.0000     0.0000     2.2430     4.2760   455.8990    -9.7760     8.7430    24.9860     4.9780 
   95.1250     0.0000     0.0000     2.2430     4.2760   456.7560    -9.3920     8.6930    25.2960     4.3710 
   95.2500     0.0000     0.0000     2.2440     4.2770   456.7620    -9.2510     8.6780    25.6240     4.2660 
   95.3750     0.0000     0.0000     2.4450     4.0770   457.7690    -8.9910     8.6150    25.8290     4.2630 
   95.5000     0.0000     0.0000     2.4450     4.0780   454.0840    -8.8900     8.5530    26.0290     4.1580 
   95.6250     0.0000     0.0000     2.4460     4.2790   445.3570    -8.8020     8.4900    26.1380     4.1540 
   95.7500     0.0000     0.0000     2.4460     4.6790   424.9300    -8.7900     8.4280    26.0230     4.3520 
   95.8750     0.0000     0.0000     2.6470     4.9010   402.9270    -9.4940     8.3450    25.7830     6.0570 
   96.0000     0.0000     0.0000     3.0500     5.3150   396.6660   -10.2920     8.3030    25.4490     9.6730 
   96.1250     0.0000     0.0000     3.1870     5.6810   403.6890   -10.4920     8.2410    25.2180    13.5910 
   96.2500     0.0000     0.0000     3.6540     5.7620   440.7920   -10.3920     8.2980    25.0470    15.9990 
   96.3750     0.0000     0.0000     3.8550     5.3110   452.4860   -10.2370     8.2160    25.1470    13.0800 
   96.5000     0.0000     0.0000     3.7810     4.3290   451.8250   -10.0690     8.0130    25.1470     4.7300 
   96.6250     0.0000     0.0000     3.4670     3.8840   448.9270    -9.9110     7.9110    25.1740     4.2240 
   96.7500     0.0000     0.0000     3.0520     3.8880   445.7870    -9.8440     7.8280    25.2470     5.0250 
   96.8750     0.0000     0.0000     2.4480     4.0450   439.8440    -9.7380     7.7970    25.2470     5.0220 
   97.0000     0.0000     0.0000     2.4480     4.0860   437.6140    -9.7900     7.6440    25.2470     4.9170 
   97.1250     0.0000     0.0000     2.4490     4.0860   438.5870   -10.1190     7.5970    25.1690     4.6110 
   97.2500     0.0000     0.0000     2.4490     4.0870   443.8860   -10.7340     7.5970    25.0590     5.6120 
   97.3750     0.0000     0.0000     2.6500     4.2680   454.2270   -11.5770     7.5560    24.8670     6.3120 
   97.5000     0.0000     0.0000     3.0040     4.4780   460.7060   -12.8650     7.4940    24.7520     5.9060 
   97.6250     0.0000     0.0000     3.0530     4.5860   462.8460   -13.4800     7.3860    24.6530     5.8020 
   97.7500     0.0000     0.0000     3.3560     4.6900   464.9870   -13.8420     7.2450    24.6120     5.9990 
   97.8750     0.0000     0.0000     3.4560     4.8900   466.8940   -14.5200     7.0680    24.4860     5.8950 
   98.0000     0.0000     0.0000     3.6040     5.0910   478.7090   -15.2480     6.9320    24.3070     5.8900 
   98.1250     0.0000     0.0000     3.6580     5.3900   493.0830   -16.0770     6.8620    24.2570     6.1880 
