~V
VERS. 2.00: Ver 2.00
~W
STRT.M 80.0000:
STOP.M 287.0000:
STEP.M 0.1250:
NULL. -999.2500:
UWI. жи32:
~C
DEPT.M :
DEN.GM/CC :
CNL.V/V :
RI. :
RML.OHMM :
AC.US/MT :
SP.MV :
GR.API :
CALI.CM :
RXO.OHMM :
~A
# ...
  271.6250     0.0000     0.0000    15.0310    19.1680   241.5810    -4.5250     6.7580    24.8470    31.3280 
  271.7500     0.0000     0.0000    14.8310    18.9870   242.1260    -4.5250     6.8200    24.9400    27.9200 
  271.8750     0.0000     0.0000    14.9390    18.7870   243.5940    -4.4250     6.8420    24.6930    27.1120 
  272.0000     0.0000     0.0000    15.0320    18.7880   243.6000    -4.4240     6.8650    24.4860    16.9050 
  272.1250     0.0000     0.0000    15.2330    19.1490   242.6060    -4.3240     6.8450    24.4490    16.7980 
  272.2500     0.0000     0.0000    15.4250    19.3340   242.0330    -4.3240     6.8450    24.4020    19.4890 
  272.3750     0.0000     0.0000    15.6350    19.7580   240.9170    -4.2850     6.8460    24.6300    25.3810 
  272.5000     0.0000     0.0000    15.9510    20.3710   238.6250    -4.2230     6.8460    24.7220    29.0720 
  272.6250     0.0000     0.0000    16.4380    21.2170   237.6310    -4.2230     6.8460    24.7630    34.7630 
  272.7500     0.0000     0.0000    16.7180    21.8300   237.6370    -4.1920     6.8650    24.6490    31.8550 
  272.8750     0.0000     0.0000    17.1440    22.3980   237.6440    -4.1220     6.8850    24.6360    25.5490 
  273.0000     0.0000     0.0000    17.4410    22.3980   237.6500    -4.0680     6.9450    24.4500    27.4410 
  273.1250     0.0000     0.0000    17.8430    21.6880   237.6560    -4.0070     7.0060    24.4510    31.3310 
  273.2500     0.0000     0.0000    17.8430    21.7340   235.8820    -3.9210     7.0440    24.4510    31.0230 
  273.3750     0.0000     0.0000    17.8430    21.8790   234.6690    -3.9210     7.0720    24.5180    28.8150 
  273.5000     0.0000     0.0000    18.0440    22.2010   235.6750    -3.9210     7.1040    24.6890    36.3040 
  273.6250     0.0000     0.0000    17.9910    21.8010   236.6200    -3.9210     7.0880    24.8440    34.2970 
  273.7500     0.0000     0.0000    17.8440    21.8010   237.3770    -3.9200     7.0300    24.9480    23.0950 
  273.8750     0.0000     0.0000    17.6440    22.2620   238.6940    -3.9200     6.9680    25.1410    22.7940 
  274.0000     0.0000     0.0000    17.7090    22.8860   239.3730    -3.9200     6.9260    25.0500    27.3770 
  274.1250     0.0000     0.0000    17.9220    23.2050   237.7060    -3.9200     6.9450    25.0050    39.0620 
  274.2500     0.0000     0.0000    18.1350    23.5360   235.3350    -3.8190     6.9500    24.9130    41.0520 
  274.3750     0.0000     0.0000    18.4470    24.1610   233.0400    -3.9460     6.9260    24.7860    39.5440 
  274.5000     0.0000     0.0000    18.6760    24.5850   230.7250    -4.0200     6.8810    24.7910    43.9330 
  274.6250     0.0000     0.0000    19.0490    24.0050   229.7310    -4.1100     6.8460    24.8520    36.4290 
  274.7500     0.0000     0.0000    17.8840    21.6910   235.8050    -4.1190     6.8260    24.8520    27.6280 
  274.8750     0.0000     0.0000    16.9340    19.5300   238.9520    -4.2200     6.7780    24.7440    28.9190 
  275.0000     0.0000     0.0000    16.9780    19.3540   240.4140    -4.2190     6.7270    24.6530    37.3030 
  275.1250     0.0000     0.0000    17.2440    21.0420   237.3030    -4.2190     6.6630    24.5990    47.3860 
  275.2500     0.0000     0.0000    17.4450    22.3470   233.2010    -4.2190     6.6080    24.5540    50.0750 
  275.3750     0.0000     0.0000    17.6460    23.5260   229.0970    -4.1640     6.6210    24.6240    51.5650 
  275.5000     0.0000     0.0000    17.3420    23.3380   230.6740    -4.1050     6.6920    24.8330    36.4710 
  275.6250     0.0000     0.0000    16.3800    22.1980   233.7200    -4.0420     6.7990    24.9140    29.5700 
  275.7500     0.0000     0.0000    15.1470    21.2110   237.8670    -3.9220     6.8070    25.0530    28.1630 
  275.8750     0.0000     0.0000    14.7190    20.8110   240.7940    -3.9170     6.7500    25.1520    29.8530 
  276.0000     0.0000     0.0000    13.7620    19.8600   242.1500    -3.8250     6.7270    25.1940    33.3410 
  276.1250     0.0000     0.0000    13.1720    18.2770   244.9370    -3.8520     6.7380    25.2140    46.8170 
  276.2500     0.0000     0.0000    12.0250    17.0830   247.6310    -3.8160     6.7520    25.1700    44.9100 
  276.3750     0.0000     0.0000    11.1970    16.0140   251.5810    -3.8160     6.7940    25.2530    40.6150 
  276.5000     0.0000     0.0000    10.5680    14.5810   256.8250    -3.9160     6.8560    25.2530    19.2340 
  276.6250     0.0000     0.0000    10.2250    14.2560   257.8740    -3.9160     6.9190    25.2530    16.0230 
  276.7500     0.0000     0.0000    10.5290    14.6800   261.1950    -3.9160     6.9810    25.2540    15.0170 
  276.8750     0.0000     0.0000    10.7940    15.1050   264.3910    -3.8160     6.9860    25.2540    12.3130 
  277.0000     0.0000     0.0000    11.1070    15.8090   265.0730    -3.8150     7.0060    25.2540    13.8030 
  277.1250     0.0000     0.0000    11.2290    16.1530   265.8560    -3.8150     6.9660    25.1400    12.7980 
  277.2500     0.0000     0.0000    11.0290    15.8410   265.8620    -3.8150     6.9340    25.0550    11.5110 
  277.3750     0.0000     0.0000    10.8280    15.6110   265.2610    -3.8150     6.9460    24.8840    10.3140 
  277.5000     0.0000     0.0000    10.7680    15.3000   264.8750    -3.9150     6.9460    24.8560    11.0180 
  277.6250     0.0000     0.0000    10.6280    14.9610   263.5020    -3.8220     6.9590    24.8170    11.7220 
  277.7500     0.0000     0.0000    10.6280    14.8110   261.7940    -3.8500     7.0030    24.7570    11.5250 
  277.8750     0.0000     0.0000    10.7660    14.8120   259.8940    -3.8780     7.0430    24.7570    11.1280 
  278.0000     0.0000     0.0000    10.9910    15.2130   257.0630    -3.9070     7.0850    24.7190    11.2320 
  278.1250     0.0000     0.0000    12.3800    16.2880   252.1150    -3.9140     7.1280    24.5590    11.3360 
  278.2500     0.0000     0.0000    13.2450    16.7850   244.2940    -3.8220     7.1420    24.5590    11.3390 
  278.3750     0.0000     0.0000    15.0920    18.2060   236.2050    -3.8840     7.0910    24.6510    11.4430 
  278.5000     0.0000     0.0000    15.6450    20.0270   233.0130    -3.8580     7.0760    24.7040    12.8480 
  278.6250     0.0000     0.0000    16.1190    20.0240   232.9310    -3.8130     7.1380    24.7070    18.2580 
  278.7500     0.0000     0.0000    16.5450    21.0000   233.9770    -3.8130     7.1850    24.6590    43.8930 
  278.8750     0.0000     0.0000    17.1700    22.0990   235.5190    -3.7120     7.2450    24.6210    39.4910 
  279.0000     0.0000     0.0000    17.9960    23.1210   228.6390    -3.7120     7.2650    24.5690    28.5810 
  279.1250     0.0000     0.0000    18.2550    22.9730   228.6750    -3.7120     7.2660    24.5090    44.2040 
  279.2500     0.0000     0.0000    18.2550    22.6880   231.5330    -3.7120     7.2850    24.4610    52.1160 
  279.3750     0.0000     0.0000    18.6560    22.5080   234.6800    -3.7620     7.2770    24.4190    70.1420 
  279.5000     0.0000     0.0000    18.6560    22.8250   236.9750    -3.7780     7.2050    24.3620    40.7290 
  279.6250     0.0000     0.0000    18.6570    22.6330   235.9810    -3.7110     7.1130    24.3620    41.6570 
  279.7500     0.0000     0.0000    18.9490    22.7560   236.6860    -3.7110     7.0660    24.3620    41.5880 
  279.8750     0.0000     0.0000    19.2310    22.8350   235.9940    -3.7090     7.0660    24.3620    48.5020 
  280.0000  -999.2500  -999.2500  -999.2500  -999.2500  -999.2500  -999.2500  -999.2500     0.0000    67.3850 
  280.1250  -999.2500  -999.2500  -999.2500  -999.2500  -999.2500  -999.2500  -999.2500     0.0000    67.3030 
  280.2500  -999.2500  -999.2500  -999.2500  -999.2500  -999.2500  -999.2500  -999.2500     0.0000    59.2540 
  280.3750  -999.2500  -999.2500  -999.2500  -999.2500  -999.2500  -999.2500  -999.2500     0.0000    57.1890 
  280.5000  -999.2500  -999.2500  -999.2500  -999.2500  -999.2500  -999.2500  -999.2500     0.0000    86.0430 
  280.6250  -999.2500  -999.2500  -999.2500  -999.2500  -999.2500  -999.2500  -999.2500     0.0000   185.7530 
