~V
VERS. 2.00: Ver 2.00
~W
STRT.M 80.0000:
STOP.M 287.0000:
STEP.M 0.1250:
NULL. -999.2500:
UWI. жи32:
~C
DEPT.M :
DEN.GM/CC :
CNL.V/V :
RI. :
RML.OHMM :
AC.US/MT :
SP.MV :
GR.API :
CALI.CM :
RXO.OHMM :
~A
# ...
  153.0000     0.0000     0.0000    45.5160    61.7070   418.7510   -18.1260     6.2850    23.4020   486.0270 
  153.1250     0.0000     0.0000    49.5150    98.8050   424.2440   -18.0970     6.3680    23.3550   256.4230 
  153.2500     0.0000     0.0000    53.4490   117.0440   430.4010   -17.9900     6.4300    23.3560   265.3980 
  153.3750     0.0000     0.0000    55.6370   127.7400   432.2920   -17.9250     6.5340    23.4030   216.2310 
  153.5000     0.0000     0.0000    54.0190   122.6150   433.6760   -17.7270     6.6560    23.5330   226.2080 
  153.6250     0.0000     0.0000    51.7250   102.4420   434.6810   -17.6710     6.7580    23.5550   118.9070 
  153.7500     0.0000     0.0000    43.2490    86.5030   434.6880   -17.5640     6.8030    23.5550    29.6630 
  153.8750     0.0000     0.0000    34.8980    52.2000   437.8920   -17.4230     6.8430    23.5550    25.5860 
  154.0000     0.0000     0.0000    29.2270    38.9160   439.2270   -17.4230     6.8920    23.5560    40.5750 
  154.1250     0.0000     0.0000    22.8830    32.4780   440.7060   -17.4790     6.9030    23.5560    74.6080 
  154.2500     0.0000     0.0000    17.2210    24.1850   432.9590   -17.6130     6.8000    23.5890   147.7370 
  154.3750     0.0000     0.0000    14.3780    19.2110   428.8560   -17.8640     6.5900    23.6640   622.8080 
  154.5000     0.0000     0.0000    14.0770    20.9480   426.7450   -18.1190     6.5080    23.7270   653.8400 
  154.6250     0.0000     0.0000    16.4940    47.6750   426.7840   -18.1240     6.3800    23.7550   666.8140 
  154.7500     0.0000     0.0000    24.9620    58.3010   427.7380   -18.1230     6.2080    23.7550   665.7640 
  154.8750     0.0000     0.0000    31.1850    62.8480   428.7440   -18.1230     6.0470    23.8200   665.7160 
  155.0000     0.0000     0.0000    33.8210    66.3710   428.7500   -18.0230     5.9070    23.8550   663.6640 
  155.1250     0.0000     0.0000    35.6830    80.0980   427.7560   -17.8940     5.7780    23.8850   661.6040 
  155.2500     0.0000     0.0000    40.0310    85.0560   427.7620   -17.6530     5.7730    23.9550   660.5540 
  155.3750     0.0000     0.0000    42.4170    79.5710   427.7690   -17.5940     5.7730    23.9550   632.4430 
  155.5000     0.0000     0.0000    45.7280    79.4750   427.7750   -17.4740     5.7960    24.0340   446.9620 
  155.6250     0.0000     0.0000    46.3770    80.7060   427.7810   -17.3210     5.8330    24.0550   438.9360 
  155.7500     0.0000     0.0000    46.4230    79.5400   427.7880   -17.2020     5.8330    24.0550   274.4590 
  155.8750     0.0000     0.0000    46.4690    79.5720   428.1610   -17.1200     5.8530    24.0550   251.3610 
  156.0000     0.0000     0.0000    46.5150    79.6050   429.2980   -17.0770     5.7830    24.1170   252.3170 
  156.1250     0.0000     0.0000    46.3080    79.6370   430.8060   -16.7640     5.6780    24.1550   403.6160 
  156.2500     0.0000     0.0000    48.3250    83.5240   430.8130   -16.5520     5.6160    24.1640   419.6050 
  156.3750     0.0000     0.0000    50.3430    85.7290   429.8190   -16.3320     5.6740    24.2420   246.1570 
  156.5000     0.0000     0.0000    48.3340    85.7620   428.8250   -16.0270     5.7160    24.2550   197.9970 
  156.6250     0.0000     0.0000    44.1430    82.9680   428.7080   -15.7140     5.7790    24.2550   221.0020 
  156.7500     0.0000     0.0000    42.3000    81.1070   428.5890   -15.4580     5.8620    24.2130   242.0020 
  156.8750     0.0000     0.0000    44.3180    79.8330   427.8440   -15.2520     5.9640    24.1560   240.9540 
  157.0000     0.0000     0.0000    46.3370    79.8660   428.3490   -15.2530     6.0430    24.1570   203.8190 
  157.1250     0.0000     0.0000    47.7610    80.4320   428.8560   -15.4830     6.0900    24.1690   182.7260 
  157.2500     0.0000     0.0000    43.5940    77.9220   429.7400   -15.9130     6.1930    24.2560   182.6810 
  157.3750     0.0000     0.0000    41.4470    71.9490   430.8110   -16.5650     6.2130    24.1570    90.4250 
  157.5000     0.0000     0.0000    34.2340    67.4730   431.8900   -17.1040     6.2130    24.1580    74.3370 
  157.6250     0.0000     0.0000    30.0790    58.6870   433.8810   -17.2240     6.1880    24.1580    81.3070 
  157.7500     0.0000     0.0000    28.2210    53.9410   433.8870   -17.3180     6.2220    24.2020    98.2980 
  157.8750     0.0000     0.0000    28.6430    51.9630   433.8940   -17.3170     6.2850    24.2580    94.2440 
  158.0000     0.0000     0.0000    31.7920    51.9960   432.1410   -17.2450     6.2730    24.2650    89.1800 
  158.1250     0.0000     0.0000    32.2610    52.0280   431.9060   -17.2170     6.1340    24.3570    97.1520 
  158.2500     0.0000     0.0000    32.2640    53.9560   431.0300   -17.1170     6.1540    24.3580   116.1470 
  158.3750     0.0000     0.0000    34.2830    57.1320   429.0350   -17.1160     6.1740    24.4330   183.2550 
  158.5000     0.0000     0.0000    34.2860    60.1620   428.9250   -17.2100     6.1770    24.5450   291.4420 
  158.6250     0.0000     0.0000    36.6520    80.8430   428.9310   -17.5240     6.2140    24.5950   346.5220 
  158.7500     0.0000     0.0000    42.9330    92.8090   429.5690   -17.8380     6.2740    24.7440   318.4080 
  158.8750     0.0000     0.0000    50.0000   108.6210   430.3350   -18.2410     6.2280    24.9540   237.1790 
  159.0000     0.0000     0.0000    56.4910   119.8970   431.7910   -18.4650     6.1970    24.8560   274.2130 
  159.1250     0.0000     0.0000    56.4970   124.2060   432.9560   -18.5380     6.1660    24.8560   272.1620 
  159.2500     0.0000     0.0000    54.7200   126.8430   432.9620   -18.6180     6.1540    24.8170   178.9090 
  159.3750     0.0000     0.0000    54.4880   116.4820   430.9690   -18.6800     6.1750    24.6570   115.7220 
  159.5000     0.0000     0.0000    50.4570   100.0920   430.9750   -18.7180     6.1940    24.5580   126.6990 
  159.6250     0.0000     0.0000    49.2820    89.3830   430.8340   -18.9240     6.1790    24.2800   124.6490 
  159.7500     0.0000     0.0000    47.8370    83.6430   429.9880   -19.2310     6.1740    24.1560   113.5730 
  159.8750     0.0000     0.0000    48.4520    82.6240   429.9940   -19.3560     6.1740    24.2610   129.5610 
  160.0000     0.0000     0.0000    49.0180    86.6770   431.5260   -19.6700     6.1740    24.2710   164.5890 
  160.1250     0.0000     0.0000    52.1720    94.3760   432.0060   -19.6190     6.1740    24.3610   178.5730 
  160.2500     0.0000     0.0000    54.3200    98.6840   432.4580   -19.5190     6.1550    24.3610   204.5820 
  160.3750     0.0000     0.0000    56.4940   104.8640   433.0190   -19.3310     6.0720    24.3610   244.6280 
  160.5000     0.0000     0.0000    59.6220   107.3000   432.0250   -19.3180     5.9910    24.3330   241.5680 
  160.6250     0.0000     0.0000    60.7640   110.9600   434.0310   -19.2170     5.9160    24.2810   253.5470 
  160.7500     0.0000     0.0000    62.6230   114.4590   433.3940   -19.2170     5.8270    24.2230   246.4860 
  160.8750     0.0000     0.0000    64.6480   117.6340   433.0440   -19.2170     5.6850    24.1610   240.4270 
  161.0000     0.0000     0.0000    65.7370   119.6970   434.3210   -19.0920     5.5900    24.0830   245.3840 
  161.1250     0.0000     0.0000    66.6810   121.1420   435.7300   -18.7960     5.5950    24.1230   226.2980 
  161.2500     0.0000     0.0000    68.7070   122.4860   437.0630   -18.6420     5.6150    24.1640   181.1510 
  161.3750     0.0000     0.0000    68.7130   124.1400   438.0360   -18.5300     5.6350    24.0840   183.1090 
  161.5000     0.0000     0.0000    72.1090   125.2620   438.0750   -18.3170     5.6530    24.0650   193.0840 
  161.6250     0.0000     0.0000    72.9260   127.4750   439.0810   -18.1440     5.6100    24.0650   185.0220 
  161.7500     0.0000     0.0000    76.0840   129.0790   439.2460   -17.8920     5.6160    24.0650   188.9770 
  161.8750     0.0000     0.0000    79.6350   132.5760   439.6510   -17.5790     5.6560    24.0650   214.9840 
  162.0000     0.0000     0.0000    87.9320   144.3310   439.1000   -17.3120     5.6760    24.0030   250.0180 
