~V
VERS. 2.00: Ver 2.00
~W
STRT.M 80.0000:
STOP.M 287.0000:
STEP.M 0.1250:
NULL. -999.2500:
UWI. жи32:
~C
DEPT.M :
DEN.GM/CC :
CNL.V/V :
RI. :
RML.OHMM :
AC.US/MT :
SP.MV :
GR.API :
CALI.CM :
RXO.OHMM :
~A
# ...
  134.7500     0.0000     0.0000     9.3460    10.2110   313.0920   -13.9460     5.9860    24.3100    15.3860 
  134.8750     0.0000     0.0000     8.3540    10.8000   316.5600   -14.0560     5.9080    24.2320    11.5740 
  135.0000     0.0000     0.0000     8.3540    11.6680   317.7500   -14.2430     5.8310    24.3180    13.9740 
  135.1250     0.0000     0.0000     8.7480    12.2810   317.7560   -14.2430     5.8610    24.3190    15.5720 
  135.2500     0.0000     0.0000     9.1590    12.4820   317.5650   -14.2950     5.8670    24.3190    15.6680 
  135.3750     0.0000     0.0000     9.3600    11.7560   315.7690   -14.4430     5.7880    24.3190    16.1650 
  135.5000     0.0000     0.0000     8.5440    10.1120   315.7750   -14.5430     5.6750    24.3190    17.5620 
  135.6250     0.0000     0.0000     7.4950     9.0820   317.7810   -14.6410     5.5390    24.3200    19.4620 
  135.7500     0.0000     0.0000     6.4340     9.0830   318.6400   -14.6390     5.4640    24.2200    14.2480 
  135.8750     0.0000     0.0000     6.2760     9.3640   318.7940   -14.5030     5.4330    24.3200    10.3350 
  136.0000     0.0000     0.0000     6.3080     9.4840   316.8000   -14.3260     5.4100    24.2440    12.3350 
  136.1250     0.0000     0.0000     6.5340     9.4850   315.8060   -14.2420     5.3870    24.2210    12.0300 
  136.2500     0.0000     0.0000     6.5470     9.4860   316.4110   -14.2420     5.3870    24.2210    12.2270 
  136.3750     0.0000     0.0000     6.8680     9.4860   316.8190   -14.2410     5.3870    24.2210    13.1220 
  136.5000     0.0000     0.0000     6.9490     9.6870   315.8250   -14.3410     5.4070    24.3560    12.7170 
  136.6250     0.0000     0.0000     6.9500     9.4880   314.0490   -14.4410     5.4110    24.4780    11.9110 
  136.7500     0.0000     0.0000     6.7490     9.8260   312.1540   -14.3410     5.4270    24.7330    11.4060 
  136.8750     0.0000     0.0000     6.7490    10.0890   309.0470   -14.3410     5.4270    25.0560    11.8020 
  137.0000     0.0000     0.0000     7.2810    11.8830   307.8770   -14.2750     5.3820    25.2410    12.9000 
  137.1250     0.0000     0.0000     7.9510    12.8920   304.8250   -14.2400     5.3670    25.3150    15.2000 
  137.2500     0.0000     0.0000     8.5660    12.8920   303.0110   -14.1400     5.4240    25.3150    18.8020 
  137.3750     0.0000     0.0000     8.7610    13.0220   309.0680   -14.1400     5.4770    25.2160    23.4070 
  137.5000     0.0000     0.0000     8.7280    12.0930   311.6570   -14.1400     5.5060    25.2170    24.7050 
  137.6250     0.0000     0.0000     8.5600    12.1540   310.1040   -14.0410     5.5110    25.1450    12.3760 
  137.7500     0.0000     0.0000     8.2430    12.7680   308.8870   -14.0390     5.5080    25.1180    13.0730 
  137.8750     0.0000     0.0000     8.7020    13.4680   308.8940   -13.9990     5.5080    25.2170    14.5720 
  138.0000     0.0000     0.0000     8.9630    13.8950   310.8340   -13.9390     5.4960    25.1180    16.9710 
  138.1250     0.0000     0.0000     9.1640    14.3220   313.9790   -13.9600     5.4810    25.1180    18.9710 
  138.2500     0.0000     0.0000     9.3710    14.2980   315.6470   -14.0380     5.4320    25.1180    17.0630 
  138.3750     0.0000     0.0000     9.5670    14.2990   312.6010   -14.1080     5.4080    25.1190    15.2550 
  138.5000     0.0000     0.0000     9.9020    14.1990   308.4980   -14.0560     5.4080    25.1190    17.5550 
  138.6250     0.0000     0.0000     9.8770    13.9000   304.8540   -14.0850     5.4080    25.1190    17.1500 
  138.7500     0.0000     0.0000     9.6510    13.7000   300.6430   -14.1380     5.4080    25.1770    16.3440 
  138.8750     0.0000     0.0000     9.5680    13.7010   298.0620   -14.1380     5.4080    25.2340    16.5400 
  139.0000     0.0000     0.0000     9.7370    13.9030   296.0100   -14.1380     5.4390    25.3180    16.6350 
  139.1250     0.0000     0.0000     9.9670    14.1160   293.9560   -14.1370     5.4820    25.4290    17.5320 
  139.2500     0.0000     0.0000     9.9800    14.4500   288.8600   -14.0370     5.5240    25.4810    19.0310 
  139.3750     0.0000     0.0000    10.1720    14.2650   283.8640   -14.0370     5.5680    25.5180    19.1270 
  139.5000     0.0000     0.0000    10.1720    14.0020   282.3110   -13.9460     5.5900    25.5160    17.0180 
  139.6250     0.0000     0.0000    10.0770    13.2410   279.9810   -13.9360     5.5680    25.4240    15.5100 
  139.7500     0.0000     0.0000     9.9710    12.9050   278.4240   -13.9360     5.5280    25.5020    16.1070 
  139.8750     0.0000     0.0000     9.8440    12.8820   277.9940   -13.9550     5.4880    25.5190    15.4010 
  140.0000     0.0000     0.0000     9.5270    13.5070   276.0000   -14.1520     5.5800    25.5190    17.9020 
  140.1250     0.0000     0.0000     9.7060    13.7070   276.9410   -14.2810     5.6020    25.5190    18.7990 
  140.2500     0.0000     0.0000     9.9890    13.2550   277.0120   -14.4150     5.6450    25.5190    16.9910 
  140.3750     0.0000     0.0000    10.0740    13.3080   276.2910   -14.4360     5.7070    25.4230    14.7820 
  140.5000     0.0000     0.0000     9.8940    13.8140   276.3340   -14.5360     5.7500    25.3210    14.4760 
  140.6250     0.0000     0.0000    10.0800    14.3100   279.1800   -14.5040     5.7910    25.2980    18.3800 
  140.7500     0.0000     0.0000    10.0820    14.6680   280.4220   -14.4320     5.8550    25.0860    18.3760 
  140.8750     0.0000     0.0000    10.1810    14.2700   282.7550   -14.3250     5.8480    24.9980    19.1730 
  141.0000     0.0000     0.0000    10.0800    13.5120   285.9000   -14.2350     5.8880    24.9240    18.8680 
  141.1250     0.0000     0.0000     9.9660    13.2970   289.0310   -14.1620     5.9280    24.9250    16.5580 
  141.2500     0.0000     0.0000     9.4760    13.1130   293.3240   -14.0560     5.9290    24.8800    13.7480 
  141.3750     0.0000     0.0000     9.0690    13.1940   295.0690   -13.9490     5.9150    24.7260    16.0490 
  141.5000     0.0000     0.0000     8.8850    13.4200   294.1510   -13.8430     5.8870    24.7270    15.3420 
  141.6250     0.0000     0.0000     8.6520    13.6470   293.0810   -13.8330     5.8690    24.6700    15.1370 
  141.7500     0.0000     0.0000     8.6330    13.5160   292.0870   -13.7300     5.8760    24.6280    15.5340 
  141.8750     0.0000     0.0000     8.8580    13.2250   293.9340   -13.6330     5.9580    24.6280    16.7320 
  142.0000     0.0000     0.0000     9.1860    12.7160   295.8890   -13.6170     5.9960    24.6280    17.4290 
  142.1250     0.0000     0.0000     9.5610    12.5170   300.1620   -13.5320     5.8990    24.7870    14.8190 
  142.2500     0.0000     0.0000     9.9340    12.5180   305.4800   -13.6320     5.9270    24.8270    12.1090 
  142.3750     0.0000     0.0000    10.1200    12.5180   311.3410   -13.7010     6.0090    24.9270    13.9070 
  142.5000     0.0000     0.0000    10.1230    12.6260   318.0960   -13.8730     6.0910    24.9450    15.1060 
  142.6250     0.0000     0.0000    10.1870    13.2530   326.2410   -14.1280     6.1490    25.1030    16.1040 
  142.7500     0.0000     0.0000    10.5600    13.8810   333.5340   -14.4410     6.1490    25.1470    16.8010 
  142.8750     0.0000     0.0000    10.7710    14.8960   360.1750   -14.7550     6.1440    25.2800    17.8990 
  143.0000     0.0000     0.0000    10.9440    24.7850   373.3590   -15.0510     6.0960    25.2590    19.7990 
  143.1250     0.0000     0.0000    11.6010    28.5360   381.6270   -15.2820     6.0340    25.3250    49.5600 
  143.2500     0.0000     0.0000    12.2380    32.8630   401.4520   -15.5550     5.9690    25.4250    70.2040 
  143.3750     0.0000     0.0000    12.8690    41.7370   413.6630   -15.7900     5.9890    25.4250    89.6060 
  143.5000     0.0000     0.0000    14.1480    54.9780   421.1750   -16.0250     6.0170    25.4840   110.6090 
  143.6250     0.0000     0.0000    15.7540    67.3700   423.5400   -16.2350     6.0340    25.5250   124.5960 
  143.7500     0.0000     0.0000    21.1170    82.4420   425.1880   -16.3350     6.1310    25.5250   151.6120 
