~V
VERS. 2.00: Ver 2.00
~W
STRT.M 80.0000:
STOP.M 287.0000:
STEP.M 0.1250:
NULL. -999.2500:
UWI. жи32:
~C
DEPT.M :
DEN.GM/CC :
CNL.V/V :
RI. :
RML.OHMM :
AC.US/MT :
SP.MV :
GR.API :
CALI.CM :
RXO.OHMM :
~A
   80.0000     0.0000     0.0000     0.1930     0.1930   149.0000   -58.6760     4.1200    32.3610     1.5100 
   80.1250     0.0000     0.0000     0.1930     0.1930   148.2990   -58.6240     4.0910    32.3610     2.2110 
   80.2500     0.0000     0.0000     0.1950     0.1930   147.4520   -58.5620     4.0550    32.3620     1.7040 
   80.3750     0.0000     0.0000     0.1930     0.1930   147.0190   -58.4990     4.0650    32.3620     0.7930 
   80.5000     0.0000     0.0000     0.1960     0.1940   147.0250   -58.4830     4.0920    32.3620     0.6890 
   80.6250     0.0000     0.0000     0.1990     0.1940   147.0310   -58.5200     4.1420    32.3620     0.6850 
   80.7500     0.0000     0.0000     0.1990     0.1940   147.3280   -58.5980     4.1650    32.3620     0.6810 
   80.8750     0.0000     0.0000     0.2010     0.1970   147.8560   -58.6760     4.1450    32.3630     0.6770 
   81.0000     0.0000     0.0000     0.2020     0.1980   148.0500   -58.7110     4.1820    32.4380     0.6740 
   81.1250     0.0000     0.0000     0.2020     0.1980   148.0560   -58.7830     4.1780    32.4620     0.6700 
   81.2500     0.0000     0.0000     0.2020     0.1990   148.5130   -58.7830     4.1150    32.5050     0.6660 
   81.3750     0.0000     0.0000     0.1990     0.1980   149.0690   -58.7820     4.0530    32.5620     1.1660 
   81.5000     0.0000     0.0000     0.1980     0.1960   149.0750   -58.7820     4.0600    32.6460     1.3640 
   81.6250     0.0000     0.0000     0.1980     0.1960   148.6740   -58.8060     4.0620    32.7280     1.0570 
   81.7500     0.0000     0.0000     0.1980     0.1990   148.0870   -58.8590     4.0800    32.7970     0.8520 
   81.8750     0.0000     0.0000     0.1970     0.2000   148.5340   -58.8140     4.0860    32.8590     1.3520 
   82.0000     0.0000     0.0000     0.1940     0.2000   149.3020   -58.7820     4.1020    32.9210     2.2550 
   82.1250     0.0000     0.0000     0.1940     0.2000   149.9340   -58.7820     4.1260    33.0070     1.5460 
   82.2500     0.0000     0.0000     0.1940     0.2010   150.1120   -58.7820     4.2160    33.1310     0.5350 
   82.3750     0.0000     0.0000     0.1940     0.2040   149.7310   -58.7810     4.2950    33.2190     0.5310 
   82.5000     0.0000     0.0000     0.1930     0.2050   149.1250   -58.7750     4.3310    33.1820     0.5280 
   82.6250     0.0000     0.0000     0.1930     0.2070   149.1310   -58.7230     4.2660    33.2360     0.7250 
   82.7500     0.0000     0.0000     0.1910     0.2100   148.3780   -58.6660     4.2460    33.1600     1.6280 
   82.8750     0.0000     0.0000     0.1890     0.2130   148.1440   -58.5870     4.3180    33.2080     1.1200 
   83.0000     0.0000     0.0000     0.1910     0.2130   148.1500   -58.5800     4.3920    33.2600     0.9150 
   83.1250     0.0000     0.0000     0.1930     0.2140   148.1560   -58.5800     4.4550    33.2640     1.9190 
   83.2500     0.0000     0.0000     0.1930     0.2140   147.1620   -58.5800     4.5150    33.3420     2.0160 
   83.3750     0.0000     0.0000     0.1920     0.2140   147.1690   -58.5800     4.5620    33.3590     0.8030 
   83.5000     0.0000     0.0000     0.1920     0.2140   146.9210   -58.5800     4.6600    33.3600     2.1090 
   83.6250     0.0000     0.0000     0.1920     0.2140   146.1810   -58.5800     4.7850    33.3600     1.9040 
   83.7500     0.0000     0.0000     0.1920     0.2150   146.1870   -58.5800     4.8490    33.3600     1.1950 
   83.8750     0.0000     0.0000     0.1920     0.2150   146.1940   -58.2310     4.9200    33.3600     0.5870 
   84.0000     0.0000     0.0000     0.1950     0.2140   146.8700   -57.5920     5.0090    33.3610     0.5830 
   84.1250     0.0000     0.0000     0.1950     0.2120   147.2520   -56.3010     5.1180    32.9430     0.6800 
   84.2500     0.0000     0.0000     0.1980     0.2120   148.3460   -55.2370     5.2720    32.7320     1.1800 
   84.3750     0.0000     0.0000     0.1980     0.2120   149.9180   -53.8360     5.3620    32.5940     2.3840 
   84.5000     0.0000     0.0000     0.1980     0.2120   151.3130   -50.0110     5.5260    32.2510     1.5750 
   84.6250     0.0000     0.0000     0.2010     0.2160   151.8410   -47.7290     5.7520    31.9010     1.2690 
   84.7500     0.0000     0.0000     0.2020     0.2170   152.2370   -43.3170     5.8820    31.6220     1.1650 
   84.8750     0.0000     0.0000     0.2010     0.2170   152.2440   -35.7860     6.0370    31.3460     0.7580 
   85.0000     0.0000     0.0000     0.2010     0.2170   151.2500   -36.7330     6.1550    31.0710     0.7540 
   85.1250     0.0000     0.0000     0.2020     0.2210   193.8970   -38.3590     6.3140    30.7950     0.7510 
   85.2500     0.0000     0.0000     0.2050     0.2220   257.3850   -39.7660     6.4820    30.5190     0.7470 
   85.3750     0.0000     0.0000     0.2030     0.2220   316.5450   -37.4830     6.5990    30.2440     1.1460 
   85.5000     0.0000     0.0000     0.2000     0.2230   333.3200   -34.3400     6.9340    29.9680     1.6450 
   85.6250     0.0000     0.0000     0.1970     0.2270   417.1710   -32.6280     7.0370    29.6920     1.7420 
   85.7500     0.0000     0.0000     0.1970     0.2270   499.6420   -30.2110     7.0990    29.3190     2.6450 
   85.8750     0.0000     0.0000     0.1970     0.2270   516.4020   -19.7200     7.0750    28.6990     2.8430 
   86.0000     0.0000     0.0000     0.1960     0.2270   569.4210   -15.0450     6.9860    27.4960     2.9390 
   86.1250     0.0000     0.0000    -0.1890     0.2530   605.2820   -13.1130     6.7660    27.2700     3.3380 
   86.2500     0.0000     0.0000    -0.1890     0.9040   602.2240   -12.7980     6.5210    27.1430     3.7370 
   86.3750     0.0000     0.0000     0.2140     1.5320   463.0010   -14.0880     6.3590    26.7630     5.7460 
   86.5000     0.0000     0.0000     1.1390     2.4930   436.2910   -14.8850     6.2920    26.2870     9.9710 
   86.6250     0.0000     0.0000     2.1790     3.5530   417.6030   -19.2700     6.3920    26.0230    18.8290 
   86.7500     0.0000     0.0000     3.1870     4.7190   411.3380   -21.1360     6.4070    25.6270    78.0160 
   86.8750     0.0000     0.0000     4.2290     6.0350   450.4550   -21.7630     6.3920    25.5330    65.2250 
   87.0000     0.0000     0.0000     3.1920     6.1880   457.3500   -22.3570     6.4270    25.6090    62.2470 
   87.1250     0.0000     0.0000     2.2280     5.7650   459.5560   -22.8660     6.4720    25.3980    58.7580 
   87.2500     0.0000     0.0000     2.2640     5.6370   461.1280   -23.1840     6.5480    25.2310    56.1660 
   87.3750     0.0000     0.0000     2.5270     5.4370   463.0330   -23.5240     6.6110    25.2310     8.9260 
   87.5000     0.0000     0.0000     2.9810     5.4380   462.3750   -22.9100     6.6940    25.2310     9.1150 
   87.6250     0.0000     0.0000     3.4010     5.2530   460.4760   -22.2250     6.7560    25.2310     9.1070 
   87.7500     0.0000     0.0000     3.6370     5.2390   456.3660   -21.2040     6.7070    25.0850     8.9000 
   87.8750     0.0000     0.0000     4.0380     5.0400   452.2700   -20.4990     6.6290    25.0330     8.2950 
   88.0000     0.0000     0.0000     4.3540     5.0400   445.1790   -20.3840     6.5820    25.0940     6.9930 
   88.1250     0.0000     0.0000     4.6930     5.1120   430.5420   -20.6630     6.5000    25.0990     6.9840 
   88.2500     0.0000     0.0000     5.1850     5.4900   412.3890   -20.9760     6.3970    25.0340     7.6720 
   88.3750     0.0000     0.0000     5.2480     5.9670   402.5630   -21.2040     6.3370    25.1200     8.5580 
   88.5000     0.0000     0.0000     5.2490     6.2190   389.4240   -21.5190     6.2520    25.2060     8.5570 
   88.6250     0.0000     0.0000     5.2490     6.6290   366.8950   -21.4150     6.2320    25.2750     9.7030 
   88.7500     0.0000     0.0000     5.4380     6.8440   359.0680   -21.8280     6.3170    25.3810     9.6990 
   88.8750     0.0000     0.0000     5.6520     7.0450   364.2200   -22.1420     6.3800    25.4210     9.3930 
   89.0000     0.0000     0.0000     5.6520     7.1740   398.4900   -22.5200     6.4430    25.1300     8.6840 
