~V
VERS. 2.00: Ver 2.00
~W
STRT.M 80.0000:
STOP.M 287.0000:
STEP.M 0.1250:
NULL. -999.2500:
UWI. жи32:
~C
DEPT.M :
DEN.GM/CC :
CNL.V/V :
RI. :
RML.OHMM :
AC.US/MT :
SP.MV :
GR.API :
CALI.CM :
RXO.OHMM :
~A
# ...
  262.5000     0.0000     0.0000    13.2090    17.3370   255.9600    -5.5690     6.9930    24.6480    17.6860 
  262.6250     0.0000     0.0000    12.7890    17.1310   257.1310    -5.1570     6.8510    24.7320    17.4790 
  262.7500     0.0000     0.0000    12.1410    16.7370   260.1370    -4.9390     6.7830    24.7320    15.8660 
  262.8750     0.0000     0.0000    12.1510    16.9380   260.1440    -4.9440     6.8310    24.5330    11.3480 
  263.0000     0.0000     0.0000    12.4070    16.9810   258.7970    -5.1600     6.8720    24.6320     9.5360 
  263.1250     0.0000     0.0000    12.6780    17.2470   255.6930    -5.1060     6.9440    24.5460    13.4380 
  263.2500     0.0000     0.0000    12.8090    17.7410   250.5930    -4.8380     7.0020    24.6330    16.4370 
  263.3750     0.0000     0.0000    12.8090    17.5420   248.1690    -4.7380     7.0420    24.6330    19.8370 
  263.5000     0.0000     0.0000    12.2000    17.1760   246.9800    -4.8070     7.0910    24.6830    19.5290 
  263.6250     0.0000     0.0000    11.7630    16.7320   250.1260    -5.6250     7.1270    24.6740    20.7240 
  263.7500     0.0000     0.0000    11.7410    16.5420   252.2670    -5.8400     7.1270    24.7700    18.0100 
  263.8750     0.0000     0.0000    11.8070    16.7430   254.4080    -5.5300     7.0820    24.7910    13.0920 
  264.0000     0.0000     0.0000    12.0080    16.9440   257.5500    -5.3390     7.1410    24.6350    14.5880 
  264.1250     0.0000     0.0000    12.1800    17.2480   258.7240    -5.2800     7.0980    24.4360    16.0830 
  264.2500     0.0000     0.0000    12.2090    17.3460   257.0120    -5.2380     7.0620    24.4360    17.7790 
  264.3750     0.0000     0.0000    12.8040    17.7260   255.2190    -5.2380     7.1020    24.6740    17.2710 
  264.5000     0.0000     0.0000    12.8200    18.0090   255.2250    -5.2380     7.1510    25.4720    18.5660 
  264.6250     0.0000     0.0000    13.0550    18.3520   255.2310    -5.2370     7.1300    25.7310    18.1580 
  264.7500     0.0000     0.0000    13.2800    18.5500   253.5400    -5.0390     6.9800    25.8310    16.7470 
  264.8750     0.0000     0.0000    13.7060    18.4940   251.2440    -4.8430     6.8830    25.8310    17.4410 
  265.0000     0.0000     0.0000    13.9320    18.2100   252.2500    -4.8160     6.8430    25.6370    17.9340 
  265.1250     0.0000     0.0000    13.6730    17.9200   253.2560    -4.7040     6.8240    25.3740    20.6310 
  265.2500     0.0000     0.0000    13.4150    17.4830   253.2620    -4.5870     6.8260    24.6370    24.8310 
  265.3750     0.0000     0.0000    13.2140    17.2710   253.2690    -4.5340     6.8370    24.5370    22.5200 
  265.5000     0.0000     0.0000    12.9940    16.9570   252.3570    -4.5340     6.8240    24.4380    22.4110 
  265.6250     0.0000     0.0000    12.8130    16.9520   251.3020    -4.5340     6.8590    24.5080    20.7010 
  265.7500     0.0000     0.0000    12.8140    16.7530   249.2480    -4.5340     6.9180    24.6280    17.6870 
  265.8750     0.0000     0.0000    12.8140    16.8180   247.2940    -4.6340     6.9630    24.9260    20.9850 
  266.0000     0.0000     0.0000    12.8140    16.9540   247.3000    -4.7340     6.9050    25.1350    33.8980 
  266.1250     0.0000     0.0000    12.8140    17.1550   247.3060    -4.8340     6.8440    25.3890    54.6240 
  266.2500     0.0000     0.0000    12.8140    17.2950   249.3120    -5.0580     6.8480    25.5340    21.1630 
  266.3750     0.0000     0.0000    12.9140    17.3570   250.3190    -5.1350     6.8900    25.4350    22.7580 
  266.5000     0.0000     0.0000    13.0620    17.5580   251.3250    -4.8640     6.8840    26.4620    21.3470 
  266.6250     0.0000     0.0000    13.4170    17.7650   253.3010    -4.6140     6.8840    26.7990    23.5420 
  266.7500     0.0000     0.0000    13.8190    17.9600   253.3370    -4.6330     6.9380    26.6770    21.8330 
  266.8750     0.0000     0.0000    13.8190    18.1610   253.3440    -4.7330     7.0310    26.2510    22.1260 
  267.0000     0.0000     0.0000    13.8190    18.1610   254.0260    -4.7330     7.0630    25.8040    24.8210 
  267.1250     0.0000     0.0000    13.9660    18.1620   254.3560    -4.7320     7.1420    25.7350    21.5090 
  267.2500     0.0000     0.0000    14.0200    18.1630   254.3620    -4.7320     7.1580    25.7540    20.0000 
  267.3750     0.0000     0.0000    14.0200    18.1630   254.0040    -4.7320     7.1460    26.0610    19.8910 
  267.5000     0.0000     0.0000    14.0210    18.1640   253.3750    -4.7320     7.1620    26.2700    20.5840 
  267.6250     0.0000     0.0000    14.0210    18.1640   253.3810    -4.7770     7.1620    26.4330    20.2760 
  267.7500     0.0000     0.0000    14.2220    18.1650   252.4850    -4.8510     7.1620    26.6110    20.9700 
  267.8750     0.0000     0.0000    14.2220    18.1660   253.3940    -4.9130     7.1260    27.1540    22.0630 
  268.0000     0.0000     0.0000    14.1810    18.1660   254.4000    -4.9760     7.1230    28.1260    21.0540 
  268.1250     0.0000     0.0000    14.0220    17.8090   254.4060    -5.0320     7.1030    26.9510    17.2420 
  268.2500     0.0000     0.0000    13.8460    17.5670   254.4120    -5.0320     7.0870    25.7950    16.0330 
  268.3750     0.0000     0.0000    13.5200    17.0820   253.0530    -5.0310     7.1030    25.2390    18.9280 
  268.5000     0.0000     0.0000    13.0190    16.9670   251.9990    -4.9310     7.0730    25.1120    18.3210 
  268.6250     0.0000     0.0000    13.2200    17.1680   250.4460    -4.9310     6.9910    25.0410    22.1160 
  268.7500     0.0000     0.0000    13.4210    17.3690   249.4370    -4.9310     6.9050    24.9410    22.4080 
  268.8750     0.0000     0.0000    13.7250    17.5700   249.4440    -4.9300     6.8280    24.6430    21.7990 
  269.0000     0.0000     0.0000    13.9990    17.8640   249.4500    -5.1520     6.7700    24.7560    23.5930 
  269.1250     0.0000     0.0000    14.1000    17.9720   249.4560    -5.4210     6.7230    24.9420    25.1860 
  269.2500     0.0000     0.0000    14.4250    18.1730   250.4620    -5.7300     6.6490    24.8430    23.9780 
  269.3750     0.0000     0.0000    14.4250    18.5740   250.4690    -6.1330     6.5990    24.8680    21.3680 
  269.5000     0.0000     0.0000    14.2250    18.5750   248.6320    -5.9950     6.5370    24.9420    24.5630 
  269.6250     0.0000     0.0000    14.4260    19.1760   245.5660    -5.7450     6.5270    24.8930    30.1580 
  269.7500     0.0000     0.0000    14.6650    19.6140   241.4210    -5.3330     6.5470    24.7440    30.3500 
  269.8750     0.0000     0.0000    14.8280    20.1090   240.4940    -5.1290     6.5470    24.7440    25.7400 
  270.0000     0.0000     0.0000    15.2290    20.1800   241.1570    -5.0290     6.5270    24.7440    25.7320 
  270.1250     0.0000     0.0000    15.5800    20.3810   242.7290    -4.9290     6.5070    24.7440    24.1230 
  270.2500     0.0000     0.0000    15.4550    19.7800   243.5120    -4.9280     6.5270    24.8440    24.8150 
  270.3750     0.0000     0.0000    15.2300    19.5990   244.5190    -4.7280     6.5200    24.8440    28.5080 
  270.5000     0.0000     0.0000    15.0290    19.5810   243.5250    -4.6580     6.5070    24.8450    29.2010 
  270.6250     0.0000     0.0000    15.2300    19.7820   242.5800    -4.4450     6.5330    24.5630    29.1930 
  270.7500     0.0000     0.0000    15.0300    20.1830   240.4700    -4.4260     6.5740    24.4470    33.4860 
  270.8750     0.0000     0.0000    15.2310    20.3840   237.5440    -4.4260     6.6040    24.2910    32.6780 
  271.0000     0.0000     0.0000    15.6320    19.9400   237.7030    -4.4260     6.6260    24.2480    31.2700 
  271.1250     0.0000     0.0000    15.8330    19.5850   238.5560    -4.4260     6.6460    24.2480    30.1610 
  271.2500     0.0000     0.0000    16.0340    19.2130   239.5620    -4.4730     6.6460    24.3240    24.0520 
  271.3750     0.0000     0.0000    15.2310    19.1850   240.2620    -4.5260     6.6700    24.6070    23.9450 
  271.5000     0.0000     0.0000    15.2320    18.9860   241.1820    -4.5250     6.7060    24.7180    27.9370 
