~V
VERS. 2.00: Ver 2.00
~W
STRT.M 80.0000:
STOP.M 287.0000:
STEP.M 0.1250:
NULL. -999.2500:
UWI. жи32:
~C
DEPT.M :
DEN.GM/CC :
CNL.V/V :
RI. :
RML.OHMM :
AC.US/MT :
SP.MV :
GR.API :
CALI.CM :
RXO.OHMM :
~A
# ...
  207.7500     0.0000     0.0000    28.2180    31.7800   384.3870   -18.2340     6.4060    23.9200    80.3370 
  207.8750     0.0000     0.0000    26.3380    28.9110   385.3940   -18.0040     6.4090    23.9430    68.2870 
  208.0000     0.0000     0.0000    25.0910    35.2190   385.4000   -17.7710     6.4090    24.0430    51.2150 
  208.1250     0.0000     0.0000    32.9720    45.4260   384.0020   -17.5640     6.3700    24.0430   114.4810 
  208.2500     0.0000     0.0000    39.0090    52.0810   382.0020   -17.2670     6.3500    24.1360   151.6380 
  208.3750     0.0000     0.0000    43.9870    53.2410   380.4790   -16.9540     6.6080    24.1430   142.6000 
  208.5000     0.0000     0.0000    37.7930    47.2480   377.4250   -16.6420     6.8410    24.2420   119.5040 
  208.6250     0.0000     0.0000    35.8870    33.6850   378.4310   -16.2300     6.9270    24.1520    89.3770 
  208.7500     0.0000     0.0000    30.1060    32.0940   379.5940   -15.9630     6.9470    24.2140    60.2540 
  208.8750     0.0000     0.0000    28.0810    31.7930   380.4440   -15.5050     6.9530    24.1440    38.1610 
  209.0000     0.0000     0.0000    28.9080    41.9440   377.7800   -15.0940     6.9050    24.1440    29.1230 
  209.1250     0.0000     0.0000    32.4370    45.3380   370.2680   -14.3510     6.8190    23.9750    83.3530 
  209.2500     0.0000     0.0000    36.5410    49.5030   340.5100   -13.7680     6.6850    23.6750    83.3530 
  209.3750     0.0000     0.0000    40.3500    51.8230   317.0140   -13.2750     6.6160    23.3470    75.3190 
  209.5000     0.0000     0.0000    38.5450    47.8960   303.7120   -12.7980     6.5820    23.0720    69.2940 
  209.6250     0.0000     0.0000    37.2560    46.5170   296.1930   -12.2800     6.5200    22.9520    69.2940 
  209.7500     0.0000     0.0000    35.0920    43.3830   294.4880   -12.0190     6.3890    22.9290    83.3540 
  209.8750     0.0000     0.0000    34.1740    40.1830   323.1920   -11.3820     6.3890    22.9110    76.3240 
  210.0000     0.0000     0.0000    24.1090    32.3690   341.7520   -10.3950     6.4490    23.2840    62.6660 
  210.1250     0.0000     0.0000    15.7410    22.9120   372.1660    -9.9830     6.5280    23.5270    44.1880 
  210.2500     0.0000     0.0000    14.1060    19.6390   399.1040    -9.6710     6.5790    23.7370    32.6390 
  210.3750     0.0000     0.0000    12.8730    15.6260   407.5190    -9.1590     6.6090    23.9470    21.9940 
  210.5000     0.0000     0.0000    12.0090    14.3990   409.3350    -8.9460     6.6020    23.9360    17.4750 
  210.6250     0.0000     0.0000    11.2600    12.7250   402.0540    -8.8290     6.5640    23.8740    12.6540 
  210.7500     0.0000     0.0000    10.3220    12.2660   396.1770    -8.8250     6.5330    24.0480    11.0470 
  210.8750     0.0000     0.0000     8.9490    12.8150   380.2890    -8.8330     6.3740    23.9980    11.4490 
  211.0000     0.0000     0.0000     9.2740    13.6400   369.4170    -8.9250     6.2700    23.7500    12.9550 
  211.1250     0.0000     0.0000    10.1020    15.8510   343.4470    -9.0460     6.2890    23.8490    15.8680 
  211.2500     0.0000     0.0000    12.3700    17.7820   333.2820    -9.2020     6.3110    23.8500    14.9640 
  211.3750     0.0000     0.0000    15.3590    19.1930   331.5690    -9.4040     6.3500    23.9500    13.8590 
  211.5000     0.0000     0.0000    17.1940    20.4030   332.5750    -9.4660     6.3900    24.0460    17.1740 
  211.6250     0.0000     0.0000    17.8200    23.2160   309.5030    -9.5250     6.4100    23.9840    20.6890 
  211.7500     0.0000     0.0000    18.3390    25.2960   328.0740    -9.5770     6.4810    23.9500    27.3170 
  211.8750     0.0000     0.0000    18.2940    25.4200   351.6180    -9.6250     6.5970    23.9500    29.5270 
  212.0000     0.0000     0.0000    18.1380    25.2860   385.6140    -9.6250     6.6890    23.9500    29.5270 
  212.1250     0.0000     0.0000    18.3320    25.6080   401.3980    -9.6390     6.7090    23.9510    29.5270 
  212.2500     0.0000     0.0000    18.7500    25.6880   408.5580    -9.7250     6.7110    24.0460    30.3310 
  212.3750     0.0000     0.0000    19.1100    25.2560   412.6630    -9.7240     6.7970    23.9530    33.9460 
  212.5000     0.0000     0.0000    18.4340    24.6100   415.6250    -9.7240     6.8750    24.1080    34.4490 
  212.6250     0.0000     0.0000    17.9090    23.8030   413.7360    -9.7890     6.8680    24.1500    30.1300 
  212.7500     0.0000     0.0000    17.0220    22.7760   411.7160    -9.7240     6.8380    24.3490    27.8200 
  212.8750     0.0000     0.0000    16.1910    21.6100   404.0880    -9.7140     6.8170    24.3500    25.0080 
  213.0000     0.0000     0.0000    15.9480    20.9220   394.7180    -9.5070     6.7520    24.2500    24.3050 
  213.1250     0.0000     0.0000    16.3240    21.2880   389.9060    -9.3270     6.6800    24.2060    22.6980 
  213.2500     0.0000     0.0000    16.9660    21.9030   386.7990    -9.1700     6.6890    24.1510    19.1830 
  213.3750     0.0000     0.0000    17.5380    22.4900   381.6990    -9.0800     6.7090    24.1520    27.1180 
  213.5000     0.0000     0.0000    17.4060    21.9620   393.8900    -9.0010     6.7090    24.0520    32.8430 
  213.6250     0.0000     0.0000    15.9600    20.7440   402.9020    -8.9230     6.6290    23.9530    33.4450 
  213.7500     0.0000     0.0000    15.2700    18.7690   414.1630    -8.8180     6.6470    23.8540    25.8120 
  213.8750     0.0000     0.0000    15.9640    20.1190   417.9260    -8.7360     6.7720    23.8540    19.0830 
  214.0000     0.0000     0.0000    17.2210    25.6160   420.7000    -9.0510     6.7690    23.8540    28.5240 
  214.1250     0.0000     0.0000    19.4840    26.6810   419.7060    -9.1920     6.7880    23.9160    36.5590 
  214.2500     0.0000     0.0000    21.3640    28.3120   412.7950    -9.3210     6.8310    24.0520    40.0750 
  214.3750     0.0000     0.0000    22.5290    28.4250   404.5230    -9.2310     6.8690    24.0630    52.5290 
  214.5000     0.0000     0.0000    21.6390    26.6660   383.6170    -9.2200     6.8150    24.1530    58.3550 
  214.6250     0.0000     0.0000    20.2910    23.6090   385.6960    -9.1270     6.7490    24.1540    44.3940 
  214.7500     0.0000     0.0000    18.5450    22.8130   394.5420    -9.0840     6.7290    24.1770    23.2010 
  214.8750     0.0000     0.0000    19.6970    25.6370   405.3150    -9.0190     6.7640    24.2540    25.6120 
  215.0000     0.0000     0.0000    22.1190    27.5880   412.3370    -8.9190     6.8460    24.2540    33.3460 
  215.1250     0.0000     0.0000    22.1920    26.5490   414.6860    -9.4200     6.9280    24.1550    41.9840 
  215.2500     0.0000     0.0000    21.1440    25.2910   411.7620    -9.4200     6.9470    23.9890    42.4860 
  215.3750     0.0000     0.0000    20.5540    24.7030   413.9310    -9.2630     6.8790    23.8570    32.4420 
  215.5000     0.0000     0.0000    20.8190    25.1670   418.0250    -9.2190     6.9120    23.8570    29.6300 
  215.6250     0.0000     0.0000    20.9120    25.3490   418.4040    -9.1220     6.9690    23.8650    36.0580 
  215.7500     0.0000     0.0000    20.8130    25.8740   413.4770    -9.0830     6.9690    23.9270    38.7700 
  215.8750     0.0000     0.0000    20.9570    26.9720   406.6310    -9.0090     6.9690    23.9240    33.8490 
  216.0000     0.0000     0.0000    21.4400    25.9450   398.4520    -8.8520     6.9860    23.8620    39.8760 
  216.1250     0.0000     0.0000    15.9360    23.9360   386.5500    -8.5750     6.9490    23.9540    42.3870 
  216.2500     0.0000     0.0000    12.8280    21.4840   378.1240    -8.2630     6.9470    23.9570    41.1820 
  216.3750     0.0000     0.0000    11.2570    15.6430   373.8190    -8.0320     6.7900    24.0110    26.9190 
  216.5000     0.0000     0.0000    10.4650    14.1310   373.8250    -7.7380     6.8170    24.0570    19.6870 
  216.6250     0.0000     0.0000     9.8850    13.0760   369.3490    -7.3380     6.8890    24.0580    14.2630 
  216.7500     0.0000     0.0000     8.9680    11.0170   364.9550    -7.0130     6.8970    24.0580    15.3680 
