~V
VERS. 2.00: Ver 2.00
~W
STRT.M 140.0000:
STOP.M 339.0000:
STEP.M 0.1250:
NULL. -999.2500:
UWI. жи50:
~C
DEPT.M :
RML.OHMM :
AC.US/MT :
CALI.CM :
DEN.GM/CC :
GR.API :
RI. :
RXO.OHMM :
SP.MV :
~A
# ...
  240.0000     6.7250   392.9200    25.7500     2.3400     7.2240     6.0200     7.1960    -4.9510 
  240.1250     6.7260   400.2640    25.7500     2.3390     7.3540     5.9760     7.2940    -5.1060 
  240.2500     6.7460   405.8340    25.6370     2.3500     7.4990     6.0980     7.5580    -5.1660 
  240.3750     7.1380   401.6110    25.5600     2.3490     7.4390     6.5030     8.1420    -5.3840 
  240.5000     9.2970   377.5720    25.4960     2.3450     7.2210     8.2850    10.6730    -5.5070 
  240.6250    11.4150   353.1920    25.4960     2.3540     6.9730    11.1710    24.4690    -5.6930 
  240.7500    14.1090   302.7900    25.4440     2.3470     6.3200    11.5800    25.9150    -5.9310 
  240.8750    12.5920   304.6340    25.4330     2.3260     6.2190    10.4670    17.8730    -6.2230 
  241.0000    11.3150   345.9250    25.3870     2.3040     6.3240     9.4220    13.9200    -6.4230 
  241.1250     9.8500   368.6330    25.3700     2.2940     6.4060     9.2020    11.0490    -6.6490 
  241.2500    12.3810   414.5400    25.3700     2.2950     6.4580    15.5270    11.9850    -6.8010 
  241.3750    16.0930   449.2380    25.3700     2.3020     6.1260    18.4490    17.5160    -7.0300 
  241.5000    26.8850   403.9290    25.2760     2.2980     5.8090    20.9470    26.6310    -7.1340 
  241.6250    28.4080   359.4490    25.2430     2.2880     5.8340    21.8620    30.0900    -7.3400 
  241.7500    28.1290   399.5070    25.1800     2.2780     5.9440    21.9400    28.7470    -7.5460 
  241.8750    27.4740   387.9980    25.1800     2.2690     6.0600    21.8030    29.5330    -7.6820 
  242.0000    26.7860   391.4730    25.1800     2.2630     6.2250    20.7680    27.2780    -7.8360 
  242.1250    28.1590   396.4580    25.1980     2.2490     6.3100    22.9390    25.3810    -8.0860 
  242.2500    29.2640   399.5400    25.2440     2.2480     6.4070    24.6040    27.8810    -8.2540 
  242.3750    30.2730   406.8590    25.2440     2.2470     6.3550    25.1310    29.4630    -8.4090 
  242.5000    29.8160   407.9500    25.2500     2.2550     6.1930    23.5470    31.1790    -8.5520 
  242.6250    28.3940   403.1470    25.3080     2.2690     6.1010    22.2910    30.7320    -8.7140 
  242.7500    27.8010   400.5760    25.3080     2.2750     6.0380    22.6250    28.1970    -8.9010 
  242.8750    28.5950   395.6730    25.3080     2.2800     6.1300    23.3510    29.1420    -9.0670 
  243.0000    29.4180   385.8400    25.3700     2.2910     6.2810    22.3210    27.7890    -9.2090 
  243.1250    26.7270   375.6310    25.3080     2.3250     6.3310    20.6740    26.9920    -9.3790 
  243.2500    24.0120   362.7900    25.3090     2.3530     6.1280    18.9240    25.5200    -9.5290 
  243.3750    23.2390   354.5950    25.2990     2.3720     5.9930    17.4330    23.3310    -9.6950 
  243.5000    21.3760   356.3660    25.2470     2.3840     5.3610    16.5440    22.6910    -9.8500 
  243.6250    20.7440   360.4830    25.2450     2.3940     5.3130    16.7840    20.4260   -10.0290 
  243.7500    22.6110   345.2270    25.1850     2.3890     5.1190    19.3180    22.7130   -10.1910 
  243.8750    25.4670   341.3750    25.1820     2.4110     5.1190    22.8840    25.7510   -10.3140 
  244.0000    27.2150   261.9770    25.1820     2.4280     5.2440    25.4940    34.5420   -10.3850 
  244.1250    30.8010   245.8680    25.1820     2.4620     5.3840    27.2830    43.2190   -10.4410 
  244.2500    33.4170   276.3310    25.1830     2.4070     5.5090    17.9150    39.6270   -10.4970 
  244.3750    18.5490   311.2090    25.1830     2.2940     5.6340    15.1870    33.9880   -10.3730 
  244.5000    17.0910   344.0190    25.2890     2.2940     5.7770    13.6840    17.9950   -10.2670 
  244.6250    16.5900   359.0000    25.4430     2.3120     5.9280    13.3310    16.6010   -10.1640 
  244.7500    16.4600   382.1610    25.5650     2.2980     5.8520    13.3310    16.2370   -10.0400 
  244.8750    16.3330   383.7830    25.6290     2.2990     5.8140    13.4590    15.8270    -9.9040 
  245.0000    16.4430   379.3180    25.6290     2.3120     5.7340    13.3340    15.7290    -9.6980 
  245.1250    16.4610   379.3770    25.6290     2.3230     5.9960    13.3300    15.7300    -9.5150 
  245.2500    16.5200   381.0980    25.6290     2.3270     6.2730    13.3300    15.7300    -9.3530 
  245.3750    16.8110   384.1330    25.6290     2.3240     6.4270    13.3300    15.6040    -9.1610 
  245.5000    17.2300   385.5870    25.6300     2.3180     6.5540    13.6280    15.7310    -8.9170 
  245.6250    17.6460   373.0290    25.6300     2.3210     6.6800    14.3050    15.8770    -8.6670 
  245.7500    18.1260   352.7890    25.6300     2.3310     6.7440    14.6140    16.5650    -8.4780 
  245.8750    17.3240   346.2220    25.5660     2.3420     6.6380    13.0700    16.9890    -8.2610 
  246.0000    15.4210   370.8320    25.5670     2.3490     6.6090    11.8410    15.6090    -8.1370 
  246.1250    13.9820   389.7970    25.6460     2.3460     6.7430    10.1820    13.4790    -8.0820 
  246.2500    12.9690   390.1330    25.6810     2.3410     6.7810     8.9470    11.0630    -7.9580 
  246.3750    11.6200   387.6470    25.6730     2.3400     6.8060     8.7040     9.7900    -7.9040 
  246.5000    10.5350   385.0170    25.6790     2.3390     7.0060     9.5870     9.2510    -7.7440 
  246.6250    10.2470   384.3080    25.6950     2.3360     6.9720     9.9880     9.9270    -7.6760 
  246.7500    10.7800   385.2360    25.6950     2.3330     6.8450     9.8590    10.5750    -7.5840 
  246.8750    11.2970   377.4400    25.6950     2.3270     6.7900    10.3550    10.7950    -7.4610 
  247.0000    11.7310   371.6460    25.6950     2.3220     6.7200    13.3530    12.2960    -7.4610 
  247.1250    15.7220   372.1510    25.6950     2.3130     6.4240    17.0330    13.4480    -7.4610 
  247.2500    18.5890   379.0670    25.7570     2.3020     6.0110    19.1430    15.8540    -7.3480 
  247.3750    21.8730   384.9600    25.7590     2.2960     5.6190    19.5320    21.9120    -7.4600 
  247.5000    24.5310   384.9720    25.7590     2.3090     5.1700    18.9280    24.5080    -7.4600 
  247.6250    25.4020   376.1310    25.7590     2.3510     5.1930    23.3870    24.8910    -7.4600 
  247.7500    27.9000   350.8200    25.7840     2.4060     5.3130    26.4840    26.3960    -7.4600 
  247.8750    31.8800   305.4670    25.6320     2.4800     5.4450    28.6170    29.7000    -7.4400 
  248.0000    40.6400   261.8210    25.5800     2.4920     5.3800    30.6260    35.2600    -7.3280 
  248.1250    46.5580   250.4210    25.5050     2.5060     5.3570    33.2830    48.9120    -7.2700 
  248.2500    48.1380   246.9560    25.4650     2.5160     5.3720    22.4420    51.9510    -7.1840 
  248.3750    36.9010   249.8190    25.4420     2.5000     5.3180    18.8310    47.4920    -7.1120 
  248.5000    33.3350   265.7040    25.3630     2.4790     5.5020    17.3200    41.1080    -7.0800 
  248.6250    22.5440   281.6320    25.3150     2.4620     5.7690    16.2330    21.0930    -7.0790 
  248.7500    18.7490   310.5090    25.3150     2.4470     6.1910    13.6620    19.4500    -7.0790 
  248.8750    16.5080   334.0900    25.3790     2.4200     6.2790    12.1080    17.0990    -6.9900 
  249.0000    14.0800   363.4440    25.4420     2.3870     6.4250     9.5180    14.8220    -6.9520 
  249.1250    12.8660   374.9200    25.5070     2.3750     7.0720     7.7280    12.8610    -6.8170 
  249.2500    10.1890   382.3350    25.6700     2.3920     7.2120     6.8770    10.1840    -6.7030 
  249.3750     8.7960   388.9550    25.7760     2.4060     7.3810     6.3750     8.8150    -6.5650 
  249.5000     8.1650   397.5010    25.8250     2.4170     7.3550     6.3200     7.6240    -6.4590 
  249.6250     7.7900   402.8680    25.8260     2.4140     7.3430     6.5130     6.8150    -6.3810 
  249.7500     7.5140   392.3610    25.7300     2.4170     7.1860     6.6410     6.7400    -6.3190 
  249.8750     7.8130   380.6020    25.6350     2.4260     7.1460     6.6410     7.0710    -6.0700 
