~V
VERS. 2.00: Ver 2.00
~W
STRT.M 140.0000:
STOP.M 339.0000:
STEP.M 0.1250:
NULL. -999.2500:
UWI. жи50:
~C
DEPT.M :
RML.OHMM :
AC.US/MT :
CALI.CM :
DEN.GM/CC :
GR.API :
RI. :
RXO.OHMM :
SP.MV :
~A
# ...
  200.0000    17.5050   268.9730    25.1080     2.4980     4.9920    13.9180    15.8880    -8.8020 
  200.1250    18.5330   271.2950    25.0650     2.4860     5.0780    14.4230    15.2470    -8.8020 
  200.2500    18.7840   270.4130    25.1190     2.4880     5.2130    14.6830    15.4980    -8.8020 
  200.3750    18.4120   266.1300    25.1930     2.4890     5.2120    13.6590    15.8130    -8.8710 
  200.5000    17.6570   263.0690    25.1930     2.4940     5.1260    13.6590    16.5830    -8.9750 
  200.6250    17.2290   264.9570    25.2470     2.5010     4.9370    14.2120    17.1420    -9.0540 
  200.7500    17.8900   266.3710    25.1930     2.5020     4.8280    14.1490    16.9210    -9.0860 
  200.8750    17.0600   262.8180    25.1560     2.4950     4.9900    12.9870    17.1630    -9.1520 
  201.0000    16.1050   261.3470    25.1300     2.4930     5.1610    12.2500    17.9190    -9.2110 
  201.1250    15.2950   262.7250    25.0660     2.5030     5.3080    11.9940    16.0090    -9.2700 
  201.2500    15.3430   266.3820    25.0350     2.5010     5.4480    12.5060    14.9680    -9.3290 
  201.3750    16.5550   268.7190    24.9410     2.4930     5.5780    13.0260    14.7400    -9.4020 
  201.5000    17.4090   266.4170    24.9400     2.4840     5.4110    13.4170    15.8400    -9.4920 
  201.6250    18.4120   265.2410    24.8760     2.4760     5.2830    14.0480    16.3440    -9.5770 
  201.7500    19.2210   264.2850    24.9400     2.4710     5.1940    14.8070    17.3350    -9.6700 
  201.8750    20.1370   263.5680    24.9400     2.4730     5.0620    15.5670    18.2600    -9.8210 
  202.0000    20.3630   261.7200    24.9910     2.4820     4.7360    16.0980    20.5610    -9.9710 
  202.1250    19.8350   259.8730    25.0680     2.4870     4.7540    15.2230    21.9140   -10.0630 
  202.2500    19.8460   257.3930    25.0680     2.4810     4.8030    16.1910    19.8510   -10.2440 
  202.3750    21.8930   256.1280    25.1760     2.4710     4.8750    18.1370    22.9050   -10.3910 
  202.5000    23.6470   256.6700    25.3650     2.4640     4.7040    17.5080    25.0140   -10.5590 
  202.6250    22.8470   261.3240    25.2260     2.4590     4.5660    16.3800    24.7430   -10.7940 
  202.7500    21.1970   266.1040    24.8900     2.4590     4.7240    15.8320    22.4700   -10.9590 
  202.8750    20.4520   270.0890    24.6380     2.4570     4.8730    16.3720    20.5040   -11.1390 
  203.0000    20.5370   274.4040    24.4330     2.4570     4.8380    16.7070    19.2270   -11.2020 
  203.1250    20.9560   278.0330    24.3050     2.4580     4.9660    16.1930    17.8470   -11.2650 
  203.2500    20.8620   279.2400    24.2420     2.4600     4.9340    16.8120    17.8800   -11.3290 
  203.3750    21.3080   274.3300    24.3060     2.4690     4.6390    17.4860    18.9870   -11.4220 
  203.5000    22.1390   269.0190    24.4510     2.4830     4.7490    15.8450    21.2050   -11.4280 
  203.6250    20.3800   262.7360    24.5610     2.4930     4.7340    15.0710    20.8960   -11.3910 
  203.7500    19.8150   253.3720    24.7660     2.4820     4.6810    16.0340    21.3180   -11.3910 
  203.8750    20.4810   246.6480    24.8790     2.4670     4.6130    15.9940    21.7700   -11.3540 
  204.0000    20.0270   250.3960    24.8670     2.4550     4.5640    15.2130    20.7810   -11.2160 
  204.1250    19.6700   266.2090    24.7520     2.4490     4.9000    14.6770    19.7910   -11.0920 
  204.2500    20.3580   275.5970    24.6110     2.4450     5.0170    16.3420    20.6920   -10.9370 
  204.3750    21.7290   280.7690    24.4860     2.4430     5.1340    15.4000    22.4530   -10.8320 
  204.5000    19.7370   278.4460    24.3710     2.4380     5.2180    14.2970    19.4900   -10.6870 
  204.6250    17.1030   279.8750    24.3150     2.4300     5.2320    12.9230    18.1380   -10.5340 
  204.7500    15.3240   285.7150    24.3710     2.4220     5.2960    12.0420    15.7290   -10.3980 
  204.8750    14.9660   289.0860    24.3710     2.4270     5.4570    12.0050    14.5040   -10.2550 
  205.0000    15.9510   285.5820    24.3710     2.4340     5.2000    13.1410    13.7860   -10.2110 
  205.1250    16.4350   281.8390    24.3550     2.4390     5.0730    13.4040    15.2270   -10.0480 
  205.2500    14.1910   279.2420    24.4120     2.4380     5.1360    11.1980    16.5340    -9.9700 
  205.3750    12.5810   283.5130    24.4720     2.4290     5.2030     9.3650    15.7030    -9.8780 
  205.5000    11.4360   298.7160    24.5630     2.4210     5.3010     8.7020    15.3450    -9.7910 
  205.6250     9.9760   311.3210    24.6810     2.4170     5.4510     8.5290    11.0210    -9.6260 
  205.7500    11.4740   321.2140    24.8810     2.4300     5.5520     8.7840    10.0650    -9.4610 
  205.8750    12.0980   317.3050    24.9630     2.4380     5.6830     9.2230    10.6770    -9.3740 
  206.0000    12.6910   308.0590    25.0560     2.4380     5.6770     9.8390    11.3920    -9.2750 
  206.1250    13.2180   303.0910    25.0730     2.4350     5.6830    10.2600    12.3530    -9.1720 
  206.2500    13.7000   301.1360    25.1160     2.4270     5.7500    10.7040    12.9470    -9.1720 
  206.3750    13.8210   300.5050    25.1550     2.4240     5.8880    10.5580    13.1870    -9.1720 
  206.5000    14.1060   296.2540    25.0580     2.4270     5.8660    10.4560    13.1870    -9.2270 
  206.6250    14.3910   292.9090    24.9460     2.4370     5.9840    10.9600    13.3260    -9.2340 
  206.7500    14.7090   291.8780    24.9530     2.4480     5.7630    11.2160    13.8280    -9.2970 
  206.8750    14.4690   295.6000    25.0130     2.4520     5.7880    10.7770    14.4570    -9.2970 
  207.0000    13.3680   299.8540    25.0750     2.4500     5.7800    10.0630    11.9330    -9.2970 
  207.1250    12.5360   302.1760    25.0160     2.4460     5.9350    10.6630    11.7770    -9.2690 
  207.2500    13.0560   300.4220    24.8290     2.4450     6.0850    10.6240    13.0690    -9.2330 
  207.3750    13.1760   299.3220    24.7310     2.4380     6.0660    10.2100    14.2540    -9.4270 
  207.5000    12.2510   301.3530    24.6920     2.4230     5.9170    10.0620    15.0970    -9.6770 
  207.6250    12.7110   303.6880    24.6930     2.4160     5.8300    10.3670    12.7660   -10.0520 
  207.7500    13.6020   303.0570    24.6930     2.4230     5.9010    11.0390    12.6830   -10.3650 
  207.8750    14.3330   302.4600    24.7100     2.4230     5.9560    11.5340    13.2650   -10.6390 
  208.0000    14.8960   299.7400    24.7570     2.4230     6.0500    11.9820    14.0210   -10.7690 
  208.1250    15.9430   296.8670    24.6930     2.4330     6.2420    12.3730    14.7020   -10.8770 
  208.2500    17.1360   293.7550    24.6930     2.4300     6.3850    12.8880    15.5410   -10.9210 
  208.3750    18.3230   288.9400    24.6470     2.4260     6.3960    13.6430    16.8890   -11.0030 
  208.5000    17.9260   285.1680    24.6940     2.4230     6.5280    13.7740    18.6090   -10.9900 
  208.6250    17.0000   282.4510    24.6850     2.4240     6.5610    13.1800    18.4380   -10.6780 
  208.7500    16.3750   284.5520    24.6330     2.4240     6.4540    12.1900    16.7630   -10.3660 
  208.8750    17.3760   285.7750    24.6940     2.4240     6.2780    12.7060    15.8940   -10.1490 
  209.0000    18.1450   283.3680    24.6310     2.4270     6.0820    13.3890    17.7960    -9.9330 
  209.1250    17.1120   280.2760    24.7580     2.4290     5.9700    12.7460    19.0380    -9.7190 
  209.2500    14.5520   284.1550    24.7750     2.4330     5.7120    11.4140    18.4090    -9.5870 
  209.3750    13.2580   289.8290    24.8220     2.4340     5.5850    10.2760    17.2920    -9.3500 
  209.5000    12.2650   296.7370    24.8860     2.4360     5.4950     9.1310    13.8360    -9.1210 
  209.6250    11.6390   305.5510    24.9500     2.4340     5.3230     8.7770    11.5260    -8.8340 
  209.7500    11.2630   313.7310    25.0300     2.4310     5.0970     8.9540    10.5760    -8.6600 
  209.8750    11.3220   315.8550    25.1410     2.4180     4.9650     9.0320    10.9100    -8.4910 
