~V
VERS. 2.00: Ver 2.00
~W
STRT.M 140.0000:
STOP.M 339.0000:
STEP.M 0.1250:
NULL. -999.2500:
UWI. жи50:
~C
DEPT.M :
RML.OHMM :
AC.US/MT :
CALI.CM :
DEN.GM/CC :
GR.API :
RI. :
RXO.OHMM :
SP.MV :
~A
# ...
  190.0000     5.7230   421.4140    25.5290     2.3420     9.1850     4.3410     5.6320    -7.3620 
  190.1250     5.8060   414.0350    25.5620     2.3390     9.1590     4.4220     5.6330    -7.3210 
  190.2500     5.9100   408.2710    25.5620     2.3410     8.6730     4.5950     5.7580    -7.2990 
  190.3750     6.0500   411.4020    25.6120     2.3420     8.5440     4.6830     5.6990    -7.2350 
  190.5000     6.1080   413.5740    25.5950     2.3480     8.3550     4.7220     5.6370    -7.2350 
  190.6250     6.1710   416.6910    25.5730     2.3570     8.1140     4.8500     5.7620    -7.2350 
  190.7500     6.2520   421.0590    25.5630     2.3680     8.1350     5.1050     5.7620    -7.2340 
  190.8750     6.3760   416.5430    25.5240     2.3750     8.2850     5.3580     5.7620    -7.2340 
  191.0000     6.4410   401.0160    25.5280     2.3720     8.3100     5.7440     5.7820    -7.2340 
  191.1250     6.6320   389.4580    25.5550     2.3670     7.9910     5.8720     5.8900    -7.2340 
  191.2500     6.8760   390.6380    25.4360     2.3630     7.5900     5.4710     6.7140    -7.2670 
  191.3750     6.8770   400.8240    25.4360     2.3640     7.5510     4.9520     6.9080    -7.3610 
  191.5000     6.5140   410.1720    25.4370     2.3870     7.4460     5.0030     6.3130    -7.4230 
  191.6250     8.1410   376.6510    25.4370     2.4010     7.5460     7.2950     6.9310    -7.5440 
  191.7500     9.6700   338.9690    25.4370     2.4080     7.6180     8.8060     9.5730    -7.6130 
  191.8750    10.9030   324.6440    25.3730     2.4130     6.8480    10.1740    11.5280    -7.6890 
  192.0000    12.7570   325.1110    25.2580     2.4190     6.5730     7.0910    13.5910    -7.7920 
  192.1250     9.9510   340.5680    25.2220     2.4180     6.3120     8.6360    15.5510    -7.9560 
  192.2500    12.3150   305.5090    25.2900     2.4170     6.2490    11.6580    14.6710    -8.1190 
  192.3750    14.5340   297.1450    25.4380     2.4250     6.1790    10.6230    22.2990    -8.1540 
  192.5000    10.8020   315.2560    25.5010     2.4090     6.2100     8.2940    23.7850    -8.2690 
  192.6250    11.3410   338.8450    25.3760     2.4130     6.2440     8.4700    13.2950    -8.4360 
  192.7500    14.3630   356.2940    25.2170     2.4320     6.1270    10.7410    12.4280    -8.4980 
  192.8750    18.1440   294.0590    25.0490     2.4570     5.9090    14.8730    16.5090    -8.6240 
  193.0000    21.0310   277.5780    24.9830     2.4890     5.6170    17.3690    34.0450    -8.4970 
  193.1250    17.8420   283.5060    24.9930     2.4580     5.6370    13.6250    37.4580    -8.3630 
  193.2500    14.5400   306.7070    25.1840     2.4390     5.6890    12.5070    17.8280    -8.1930 
  193.3750    13.1260   327.4850    25.2480     2.4420     5.7710    11.3640    14.7960    -8.0380 
  193.5000    11.3550   338.1800    25.1820     2.4520     5.8370     8.8500    15.1100    -7.8670 
  193.6250    19.0380   307.7770    25.1210     2.4610     5.8760    17.2210    14.5640    -7.6660 
  193.7500    21.9270   288.8390    25.1210     2.4710     5.5230    20.7600    25.4750    -7.5620 
  193.8750    27.4990   246.4070    25.1210     2.4650     5.6680    23.2130    32.0330    -7.4580 
  194.0000    32.2420   241.0670    25.1850     2.4450     5.9190    23.5180    35.8700    -7.3900 
  194.1250    29.6420   236.9300    25.1850     2.4330     6.1690    20.7020    31.5410    -7.4190 
  194.2500    22.5320   238.9160    25.2200     2.4240     6.4350    15.5840    30.6900    -7.5280 
  194.3750    13.6130   253.8810    25.3130     2.4110     6.9620    14.2530    29.4340    -7.5450 
  194.5000     8.5780   276.6700    25.3770     2.3870     7.1700     9.1750    25.4760    -7.5450 
  194.6250     6.9720   316.5220    25.3770     2.3640     7.4180     4.9680    17.7480    -7.7220 
  194.7500     7.5300   385.0810    25.3180     2.3540     7.3840     5.7170     5.6390    -7.9720 
  194.8750     9.0850   433.1260    25.2500     2.3570     7.1780     6.6400     5.9020    -8.1230 
  195.0000    10.1150   418.1910    25.2500     2.3620     7.2140     7.6550     6.9050    -8.2410 
  195.1250    11.1040   389.5330    25.2500     2.3710     7.2350     8.4750     8.0470    -8.2780 
  195.2500    11.6140   365.8150    25.2500     2.3820     7.2150     8.8960     9.1240    -8.1700 
  195.3750    10.1820   352.6470    25.2500     2.3910     7.5190     7.2200     9.9720    -8.0810 
  195.5000     9.2090   382.8960    25.1870     2.3900     7.7790     5.5800    10.6080    -8.0200 
  195.6250     7.0180   401.0930    25.1870     2.3770     8.2430     5.1710     8.4100    -7.8640 
  195.7500     6.6880   428.5950    25.2480     2.3690     8.2880     5.9300     7.1490    -7.7590 
  195.8750     6.8610   421.5110    25.2510     2.3760     8.4110     6.3380     7.0680    -7.6840 
  196.0000     6.9230   409.4130    25.3280     2.3820     8.4030     6.3730     7.0920    -7.8050 
  196.1250     6.7880   418.7390    25.3680     2.3850     8.6580     5.9690     7.1170    -7.8830 
  196.2500     6.5310   432.0040    25.3790     2.3880     8.3130     5.6540     7.1410    -7.9730 
  196.3750     6.9110   448.3160    25.4420     2.4090     8.1160     5.4950     7.1660    -8.0760 
  196.5000     9.2910   468.7830    25.4430     2.4260     7.9550     6.1460     7.8000    -8.1920 
  196.6250    14.9620   409.7130    25.4430     2.4480     7.4190     8.6910     9.9220    -8.3030 
  196.7500    19.9640   330.9630    25.4430     2.4660     7.2510    12.1190    14.5280    -8.3960 
  196.8750    23.7000   288.2240    25.3880     2.4820     6.0160    16.4350    28.0760    -8.4890 
  197.0000    22.8440   241.1550    25.4180     2.4780     5.7680    14.6020    29.4510    -8.5480 
  197.1250    17.2130   249.1070    25.4070     2.4320     5.7220    11.5060    22.5330    -8.7370 
  197.2500    13.9150   272.7380    25.3800     2.4090     5.7210     9.8690    18.5610    -8.8070 
  197.3750    12.5950   305.1340    25.2850     2.3590     5.6020     9.8250    13.4420    -8.9440 
  197.5000    11.7890   330.8860    24.8730     2.3390     5.6450     9.6640    10.5240    -9.0720 
  197.6250    10.6400   345.5370    24.7890     2.3150     5.7620     9.2760    11.2770    -9.1230 
  197.7500     9.8750   366.4210    24.6840     2.3000     5.8700     8.7780     9.6980    -9.0590 
  197.8750     9.5750   381.6020    24.6170     2.2870     5.9740     8.3990     8.9280    -9.0230 
  198.0000     9.8640   397.1560    24.5540     2.2820     6.1760     8.1600     8.8370    -8.9320 
  198.1250    10.9690   404.8030    24.4900     2.2970     6.0130     9.2070     8.8370    -8.9320 
  198.2500    13.1100   385.3100    24.5540     2.3310     5.8980    10.4930     9.2190    -8.8050 
  198.3750    15.0450   354.0600    24.6180     2.3890     5.5860    12.1260    11.8830    -8.6290 
  198.5000    17.6240   277.5040    24.7450     2.4280     5.2940    13.3890    13.5760    -8.5070 
  198.6250    20.3010   257.0830    24.7450     2.5020     5.1840    14.5410    16.5300    -8.3860 
  198.7500    21.5400   245.3900    24.8160     2.5270     4.8210    14.9290    19.7320    -8.3610 
  198.8750    20.6980   242.0700    24.8730     2.5230     4.5650    15.1970    20.9710    -8.3490 
  199.0000    20.4430   244.8200    24.8760     2.5210     4.4560    14.9860    21.9730    -8.3610 
  199.1250    20.2340   249.6790    24.9370     2.5170     4.7390    14.4660    19.5990    -8.3610 
  199.2500    20.0100   254.0000    25.0020     2.5150     4.9060    14.1730    18.0410    -8.3630 
  199.3750    19.7730   256.4960    25.0640     2.5170     4.9900    14.4040    17.7440    -8.4460 
  199.5000    19.5220   258.6250    25.1280     2.5310     5.0750    14.6420    18.2470    -8.5270 
  199.6250    19.4220   261.3230    25.1810     2.5250     4.7880    14.6840    17.4950    -8.6490 
  199.7500    19.3290   263.6550    25.1280     2.5150     4.7670    14.4280    17.9800    -8.7110 
  199.8750    18.0740   266.5740    25.1770     2.5070     4.8840    14.1580    17.1910    -8.7670 
