~V
VERS. 2.00: Ver 2.00
~W
STRT.M 140.0000:
STOP.M 339.0000:
STEP.M 0.1250:
NULL. -999.2500:
UWI. жи50:
~C
DEPT.M :
RML.OHMM :
AC.US/MT :
CALI.CM :
DEN.GM/CC :
GR.API :
RI. :
RXO.OHMM :
SP.MV :
~A
# ...
  300.0000     4.0360   460.0230    26.0220     2.3140     2.9980     3.9540     3.6330     0.2140 
  300.1250     4.0360   459.9780    26.3380     2.3110     3.0760     3.9140     4.2650     0.2660 
  300.2500     4.0360   449.8080    26.5270     2.3190     3.1910     3.9530     4.8980     0.3220 
  300.3750     4.0370   443.3780    26.5880     2.3270     3.4090     3.8730     3.9170     0.4470 
  300.5000     4.0370   439.4570    26.5250     2.3260     3.6090     4.0030     4.9650     0.4470 
  300.6250     4.1650   434.4440    26.4040     2.3240     4.1250     4.0810     6.5110     0.4470 
  300.7500     4.5120   399.1880    25.9980     2.3270     4.4720     4.3440     8.5590     0.4470 
  300.8750     5.3990   364.1160    25.8880     2.3330     4.5800     4.8530    10.1400     0.4470 
  301.0000     6.4840   362.6120    25.8880     2.3390     4.6210     5.2370    11.1530     0.4470 
  301.1250     7.4900   392.4560    25.8890     2.3360     4.5010     6.0020     8.8730     0.4350 
  301.2500     9.0100   646.8220    26.0520     2.2950     4.5940     7.2770     6.7460     0.4380 
  301.3750     6.9620   614.2070    26.2870     2.2200     4.5000     6.8160     3.1230     0.3920 
  301.5000     5.2710   509.1730    26.3990     2.1840     4.2780     5.7190     2.4750     0.4240 
  301.6250     4.2830   483.1410    26.5380     2.1760     4.0300     4.5290     2.8050     0.4480 
  301.7500     4.0390   492.6370    26.6730     2.2100     3.9040     4.0250     3.0570     0.3870 
  301.8750     3.9120   496.0370    26.8610     2.2630     3.7910     3.7120     3.3090     0.4490 
  302.0000     3.9120   537.1100    26.6360     2.3200     3.6300     3.8740     3.4790     0.4970 
  302.1250     3.9120   494.7520    26.2010     2.3210     3.1990     3.9490     3.6530     0.6180 
  302.2500     4.0260   475.4960    25.8880     2.3220     2.9580     3.9480     3.8430     0.6380 
  302.3750     4.0140   423.9140    25.7010     2.3240     2.9740     3.9480     3.8430     0.6380 
  302.5000     3.9130   429.7670    25.5430     2.3250     3.0310     4.0750     3.6410     0.6090 
  302.6250     3.9130   435.3350    25.5080     2.3270     3.0860     4.0720     3.4630     0.5710 
  302.7500     4.0420   441.4950    25.3810     2.3240     3.0220     4.0760     3.3990     0.5130 
  302.8750     4.0910   447.3950    25.3810     2.3220     3.0740     4.0760     3.2090     0.4500 
  303.0000     4.0420   429.9740    25.3890     2.3160     3.0910     4.0610     3.3920     0.4070 
  303.1250     4.1700   417.7000    25.4360     2.3120     3.1890     3.9460     3.7260     0.3050 
  303.2500     4.1710   411.8600    25.4300     2.3110     3.3840     3.9460     4.1000     0.2250 
  303.3750     4.4230   408.8350    25.4460     2.3090     3.5450     3.9640     3.7820     0.1230 
  303.5000     4.5900   409.7040    25.5090     2.2820     3.6450     4.0750     3.5320     0.0380 
  303.6250     4.6840   417.6740    25.5380     2.2670     3.7510     3.9770     3.2250    -0.0710 
  303.7500     4.6840   428.6710    25.6250     2.2780     3.4800     3.8160     2.7960    -0.1630 
  303.8750     4.4900   442.5700    25.6750     2.2840     3.3590     3.8160     2.7040    -0.2500 
  304.0000     4.2810   461.3250    25.7650     2.2780     3.2640     3.9440     2.4690    -0.2480 
  304.1250     3.9700   469.4340    25.7650     2.2760     3.1950     3.9490     2.5210    -0.3050 
  304.2500     3.8620   464.9880    25.6800     2.2830     3.1450     3.8290     2.8720    -0.3050 
  304.3750     3.6610   445.0760    25.6790     2.2910     2.9980     3.7630     3.0510    -0.2420 
  304.5000     3.6560   438.7170    25.7020     2.2970     2.8900     3.8140     3.2790    -0.2020 
  304.6250     3.5760   437.5550    25.7020     2.3050     2.7180     3.8140     3.3420    -0.1720 
  304.7500     3.6610   442.4500    25.6650     2.3160     2.7610     3.8140     3.3420    -0.1330 
  304.8750     3.6620   446.8840    25.5450     2.3260     2.6890     3.8130     3.4300    -0.0600 
  305.0000     3.6620   449.5730    25.4650     2.3180     2.5770     3.8130     3.3840    -0.0520 
  305.1250     3.7610   450.5630    25.4100     2.3090     2.5930     3.8130     3.4710    -0.0130 
  305.2500     3.7450   445.5970    25.3530     2.3110     2.5830     3.8950     3.3440     0.0000 
  305.3750     3.9190   440.6200    25.3510     2.3260     2.7510     3.9410     3.3450    -0.0510 
  305.5000     3.9190   435.4110    25.3350     2.3370     2.8970     3.9410     3.4110    -0.0880 
  305.6250     4.0190   431.0810    25.3210     2.3480     3.0350     4.0290     3.5160    -0.1310 
  305.7500     4.0560   429.6980    25.2570     2.3530     3.1010     4.0690     3.6000    -0.2080 
  305.8750     4.1760   432.1210    25.2580     2.3580     3.1940     4.2570     3.6310    -0.3310 
  306.0000     4.2750   438.3810    25.3210     2.3440     3.3190     4.3270     3.7280    -0.3660 
  306.1250     4.2190   441.5440    25.3220     2.3320     3.5960     4.4890     3.9830    -0.5060 
  306.2500     4.3050   427.6500    25.2920     2.3280     4.1160     4.5840     4.2370    -0.6370 
  306.3750     4.3830   397.6040    25.2400     2.3270     4.2710     4.6900     4.4920    -0.6810 
  306.5000     4.5620   388.0630    25.1950     2.3250     4.4520     4.7500     4.2710    -0.6810 
  306.6250     4.7180   394.1290    25.0120     2.3340     4.6350     5.0360     4.5820    -0.6800 
  306.7500     4.8550   411.9580    24.8560     2.3430     4.4740     5.2570     6.4190    -0.6800 
  306.8750     5.1380   390.9780    25.0430     2.3360     4.2830     5.4660     8.3210    -0.6800 
  307.0000     5.3840   378.2150    25.1950     2.3170     4.2000     5.6570     7.8400    -0.6800 
  307.1250     5.7370   372.0140    25.2590     2.3240     4.1330     5.8410     6.2040    -0.6800 
  307.2500     6.1330   379.4060    25.1690     2.3370     4.0950     6.1430     5.8620    -0.6800 
  307.3750     6.5280   397.7470    25.0190     2.3460     3.9760     6.3320     5.3080    -0.6530 
  307.5000     6.8700   366.0890    24.8770     2.3480     3.8990     6.3880     4.8770    -0.6790 
  307.6250     7.1270   382.5210    24.8780     2.3250     3.8100     6.1320     3.8290    -0.6790 
  307.7500     7.1380   410.6140    24.9780     2.3120     3.6520     5.5550     3.3290    -0.6790 
  307.8750     5.0770   449.0960    25.0620     2.2980     3.5000     4.9760     2.9240    -0.6790 
  308.0000     4.2570   458.6320    25.1960     2.2860     3.3550     4.3970     2.7060    -0.7270 
  308.1250     3.7960   468.6300    25.2600     2.2750     3.2170     3.8180     2.6800    -0.7170 
  308.2500     3.0900   450.4630    25.3840     2.2710     3.0890     3.2350     2.6530    -0.6890 
  308.3750     3.0280   437.0720    25.3880     2.2730     2.9940     3.3000     2.6270    -0.6990 
  308.5000     3.0280   439.7770    25.3790     2.2760     2.8580     3.4170     2.6000    -0.6780 
  308.6250     3.1570   451.2020    25.0700     2.2760     2.9700     3.5460     2.5740    -0.6780 
  308.7500     3.1790   460.1130    25.1570     2.2700     3.0460     3.5460     2.5470    -0.6770 
  308.8750     3.2850   466.5540    24.9350     2.2590     3.0670     3.5460     2.5210    -0.7190 
  309.0000     3.4140   469.4610    24.6410     2.2560     3.0510     3.5450     2.4940    -0.7400 
  309.1250     3.4960   470.1120    24.4520     2.2490     2.9960     3.4160     2.4680    -0.8030 
  309.2500     3.5430   464.5670    24.3930     2.2400     2.8480     3.4510     2.4410    -0.8400 
  309.3750     3.5430   457.2420    24.3700     2.2310     2.7920     3.5440     2.4150    -0.8660 
  309.5000     3.6710   445.9730    24.3700     2.2450     2.7700     3.5440     2.3880    -0.8660 
  309.6250     3.6710   450.7410    24.2700     2.2580     2.6700     3.5440     2.3620    -0.8650 
  309.7500     3.9280   453.1060    24.2260     2.2520     2.6120     3.5430     2.4890    -0.8650 
  309.8750     4.0560   452.4900    24.1800     2.2450     2.5220     3.5430     2.5500    -0.8020 
