~V
VERS. 2.00: Ver 2.00
~W
STRT.M 140.0000:
STOP.M 339.0000:
STEP.M 0.1250:
NULL. -999.2500:
UWI. жи50:
~C
DEPT.M :
RML.OHMM :
AC.US/MT :
CALI.CM :
DEN.GM/CC :
GR.API :
RI. :
RXO.OHMM :
SP.MV :
~A
# ...
  290.0000     3.4880   468.2190    25.6840     2.2610     2.8580     3.9770     3.3360    -0.4280 
  290.1250     3.2470   448.4100    25.6840     2.2720     3.0860     4.1050     4.4780    -0.5060 
  290.2500     3.6310   437.5430    25.6350     2.2850     3.1650     4.3970     6.2290    -0.5140 
  290.3750     4.1250   427.8970    25.6580     2.3020     3.2280     4.8020     8.9070    -0.4650 
  290.5000     4.6420   418.6210    25.5830     2.3230     3.3400     5.1160     6.4680    -0.4500 
  290.6250     5.2560   405.2640    25.5570     2.3210     3.3360     4.8090     3.7650    -0.4500 
  290.7500     6.0140   375.0390    25.4340     2.2870     3.1970     4.4510     3.1380    -0.3870 
  290.8750     5.2000   403.0000    25.6840     2.2710     3.1940     4.0720     2.7880    -0.3860 
  291.0000     4.5760   440.9760    26.0970     2.2440     3.1590     3.8450     2.6610    -0.3860 
  291.1250     4.0030   462.1720    26.1400     2.2380     3.1370     3.7290     2.6620    -0.3860 
  291.2500     3.8680   457.8400    25.8260     2.2440     3.1830     3.7160     2.5350    -0.2880 
  291.3750     3.6340   466.8640    25.3840     2.2490     2.8880     3.8450     2.6600    -0.2030 
  291.5000     3.6340   467.5940    25.3040     2.2400     2.8040     3.8440     2.7790    -0.1650 
  291.6250     3.6340   472.5290    25.5330     2.2360     2.7520     3.7150     3.0370    -0.0700 
  291.7500     3.5060   468.2930    25.8470     2.2410     2.7230     3.7150     3.1720     0.0270 
  291.8750     3.4720   457.5070    26.0590     2.2390     2.8120     3.6180     3.0550     0.1450 
  292.0000     3.4950   453.2010    26.1960     2.2370     2.9160     3.5850     3.0420     0.2470 
  292.1250     3.5180   457.1930    26.2390     2.2340     2.9210     3.5850     3.0360     0.2870 
  292.2500     3.5520   459.4980    26.4280     2.2260     2.8400     3.5840     3.0300     0.3270 
  292.3750     3.5850   458.2530    26.7330     2.2040     2.8560     3.4570     3.0240     0.3680 
  292.5000     3.6180   454.6770    26.8150     2.2110     2.8900     3.4550     3.0180     0.4080 
  292.6250     3.6360   467.3010    25.9880     2.2250     2.8150     3.5010     3.0120     0.4480 
  292.7500     3.5280   472.6110    25.3370     2.2410     2.7580     3.5830     3.0060     0.4880 
  292.8750     3.5090   474.6040    25.3650     2.2520     2.7150     3.5830     2.9990     0.5000 
  293.0000     3.4750   472.6800    25.5560     2.2600     2.6170     3.5590     2.9930     0.5000 
  293.1250     3.3180   464.6320    25.6630     2.2580     2.6270     3.4540     2.9870     0.5000 
  293.2500     3.2530   458.5270    25.8260     2.2590     2.7120     3.4530     2.9810     0.5260 
  293.3750     3.1250   456.6440    25.9430     2.2530     2.6970     3.3240     2.9750     0.5000 
  293.5000     3.1260   459.9570    26.0070     2.2490     2.6120     3.3240     2.9690     0.5000 
  293.6250     3.0100   456.5360    26.0700     2.2470     2.6800     3.4520     2.9630     0.5010 
  293.7500     2.9980   454.6120    26.0710     2.2440     2.9530     3.4580     2.9560     0.5010 
  293.8750     2.9980   459.2460    26.0710     2.2430     3.0470     3.5810     2.9500     0.5010 
  294.0000     3.1420   478.6140    26.0070     2.2440     3.0830     3.5800     2.9440     0.5540 
  294.1250     3.2550   490.9780    26.0900     2.2630     2.8500     3.5580     2.9380     0.5340 
  294.2500     3.3830   498.6340    26.5320     2.2860     2.7570     3.4510     2.9320     0.5650 
  294.3750     3.3840   477.3140    26.8350     2.2730     2.8580     3.4660     2.9110     0.5650 
  294.5000     3.3840   470.0130    26.3830     2.2870     2.8920     3.5720     2.8070     0.5650 
  294.6250     3.5120   458.9420    26.5200     2.3010     2.7770     3.5790     2.7700     0.6280 
  294.7500     3.5120   450.7870    26.8340     2.2880     2.7140     3.5790     2.7370     0.6730 
  294.8750     3.5130   450.1750    26.9060     2.2860     2.7780     3.5780     2.7040     0.7550 
  295.0000     3.5130   463.3290    26.5920     2.3110     2.8350     3.6380     2.7040     0.7960 
  295.1250     3.5130   469.6250    26.5030     2.3260     2.7740     3.7800     2.9290     1.1340 
  295.2500     3.4170   460.2150    26.5000     2.3300     2.7170     3.9390     3.3590     1.1180 
  295.3750     3.4050   449.7520    26.5820     2.3340     2.6710     3.9730     3.7070     1.0710 
  295.5000     3.5140   447.3290    26.1540     2.3380     2.6690     3.9640     3.9170     1.0710 
  295.6250     3.5140   443.2450    25.6910     2.3390     2.7750     3.9630     4.1280     1.0710 
  295.7500     3.5150   441.3950    25.6270     2.3400     2.8950     3.9630     4.1900     1.0590 
  295.8750     3.6130   439.2870    25.5760     2.3410     2.9660     3.9630     4.0760     1.0620 
  296.0000     3.6430   434.9610    25.6380     2.3430     3.0440     3.9630     3.9530     1.0720 
  296.1250     3.6720   439.4540    25.6910     2.3440     3.1120     3.9620     3.9900     1.0720 
  296.2500     3.7720   441.7490    25.6920     2.3360     3.1900     4.0910     3.8250     1.0720 
  296.3750     3.9000   442.3980    25.6920     2.3240     3.3330     4.0910     3.8230     0.9890 
  296.5000     3.9000   441.2980    25.5950     2.3130     3.1990     4.0900     3.8610     0.8830 
  296.6250     3.9010   438.7150    25.4800     2.3050     3.1130     4.0900     3.9510     0.6470 
  296.7500     3.9950   427.4940    25.3330     2.3060     3.2700     4.1640     3.9520     0.5160 
  296.8750     4.0770   419.6050    25.1880     2.3200     3.4860     4.3470     4.0790     0.4880 
  297.0000     4.1580   409.1770    25.1190     2.3040     3.5440     4.3470     4.1210     0.3790 
  297.1250     4.2090   420.2350    25.1200     2.2900     3.3760     4.2530     3.7870     0.3160 
  297.2500     4.2860   432.5390    25.2040     2.2890     3.2990     4.2820     3.4730     0.3160 
  297.3750     4.4150   439.1400    25.2980     2.2960     3.2470     4.1630     2.9670     0.3160 
  297.5000     4.4150   441.9210    25.6780     2.2900     3.1850     4.0880     2.9370     0.5090 
  297.6250     4.4150   443.8520    25.9310     2.2910     3.2360     4.0880     2.9380     0.5270 
  297.7500     4.4150   447.6410    26.0420     2.3000     2.9020     3.9870     3.0220     0.5880 
  297.8750     4.4160   447.0270    26.1180     2.3090     2.8610     4.0510     3.0770     0.6770 
  298.0000     4.4160   445.8260    26.1400     2.3180     2.9290     3.9730     3.1930     0.7550 
  298.1250     4.4160   442.6390    26.1400     2.3230     2.9880     3.7820     3.3200     0.8570 
  298.2500     4.2700   448.1200    26.1400     2.3220     3.0670     3.6990     3.6240     0.8850 
  298.3750     4.1610   448.9910    26.2040     2.3080     2.9320     3.6990     3.8300     0.9340 
  298.5000     4.1610   447.8200    26.0130     2.3050     2.8300     3.6990     3.8300     0.8740 
  298.6250     4.1610   447.7630    25.7600     2.3140     3.0100     3.6980     3.8310     0.7480 
  298.7500     4.1610   440.2220    25.5490     2.3190     2.9440     3.8270     3.8310     0.5340 
  298.8750     4.1620   435.6030    25.4400     2.2980     2.9270     3.8700     3.7040     0.3100 
  299.0000     4.2900   430.3300    25.4400     2.2770     3.0850     3.9560     3.5780     0.0040 
  299.1250     4.2900   446.0880    25.3840     2.2710     3.1920     4.0470     3.4060    -0.2450 
  299.2500     4.2430   461.3230    25.3770     2.2690     3.2470     3.9860     3.3240    -0.3700 
  299.3750     4.1630   467.5690    25.3770     2.2740     3.0280     4.0380     3.3250    -0.4590 
  299.5000     4.1630   468.4770    25.4410     2.2800     3.0110     4.0470     3.1940    -0.5010 
  299.6250     4.1630   464.7730    25.5050     2.3130     3.1050     4.0380     3.1370    -0.3910 
  299.7500     4.1630   462.1560    25.6320     2.3250     3.1530     3.8250     3.3260    -0.1600 
  299.8750     4.1640   458.6180    25.8140     2.3240     3.1560     3.8820     3.3260     0.0870 
