~V
VERS. 2.00: Ver 2.00
~W
STRT.M 140.0000:
STOP.M 339.0000:
STEP.M 0.1250:
NULL. -999.2500:
UWI. жи50:
~C
DEPT.M :
RML.OHMM :
AC.US/MT :
CALI.CM :
DEN.GM/CC :
GR.API :
RI. :
RXO.OHMM :
SP.MV :
~A
  140.0000     6.6100   418.2590    24.2290     2.2120     6.2250     5.8580     7.2460   -16.4010 
  140.1250     6.3620   415.1120    24.2290     2.2100     6.2030     5.6030     7.1280   -16.3560 
  140.2500     5.9850   414.2090    24.2290     2.2130     6.2820     5.1910     6.9920   -16.3210 
  140.3750     5.6180   420.2050    24.1680     2.2160     6.2690     4.8170     6.8660   -16.2570 
  140.5000     5.6180   423.3380    24.1660     2.2090     6.3210     4.8380     6.6390   -16.3160 
  140.6250     5.8580   425.2750    24.1660     2.2030     6.3300     4.9650     6.4850   -16.3200 
  140.7500     6.1190   425.6200    24.1190     2.1960     6.2300     4.9640     6.4700   -16.2980 
  140.8750     6.2360   427.6550    24.1030     2.1930     6.2790     4.9640     6.3590   -16.2560 
  141.0000     6.2580   430.1520    24.0460     2.1970     6.0820     4.9640     6.5730   -16.2560 
  141.1250     6.0650   430.9690    23.9920     2.2020     6.2130     4.8490     6.6140   -16.2560 
  141.2500     5.7820   430.3400    23.9610     2.2060     6.2010     4.8360     6.4790   -16.2560 
  141.3750     5.6890   430.3420    23.9130     2.2100     6.3900     4.8360     6.3600   -16.3190 
  141.5000     5.7290   429.9630    23.9340     2.2130     6.5230     4.9240     6.3610   -16.3430 
  141.6250     5.6210   429.7160    23.8500     2.2160     6.4190     5.0170     6.4930   -16.3830 
  141.7500     5.7260   430.3500    23.9330     2.2180     6.4230     5.0900     6.7030   -16.4450 
  141.8750     5.7490   433.0200    23.9770     2.2140     6.2720     5.0890     6.8280   -16.6300 
  142.0000     5.7490   436.1540    23.9770     2.2110     6.3200     5.0890     6.8710   -16.7620 
  142.1250     5.7490   438.5680    24.0410     2.2110     6.2680     5.0100     6.7440   -16.8040 
  142.2500     5.7500   437.6070    24.1460     2.2110     6.2270     4.9610     6.8720   -16.7430 
  142.3750     5.6640   434.8160    24.2080     2.2020     6.3360     4.9610     6.9900   -16.5180 
  142.5000     5.7880   432.3060    24.2960     2.2020     6.1430     5.0160     7.3000   -16.0860 
  142.6250     5.7830   432.2610    24.4460     2.2090     6.0600     5.0880     7.5090   -15.5960 
  142.7500     5.9650   432.8030    24.4870     2.2170     6.0080     5.2150     7.6200   -15.0530 
  142.8750     6.1120   434.2980    24.5690     2.2280     5.9690     5.3820     7.5100   -14.2610 
  143.0000     6.1860   434.7950    24.6140     2.2360     6.1980     5.5730     7.3190   -13.3880 
  143.1250     6.2620   434.7970    24.6450     2.2500     6.3930     5.6900     7.5680   -12.2290 
  143.2500     6.6870   434.8000    24.7920     2.2750     6.5200     5.9100     8.1660   -11.4500 
  143.3750     7.1360   409.3210    24.8690     2.3360     6.4880     6.1050     9.5290   -10.5620 
  143.5000     7.7550   366.3420    24.9720     2.3700     6.6570     6.3280    12.2920    -9.5810 
  143.6250     8.5000   342.7770    25.0600     2.3920     6.8730     6.7620    17.2780    -8.8860 
  143.7500     5.5570   387.6690    25.1580     2.3530     7.2610     6.1970    21.2500    -8.3230 
  143.8750     4.5220   407.6960    25.2940     2.3000     7.5120     3.7970    24.1970    -8.3820 
  144.0000     3.8380   432.8840    25.3770     2.2910     7.5910     3.5120     4.6930    -8.6860 
  144.1250     4.2350   437.3440    25.1960     2.2900     7.8590     3.7400     4.7170    -8.9480 
  144.2500     4.6070   434.9170    24.8750     2.2860     8.0090     4.1340     4.7170    -9.1090 
  144.3750     4.9880   427.6170    24.6800     2.2840     8.2390     4.5090     4.7180    -8.8820 
  144.5000     5.2620   422.5570    24.5930     2.2940     8.0310     4.7430     4.7180    -8.7390 
  144.6250     5.4990   426.9610    24.6020     2.3050     7.6990     4.8280     4.7190    -8.4490 
  144.7500     4.7110   432.3360    24.6160     2.3150     7.7780     4.4870     4.7190    -8.2890 
  144.8750     4.3430   438.1510    24.6800     2.3150     7.8680     4.2140     4.7200    -8.3570 
  145.0000     4.2230   440.5010    24.8380     2.3130     7.9270     3.7200     4.7200    -9.0270 
  145.1250     4.2240   443.0480    25.0350     2.3080     7.9920     3.3100     4.7200    -9.9400 
  145.2500     4.2240   444.3140    25.1260     2.3020     7.5750     3.4340     4.6030   -10.9350 
  145.3750     4.4500   444.1460    24.9270     2.2990     7.4540     3.8790     4.6730   -11.8570 
  145.5000     5.0690   427.8130    24.6510     2.2990     7.4110     4.1920     4.7570   -12.5840 
  145.6250     5.5790   414.8230    24.4810     2.3060     7.4150     4.6920     5.1660   -12.8230 
  145.7500     6.2100   410.5470    24.4290     2.3300     7.2890     5.0760     5.8470   -12.9570 
  145.8750     7.0470   388.2280    24.4910     2.3640     7.1900     5.5780     6.6740   -13.1620 
  146.0000     7.7880   374.2980    24.6180     2.3950     7.2920     6.4290     7.3470   -13.4570 
  146.1250     8.7640   293.5600    24.6740     2.4180     7.0390     7.6690     7.8010   -13.6440 
  146.2500    10.0620   287.8460    24.7960     2.4280     7.3050     8.5660     7.7950   -13.8250 
  146.3750    11.2890   335.2240    24.8730     2.3880     7.1430     9.4360     8.2920   -14.2510 
  146.5000    10.2200   377.2530    24.7600     2.2930     7.0650     7.4210     8.7960   -14.6730 
  146.6250     8.5090   393.3600    24.5710     2.2430     6.8910     6.5640     8.2860   -14.8800 
  146.7500     8.2870   408.6610    24.4420     2.2370     6.7290     6.4260     7.6550   -15.1490 
  146.8750     7.8140   419.8090    24.3010     2.2230     6.3600     6.2130     7.4010   -15.2300 
  147.0000     7.3630   424.8490    24.4380     2.2110     6.1700     5.9980     7.4750   -15.0920 
  147.1250     7.0830   427.0660    24.4920     2.2130     6.2310     5.9030     7.3960   -14.8160 
  147.2500     6.9090   426.6620    24.6400     2.2120     6.3640     5.8830     7.1530   -14.5940 
  147.3750     7.0370   424.7990    24.7470     2.2080     6.5720     6.0920     7.1430   -14.2170 
  147.5000     7.0380   428.4040    24.7470     2.2050     6.7160     6.3390     7.1430   -13.8440 
  147.6250     7.1650   431.2950    24.6840     2.2130     6.7820     6.3340     7.1180   -13.4650 
  147.7500     6.7990   432.7540    24.6840     2.2260     6.8340     6.2230     6.9090   -13.0240 
  147.8750     6.5280   434.2130    24.6420     2.2330     6.7300     5.5090     7.0180   -12.6260 
  148.0000     6.4000   425.2870    24.6200     2.2360     6.6830     5.0080     7.2030   -12.2080 
  148.1250     6.3700   420.6530    24.6210     2.2410     6.6860     5.1320     7.8210   -11.8170 
  148.2500     6.5280   416.1650    24.6210     2.2500     7.0950     5.3880     9.3180   -11.3590 
  148.3750     6.5290   415.4650    24.6650     2.2650     7.3040     5.2470    10.8270   -10.9160 
  148.5000     5.9900   429.9080    24.8670     2.2760     7.5150     4.9270    14.0340   -10.8950 
  148.6250     5.1950   450.3680    25.0470     2.2810     7.7920     4.5080    13.6260   -11.2630 
  148.7500     4.6510   468.7210    25.2570     2.2870     7.7660     4.1350     6.3420   -11.7680 
  148.8750     4.3110   478.0580    25.4090     2.2930     7.8320     3.7980     5.4690   -12.3090 
  149.0000     4.1430   497.3450    25.3850     2.2810     7.9430     3.6710     4.7240   -12.6730 
  149.1250     4.4870   469.9670    25.2100     2.2680     6.9860     3.7800     4.3520   -14.0260 
  149.2500     5.0430   445.0330    24.9900     2.2610     6.8270     4.2930     4.7980   -14.6480 
  149.3750     5.5630   431.1270    24.6800     2.2530     6.6910     5.1160     5.1120   -15.3680 
  149.5000     6.0290   431.6760    24.3600     2.2470     6.6590     5.5320     5.4830   -16.0760 
  149.6250     6.4830   431.8730    24.1770     2.2450     6.3440     5.8850     6.6040   -16.5810 
  149.7500     6.9140   422.3000    24.3040     2.2510     6.0350     6.0720     8.3340   -16.8100 
  149.8750     7.2020   414.8920    24.4150     2.2590     6.0750     5.9630     9.0310   -16.8730 
