~V
VERS. 2.00: Ver 2.00
~W
STRT.M 140.0000:
STOP.M 339.0000:
STEP.M 0.1250:
NULL. -999.2500:
UWI. жи50:
~C
DEPT.M :
RML.OHMM :
AC.US/MT :
CALI.CM :
DEN.GM/CC :
GR.API :
RI. :
RXO.OHMM :
SP.MV :
~A
# ...
  320.0000     3.8030   438.0520    25.2170     2.2740     3.6060     3.5200     3.6380     0.5360 
  320.1250     3.6930   443.1160    25.2040     2.2610     3.2330     3.5200     3.3930     0.6750 
  320.2500     3.6940   450.7280    25.2030     2.2560     3.2030     3.5190     3.2990     0.7880 
  320.3750     3.6940   457.6690    25.2120     2.2650     2.6610     3.4360     3.1420     0.9140 
  320.5000     3.6850   448.5700    25.2120     2.2860     2.5410     3.3900     3.0170     0.9780 
  320.6250     3.4380   442.7340    25.1990     2.3040     2.4900     3.3890     2.8870     1.1370 
  320.7500     3.3100   447.1020    25.0850     2.3210     2.5210     3.5180     2.8870     1.2500 
  320.8750     3.3100   451.7020    25.0210     2.3280     2.6070     3.5180     2.8870     1.3610 
  321.0000     3.3110   451.1190    25.0140     2.3110     2.5420     3.6470     2.8880     1.4780 
  321.1250     3.3110   443.5890    24.9580     2.2970     2.5250     3.7210     2.8880     1.6590 
  321.2500     3.3110   435.9360    24.8940     2.2880     2.6070     3.6460     2.8890     1.7860 
  321.3750     3.3110   432.3240    24.8940     2.2970     2.8350     3.6880     2.8890     1.9580 
  321.5000     3.3120   433.1830    24.8940     2.3020     3.0330     3.6460     2.8890     2.2050 
  321.6250     3.3120   443.8330    24.8950     2.2820     3.1420     3.6450     2.8900     2.3600 
  321.7500     3.1840   448.4600    24.8950     2.2730     2.9970     3.6450     2.8900     2.6230 
  321.8750     3.0940   455.5610    24.8950     2.2760     3.0900     3.6570     2.8910     2.7480 
  322.0000     3.0560   459.8930    24.9050     2.2760     3.1560     3.7170     2.8910     2.8420 
  322.1250     3.0570   453.3950    24.8950     2.2700     2.7170     3.6440     2.8540     2.9340 
  322.2500     3.0570   445.9900    24.9590     2.2670     2.6870     3.6440     2.7650     2.9940 
  322.3750     3.0570   442.2540    24.9590     2.2630     2.7550     3.5740     2.8180     2.9970 
  322.5000     3.2290   440.0310    25.0230     2.2570     2.8060     3.6430     2.8930     2.9970 
  322.6250     3.2110   437.9370    25.0870     2.2620     2.7060     3.6430     2.8930     3.0610 
  322.7500     3.3140   440.7590    25.2330     2.2740     2.8470     3.6430     2.8940     3.0930 
  322.8750     3.1260   446.4690    25.4450     2.2890     3.0420     3.7720     2.8940     3.1240 
  323.0000     3.0580   449.6310    25.6840     2.2870     3.1190     3.7710     2.8940     3.0610 
  323.1250     3.0590   455.3160    26.0510     2.2680     3.2170     3.7710     2.8950     3.0140 
  323.2500     3.0590   446.6320    26.4970     2.2430     3.2390     3.8320     2.7860     2.9980 
  323.3750     3.1480   440.6030    27.0640     2.1740     3.3670     3.7700     3.0230     2.9990 
  323.5000     3.2190   441.0400    27.8270     2.1500     3.6550     3.8310     3.1500     2.9360 
  323.6250     3.3970   453.5400    28.2670     2.0290     3.7890     3.8840     3.9420     2.8730 
  323.7500     3.4970   440.7220    27.8060     2.0030     4.1450     3.7690     5.2480     2.8730 
  323.8750     3.5730   426.2150    27.1270     1.9880     4.3830     3.7690     7.7750     2.8730 
  324.0000     3.6790   387.5450    26.5740     2.1020     4.6160     3.7690     8.1540     2.8730 
  324.1250     4.2120   339.9130    26.0060     2.1400     4.8740     3.8010     7.5290     2.8730 
  324.2500     4.9890   341.9930    25.6290     2.2290     5.2850     3.8810     6.9040     2.8740 
  324.3750     5.5540   353.4360    25.3790     2.2660     5.8370     4.1430     6.2780     2.9090 
  324.5000     6.4430   369.0850    25.2170     2.2720     5.9860     4.7660     5.5270     2.9370 
  324.6250     7.0760   357.2980    25.1730     2.2580     6.0420     6.0610     4.6790     2.9370 
  324.7500     6.7510   338.7340    25.2170     2.2440     6.1270     6.6100     8.7950     2.9480 
  324.8750     6.2670   331.7410    25.2810     2.2320     5.9030     6.1750     9.3400     3.0000 
  325.0000     6.4100   327.6260    25.3170     2.3210     6.1360     5.9640     8.5560     3.0010 
  325.1250     7.5470   332.0610    25.3450     2.3330     6.3100     6.2420     9.5280     3.0230 
  325.2500     8.0620   328.3510    25.4090     2.3140     6.4880     6.8380     9.1070     3.0620 
  325.3750     8.5350   325.1960    25.4280     2.3110     6.4090     7.3520     9.7000     3.1000 
  325.5000     8.5750   321.2020    25.4730     2.3150     6.4910     7.6430     7.9840     3.1270 
  325.6250     8.5760   316.6210    25.4730     2.3260     6.5230     7.6420     7.8570     3.1270 
  325.7500     8.5760   310.2720    25.5370     2.3280     6.4120     7.6420     9.6410     3.1540 
  325.8750     8.5760   303.5320    25.5580     2.3250     6.3440     7.6420     8.4360     3.1930 
  326.0000     8.5770   304.8280    25.6010     2.3130     6.2890     7.6420     6.5590     3.2270 
  326.1250     8.4490   312.3880    25.6640     2.2960     6.0850     7.7710     5.7010     3.2540 
  326.2500     8.4490   323.8230    25.6960     2.2920     6.1000     7.7700     6.5020     3.2540 
  326.3750     7.9190   334.6790    25.7280     2.2880     6.0110     7.6410     7.7760     3.2690 
  326.5000     7.4240   320.7930    25.7920     2.2670     5.9760     7.0960     6.5520     3.3080 
  326.6250     7.5460   334.1340    25.8450     2.2500     5.9710     6.3480     4.3050     3.3180 
  326.7500     7.7930   352.6510    25.8560     2.2040     5.9160     6.9710     4.9520     3.3180 
  326.8750     8.0660   354.5480    25.9020     2.1560     5.9670     7.3290     9.5490     3.3180 
  327.0000     7.0370   339.7270    25.8740     2.1270     6.0670     6.8330    12.3190     3.3180 
  327.1250     6.4000   325.6860    25.9200     2.1730     6.0700     5.6570    15.4740     3.3180 
  327.2500     7.6560   282.4520    25.9200     2.1640     5.9040     6.8200    16.9480     3.2890 
  327.3750     8.6400   316.6830    25.9670     2.1210     5.7860     7.7650     7.5550     3.2450 
  327.5000     8.3070   371.1810    26.0330     2.0150     5.5500     8.1060     2.8000     3.2010 
  327.6250     6.4680   466.2240    26.0480     1.9230     5.3440     7.1050     2.2740     3.1930 
  327.7500     5.6000   528.3040    26.0910     1.8250     4.8890     5.9610     2.1470     3.1850 
  327.8750     4.6060   529.3350    26.1590     1.8500     4.4000     4.8170     2.5010     3.1410 
  328.0000     4.1060   528.0840    26.2330     1.8860     3.9050     4.0960     2.7510     3.1410 
  328.1250     3.6750   527.4680    26.2400     2.0290     3.7650     3.8110     2.7840     0.0000 
  328.2500     3.6920   527.4510    26.2870     2.0440     3.7610     3.6300     2.8890     0.0000 
  328.3750     3.5820   526.9470    26.3470     2.0660     3.8090     3.6290     2.9120     0.0000 
  328.5000     3.5820   526.5390    26.4100     2.0820     3.6290     3.6290     2.8780     0.0000 
  328.6250     3.6760   526.9080    26.4320     2.0910     3.5720     3.7210     2.7230     0.0000 
  328.7500     3.7110   526.9280    26.4320     2.0900     3.6380     3.8100     2.6590     0.0000 
  328.8750     3.8400   527.5820    26.4320     2.0830     3.7250     3.8870     2.6020     0.0000 
  329.0000     3.8310   527.9120    26.4690     2.0800     3.8090     4.0130     2.5330     0.0000 
  329.1250     3.7120   528.2560    26.5120     2.0860     3.9610     3.8860     2.5330     0.0000 
  329.2500     3.8400   528.9110    26.5510     2.0950     3.8090     3.8860     2.5850     0.0000 
  329.3750     3.8410   529.3050    26.5910     2.0980     3.7860     3.8850     2.5340     0.0000 
  329.5000     3.8410   529.5840    26.6320     2.0930     3.4640     4.0050     2.7090     0.0000 
  329.6250     3.7130   530.3220    26.6850     2.0870     3.4040     4.0140     2.7890     0.0000 
  329.7500     3.7130   530.8940    26.7370     2.0790     3.4930     4.0780     2.7900     0.0000 
  329.8750     3.6020   530.9130    26.6850     2.0870     3.5920     4.1420     2.7900     0.0000 
