~V
VERS. 2.00: Ver 2.00
~W
STRT.M 140.0000:
STOP.M 339.0000:
STEP.M 0.1250:
NULL. -999.2500:
UWI. жи50:
~C
DEPT.M :
RML.OHMM :
AC.US/MT :
CALI.CM :
DEN.GM/CC :
GR.API :
RI. :
RXO.OHMM :
SP.MV :
~A
# ...
  170.0000     7.6600   428.9940    24.7220     2.2880     7.6170     5.1310     7.1390    -8.1100 
  170.1250     6.8310   432.5410    24.8440     2.2930     7.8980     4.7690     6.3150    -7.9250 
  170.2500     6.2600   429.3090    24.9540     2.3080     8.0990     4.5130     5.9260    -7.7390 
  170.3750     6.2420   425.4560    25.0390     2.3020     8.1380     4.7600     5.7660    -7.6640 
  170.5000     6.4030   418.9280    25.0930     2.2980     8.2830     5.0790     5.8220    -7.6470 
  170.6250     6.4490   412.4570    25.0290     2.2940     8.5360     5.2790     5.8660    -7.6380 
  170.7500     6.4490   408.0580    24.9670     2.3020     8.3760     5.0230     6.0770    -7.5830 
  170.8750     6.3530   404.9990    24.8390     2.3130     8.2390     4.7670     6.1940    -7.5830 
  171.0000     6.3220   410.6140    24.8340     2.3180     8.1970     4.7670     5.8320    -7.5830 
  171.1250     6.3220   415.9580    24.9510     2.3100     8.2060     5.1170     5.7050    -7.5820 
  171.2500     6.3220   421.5350    25.0740     2.3110     8.1190     5.6870     5.6980    -7.5190 
  171.3750     6.5360   428.0820    25.0300     2.3070     7.7830     5.5760     5.6980    -7.3820 
  171.5000     7.1570   430.6460    25.0480     2.2990     7.9090     4.7330     5.9840    -7.1810 
  171.6250     7.0320   434.0840    25.0940     2.3090     7.7800     4.4350     6.3850    -6.9870 
  171.7500     6.2430   430.6340    25.0940     2.3100     7.9700     4.2540     5.8830    -6.7370 
  171.8750     5.9400   414.7190    25.1580     2.3040     8.1690     4.3190     5.8140    -6.5680 
  172.0000     5.9410   410.6930    25.1580     2.3050     8.4160     4.5070     5.7960    -6.4830 
  172.1250     5.9410   412.5110    25.1660     2.3020     8.2930     4.7480     5.7790    -6.4400 
  172.2500     5.9410   420.6250    25.2260     2.2920     8.4550     5.0200     5.7610    -6.4400 
  172.3750     5.9410   427.4550    25.3500     2.2840     8.5710     4.9730     5.7440    -6.4400 
  172.5000     5.9420   432.2030    25.3500     2.2960     8.3480     4.8910     5.7260    -6.4400 
  172.6250     6.0700   432.8380    25.4020     2.3040     8.4530     4.7630     5.7090    -6.4400 
  172.7500     6.0700   431.5410    25.4140     2.3120     8.5540     4.7150     6.4450    -6.5190 
  172.8750     6.0700   429.6870    25.4750     2.3140     8.3220     4.5320     6.7150    -6.6080 
  173.0000     6.0710   429.0510    25.4510     2.3070     8.0090     4.5070     6.0800    -6.6860 
  173.1250     6.0710   429.9460    25.4140     2.3010     7.8620     4.5070     5.5770    -6.7490 
  173.2500     5.9430   432.7040    25.3630     2.2960     7.9270     4.6340     5.2020    -6.8820 
  173.3750     5.9580   433.0440    25.3330     2.2920     7.7950     4.7620     4.8270    -6.9550 
  173.5000     6.0720   430.5730    25.2240     2.2800     7.5510     4.8890     4.8940    -7.0340 
  173.6250     6.2090   428.1030    25.1720     2.2750     7.5570     5.0150     5.0320    -7.1350 
  173.7500     6.4550   426.4440    25.1310     2.2780     7.4190     5.3000     5.2210    -7.1350 
  173.8750     6.8290   425.4100    25.0120     2.2870     7.2030     5.4760     5.4320    -7.1350 
  174.0000     7.3820   424.6430    24.9300     2.2960     6.7410     5.6860     5.9570    -7.0750 
  174.1250     7.9010   423.8890    24.7790     2.2920     6.6360     5.9940     6.2880    -6.9610 
  174.2500     8.5980   419.5300    24.7790     2.3000     6.5350     6.6220     6.6830    -6.7120 
  174.3750     9.5660   410.8120    24.7800     2.3070     6.4070     7.5710     7.3250    -6.4630 
  174.5000    10.8360   402.7280    24.8430     2.2980     6.0940     8.8830     8.5190    -6.1190 
  174.6250    12.6810   394.2280    24.8390     2.3010     6.1250    10.2580    10.4300    -5.7890 
  174.7500    14.6490   385.6240    24.7240     2.3100     6.0940    11.8540    13.2220    -5.5260 
  174.8750    14.3250   390.0610    24.6590     2.2940     5.9220    10.7280    13.7660    -5.0480 
  175.0000    13.1810   414.8490    24.6530     2.2740     5.8320     9.7160    11.3920    -4.5050 
  175.1250    12.3350   427.0310    24.6530     2.2700     5.9110     8.9670     9.7430    -3.7250 
  175.2500    15.8750   407.6880    24.6650     2.2710     5.9490    10.6150     9.0890    -3.0230 
  175.3750    18.8670   396.8400    24.6540     2.2670     5.8710    13.0340    10.6570    -2.3050 
  175.5000    21.2860   354.3340    24.6540     2.2600     5.5550    15.7070    13.0230    -1.7430 
  175.6250    21.5350   333.6590    24.6400     2.2360     5.6210    15.3170    15.5940    -1.1160 
  175.7500    19.1430   315.8160    24.5900     2.1810     5.7010    12.2930     9.8440    -0.5520 
  175.8750    17.0260   378.9390    24.5540     2.1620     5.6780    11.6550     7.9210    -0.0490 
  176.0000    16.8090   404.2650    24.5270     2.1590     5.8120    11.9110     7.6200     0.4580 
  176.1250    17.2740   425.9920    24.4640     2.1600     5.8680    12.2880     7.7350     0.7160 
  176.2500    17.6760   442.4820    24.4190     2.1610     5.7100    12.7230     8.0020     0.9560 
  176.3750    17.7040   448.8630    24.3590     2.1650     5.6100    12.9310     8.3250     1.0590 
  176.5000    17.3210   452.5610    24.4000     2.1670     5.5400    12.6620     8.5350     1.2310 
  176.6250    17.4490   444.1130    24.4620     2.1770     5.3970    12.3710     8.6390     1.2540 
  176.7500    17.8950   438.2450    24.5860     2.1860     5.4030    12.0400     8.5120     1.2950 
  176.8750    18.3260   433.2610    24.7430     2.1930     5.5520    12.1640     8.5130     1.4050 
  177.0000    18.6000   429.9040    25.0170     2.1940     5.7430    12.0470     8.3430     1.4670 
  177.1250    17.8690   427.4090    25.4060     2.1930     5.6890    11.6940     8.2590     1.4220 
  177.2500    16.4430   442.3620    25.8330     2.1860     5.6540    10.8030     8.2600     1.4220 
  177.3750    15.9790   448.7430    26.2090     2.1720     5.7730    10.4620     7.3570     1.3640 
  177.5000    16.9190   438.4800    26.6490     2.1720     5.5230    11.1590     6.5870     1.3360 
  177.6250    17.9320   430.8040    25.6560     2.1760     5.4930    11.9840     7.0630     1.1700 
  177.7500    18.7090   427.3560    24.8920     2.1800     5.6680    12.4180     8.0560     0.8820 
  177.8750    19.1270   435.5760    24.6170     2.1840     5.7800    12.4180     8.7050     0.5280 
  178.0000    19.3690   440.2230    24.5180     2.2070     5.8940    12.2900     8.9700     0.2980 
  178.1250    18.8250   439.3050    24.5300     2.2170     6.0040    12.0140     8.8430     0.0170 
  178.2500    18.1260   436.9240    24.5630     2.2310     6.0910    11.5940     8.6940    -0.3210 
  178.3750    17.5940   434.2140    24.6570     2.2200     6.0570    11.3950     8.5180    -0.6020 
  178.5000    16.8300   434.7850    24.6770     2.1930     6.0820    11.2670     8.2810    -0.7890 
  178.6250    16.7390   436.1160    24.6570     2.1870     6.1510    11.2660     8.2640    -0.7860 
  178.7500    17.6190   437.1070    24.6830     2.1980     6.2680    11.6400     8.3760    -0.7930 
  178.8750    18.1900   437.3860    24.6580     2.2060     6.2350    12.1460     8.4920    -0.8310 
  179.0000    18.3990   437.3890    24.6160     2.2110     6.0580    12.2280     8.6470    -0.9190 
  179.1250    17.5450   437.3910    24.5940     2.2160     6.2600    11.9040     8.5230    -0.9950 
  179.2500    17.0270   436.8770    24.5950     2.2200     6.2200    11.4500     8.1220    -1.1720 
  179.3750    16.3500   437.2940    24.6310     2.2030     6.3170    10.8210     7.8920    -1.3370 
  179.5000    15.8500   436.8770    24.6590     2.1990     6.3870    10.2420     7.6320    -1.6180 
  179.6250    15.4120   436.7680    24.7220     2.2060     6.4410    10.4120     7.4240    -1.8470 
  179.7500    15.6310   436.1480    24.7780     2.1920     6.1330    10.6250     7.5330    -2.0770 
  179.8750    16.0530   435.5080    24.7860     2.1920     6.0910    10.7530     7.5770    -2.2180 
