~V
VERS. 2.00: Ver 2.00
~W
STRT.M 140.0000:
STOP.M 339.0000:
STEP.M 0.1250:
NULL. -999.2500:
UWI. жи50:
~C
DEPT.M :
RML.OHMM :
AC.US/MT :
CALI.CM :
DEN.GM/CC :
GR.API :
RI. :
RXO.OHMM :
SP.MV :
~A
# ...
  330.0000     3.6650   530.9330    26.7370     2.0790     3.6770     4.2430     2.9140     0.0000 
  330.1250     3.5860     0.0000     0.0000     2.0770     3.7630     4.2710     2.9970     0.0000 
  330.2500     3.5970     0.0000     0.0000     2.0800     3.5600     4.2710     3.0460     0.0000 
  330.3750     3.7150     0.0000     0.0000     2.0810     3.6900     4.3370     3.1660     0.0000 
  330.5000     3.7150     0.0000     0.0000     2.0810     3.8690     4.3990     3.1730     0.0000 
  330.6250     3.7150     0.0000     0.0000     2.0820     4.0050     4.3990     3.3150     0.0000 
  330.7500     3.7150     0.0000     0.0000     2.0840     3.9660     4.3990     3.4210     0.0000 
  330.8750     3.7160     0.0000     0.0000     2.0850     4.0970     4.5200     3.5450     0.0000 
  331.0000     3.7160     0.0000     0.0000     2.0860     4.1680     4.6040     3.6720     0.0000 
  331.1250     3.8440     0.0000     0.0000     2.0860     3.9060     4.6020     3.6840     0.0000 
  331.2500     3.8450     0.0000     0.0000     2.0880     3.8070     4.5270     3.7790     0.0000 
  331.3750     3.9730     0.0000     0.0000     2.0900     3.7060     4.5920     3.8840     0.0000 
  331.5000     4.0530     0.0000     0.0000     2.0910     3.8740     4.6800     3.9820     0.0000 
  331.6250     4.1020     0.0000     0.0000     2.0920     4.0100     4.7290     4.0800     0.0000 
  331.7500     4.1020     0.0000     0.0000     2.0920     4.0970     4.7780     4.2900     0.0000 
  331.8750     4.1340     0.0000     0.0000     2.0920     3.8720     4.7290     4.3220     0.0000 
  332.0000     0.0000     0.0000     0.0000     0.0000     0.0000     0.0000     0.0000     0.0000 
  332.1250     0.0000     0.0000     0.0000     0.0000     0.0000     0.0000     0.0000     0.0000 
  332.2500     0.0000     0.0000     0.0000     0.0000     0.0000     0.0000     0.0000     0.0000 
  332.3750     0.0000     0.0000     0.0000     0.0000     0.0000     0.0000     0.0000     0.0000 
  332.5000     0.0000     0.0000     0.0000     0.0000     0.0000     0.0000     0.0000     0.0000 
  332.6250     0.0000     0.0000     0.0000     0.0000     0.0000     0.0000     0.0000     0.0000 
  332.7500     0.0000     0.0000     0.0000     0.0000     0.0000     0.0000     0.0000     0.0000 
  332.8750     0.0000     0.0000     0.0000     0.0000     0.0000     0.0000     0.0000     0.0000 
  333.0000     0.0000     0.0000     0.0000     0.0000     0.0000     0.0000     0.0000     0.0000 
  333.1250     0.0000     0.0000     0.0000     0.0000     0.0000     0.0000     0.0000     0.0000 
  333.2500     0.0000     0.0000     0.0000     0.0000     0.0000     0.0000     0.0000     0.0000 
  333.3750     0.0000     0.0000     0.0000     0.0000     0.0000     0.0000     0.0000     0.0000 
  333.5000     0.0000     0.0000     0.0000     0.0000     0.0000     0.0000     0.0000     0.0000 
  333.6250     0.0000     0.0000     0.0000     0.0000     0.0000     0.0000     0.0000     0.0000 
  333.7500     0.0000     0.0000     0.0000     0.0000     0.0000     0.0000     0.0000     0.0000 
  333.8750     0.0000     0.0000     0.0000     0.0000     0.0000     0.0000     0.0000     0.0000 
  334.0000     0.0000     0.0000     0.0000     0.0000     0.0000     0.0000     0.0000     0.0000 
  334.1250     0.0000     0.0000     0.0000     0.0000     0.0000     0.0000     0.0000     0.0000 
  334.2500     0.0000     0.0000     0.0000     0.0000     0.0000     0.0000     0.0000     0.0000 
  334.3750     0.0000     0.0000     0.0000     0.0000     0.0000     0.0000     0.0000     0.0000 
  334.5000     0.0000     0.0000     0.0000     0.0000     0.0000     0.0000     0.0000     0.0000 
  334.6250     0.0000     0.0000     0.0000     0.0000     0.0000     0.0000     0.0000     0.0000 
  334.7500     0.0000     0.0000     0.0000     0.0000     0.0000     0.0000     0.0000     0.0000 
  334.8750     0.0000     0.0000     0.0000     0.0000     0.0000     0.0000     0.0000     0.0000 
  335.0000     0.0000     0.0000     0.0000     0.0000     0.0000     0.0000     0.0000     0.0000 
  335.1250     0.0000     0.0000     0.0000     0.0000     0.0000     0.0000     0.0000     0.0000 
  335.2500     0.0000     0.0000     0.0000     0.0000     0.0000     0.0000     0.0000     0.0000 
  335.3750     0.0000     0.0000     0.0000     0.0000     0.0000     0.0000     0.0000     0.0000 
  335.5000     0.0000     0.0000     0.0000     0.0000     0.0000     0.0000     0.0000     0.0000 
  335.6250     0.0000     0.0000     0.0000     0.0000     0.0000     0.0000     0.0000     0.0000 
  335.7500     0.0000     0.0000     0.0000     0.0000     0.0000     0.0000     0.0000     0.0000 
  335.8750     0.0000     0.0000     0.0000     0.0000     0.0000     0.0000     0.0000     0.0000 
  336.0000     0.0000     0.0000     0.0000     0.0000     0.0000     0.0000     0.0000     0.0000 
  336.1250     0.0000     0.0000     0.0000     0.0000     0.0000     0.0000     0.0000     0.0000 
  336.2500     0.0000     0.0000     0.0000     0.0000     0.0000     0.0000     0.0000     0.0000 
  336.3750     0.0000     0.0000     0.0000     0.0000     0.0000     0.0000     0.0000     0.0000 
  336.5000     0.0000     0.0000     0.0000     0.0000     0.0000     0.0000     0.0000     0.0000 
  336.6250     0.0000     0.0000     0.0000     0.0000     0.0000     0.0000     0.0000     0.0000 
  336.7500     0.0000     0.0000     0.0000     0.0000     0.0000     0.0000     0.0000     0.0000 
  336.8750     0.0000     0.0000     0.0000     0.0000     0.0000     0.0000     0.0000     0.0000 
  337.0000     0.0000     0.0000     0.0000     0.0000     0.0000     0.0000     0.0000     0.0000 
  337.1250     0.0000     0.0000     0.0000     0.0000     0.0000     0.0000     0.0000     0.0000 
  337.2500     0.0000     0.0000     0.0000     0.0000     0.0000     0.0000     0.0000     0.0000 
  337.3750     0.0000     0.0000     0.0000     0.0000     0.0000     0.0000     0.0000     0.0000 
  337.5000     0.0000     0.0000     0.0000     0.0000     0.0000     0.0000     0.0000     0.0000 
  337.6250     0.0000     0.0000     0.0000     0.0000     0.0000     0.0000     0.0000     0.0000 
  337.7500     0.0000     0.0000     0.0000     0.0000     0.0000     0.0000     0.0000     0.0000 
  337.8750     0.0000     0.0000     0.0000     0.0000     0.0000     0.0000     0.0000     0.0000 
  338.0000     0.0000     0.0000     0.0000     0.0000     0.0000     0.0000     0.0000     0.0000 
  338.1250     0.0000     0.0000     0.0000     0.0000     0.0000     0.0000     0.0000     0.0000 
  338.2500     0.0000     0.0000     0.0000     0.0000     0.0000     0.0000     0.0000     0.0000 
  338.3750     0.0000     0.0000     0.0000     0.0000     0.0000     0.0000     0.0000     0.0000 
  338.5000     0.0000     0.0000     0.0000     0.0000     0.0000     0.0000     0.0000     0.0000 
  338.6250     0.0000     0.0000     0.0000     0.0000     0.0000     0.0000     0.0000     0.0000 
  338.7500     0.0000     0.0000     0.0000     0.0000     0.0000     0.0000     0.0000     0.0000 
  338.8750     0.0000     0.0000     0.0000     0.0000     0.0000     0.0000     0.0000     0.0000 
  339.0000     0.0000     0.0000     0.0000     0.0000     0.0000     0.0000     0.0000     0.0000 
