~V
VERS. 2.00: Ver 2.00
~W
STRT.M 140.0000:
STOP.M 339.0000:
STEP.M 0.1250:
NULL. -999.2500:
UWI. жи50:
~C
DEPT.M :
RML.OHMM :
AC.US/MT :
CALI.CM :
DEN.GM/CC :
GR.API :
RI. :
RXO.OHMM :
SP.MV :
~A
# ...
  180.0000    16.3650   434.6210    24.7850     2.1960     5.9850    10.8800     7.6880    -2.3260 
  180.1250    16.6910   434.0000    24.7410     2.2010     5.8560    10.7540     7.8000    -2.3740 
  180.2500    16.4160   434.6950    24.6960     2.2090     5.8040    10.8800     7.9110    -2.3740 
  180.3750    15.9660   436.5310    24.6400     2.2140     5.7560    10.7520     8.0220    -2.2590 
  180.5000    15.4600   437.4180    24.5960     2.2160     5.8350    10.7520     8.1340    -2.1840 
  180.6250    15.4850   432.0880    24.5960     2.2130     6.0530    10.5320     8.2450    -2.0570 
  180.7500    15.9440   430.0480    24.5960     2.2030     5.9540    11.0440     8.3600    -2.0570 
  180.8750    17.5400   431.9090    24.5970     2.1980     5.8960    12.0290     8.5180    -2.0550 
  181.0000    18.4820   435.6750    24.5970     2.2010     6.0050    11.8380     8.5260    -1.9930 
  181.1250    17.2560   435.4340    24.6080     2.2070     6.1060    11.5550     8.4150    -2.1660 
  181.2500    16.5560   431.6650    24.7130     2.2010     6.1290    11.3320     8.6280    -2.6570 
  181.3750    16.1830   427.7510    24.7240     2.2020     6.0790    10.9520     8.8150    -2.9200 
  181.5000    16.0550   425.6810    24.7460     2.2090     6.2540    10.8780     8.9090    -3.1730 
  181.6250    15.9330   423.4000    24.7250     2.1980     6.3420    10.7500     8.6920    -3.3820 
  181.7500    15.8160   422.0350    24.6990     2.2110     6.2720    10.8770     8.4410    -3.5400 
  181.8750    15.6730   420.6540    24.6790     2.2230     6.1090    10.9720     8.2750    -3.6380 
  182.0000    15.7840   419.6180    24.6620     2.2310     6.0170    11.1040     8.2640    -3.6380 
  182.1250    15.9500   419.1030    24.6620     2.2250     5.7880    11.2130     8.1490    -3.6380 
  182.2500    16.2010   419.2300    24.6820     2.2210     5.3930    11.3470     8.2180    -3.6380 
  182.3750    16.4590   419.7400    24.6690     2.2070     5.6300    11.4810     8.2770    -3.4840 
  182.5000    16.8450   420.5380    24.7000     2.1980     5.8570    11.6800     8.2770    -3.3280 
  182.6250    17.0830   423.1600    24.6620     2.1940     5.9690    11.8980     8.3730    -3.1580 
  182.7500    17.2080   426.7530    24.6620     2.1840     5.9210    11.8740     8.4050    -3.0670 
  182.8750    16.9660   429.2960    24.7140     2.1770     5.8560    11.7700     8.4640    -3.0670 
  183.0000    16.5800   432.7330    24.7260     2.1740     5.9960    11.7150     8.5330    -3.0800 
  183.1250    16.4950   435.5710    24.7110     2.1770     6.1340    11.6420     8.6520    -3.1720 
  183.2500    16.3250   436.2060    24.6630     2.1880     6.0660    11.6420     8.5820    -3.2560 
  183.3750    16.0750   436.8410    24.6630     2.1990     6.0440    11.7690     8.6610    -3.3010 
  183.5000    16.0890   436.6020    24.6630     2.2090     5.9300    11.7690     8.6620    -3.3830 
  183.6250    16.0900   435.0150    24.6640     2.2200     5.9890    11.8960     8.5860    -3.3830 
  183.7500    16.1880   432.0080    24.6640     2.2240     6.0390    11.8960     8.5350    -3.3640 
  183.8750    16.5930   425.7910    24.7450     2.2190     5.9390    11.9710     8.5360    -3.2310 
  184.0000    17.3490   422.3010    24.7910     2.2120     5.8890    12.1810     8.6630    -3.0930 
  184.1250    17.8480   425.8910    24.8240     2.2080     5.7680    12.5350     8.8410    -2.9680 
  184.2500    18.2340   433.4480    24.7920     2.2080     5.6830    12.5350     8.7910    -2.7630 
  184.3750    17.6710   436.2280    24.7920     2.2080     5.7040    12.3770     8.5820    -2.6070 
  184.5000    17.2420   441.2820    24.7750     2.2100     5.6530    12.1070     7.7960    -2.5810 
  184.6250    16.7360   430.4120    24.7280     2.2120     5.5700    11.8260     7.2410    -2.7530 
  184.7500    16.3600   422.9790    24.6650     2.2120     5.5130    11.4820     6.8860    -2.9470 
  184.8750    15.9940   419.2450    24.6650     2.2140     5.6960    11.2550     7.4080    -3.1930 
  185.0000    15.9360   422.7660    24.6650     2.2180     5.8170    11.2550     7.9500    -3.3170 
  185.1250    15.8430   427.0730    24.6650     2.2210     5.6840    11.3190     8.2220    -3.3800 
  185.2500    15.6810   428.6520    24.6660     2.2290     5.5920    11.2540     8.5360    -3.3800 
  185.3750    15.6810   428.2660    24.7070     2.2070     5.8180    11.3820     8.5410    -3.3170 
  185.5000    15.6810   428.0240    24.7290     2.2040     5.9320    11.3820     8.5410    -3.2530 
  185.6250    15.6820   428.5470    24.7300     2.2090     6.0580    11.3820     8.6690    -3.0470 
  185.7500    15.7270   428.6620    24.7300     2.2140     6.2160    11.3810     8.6690    -2.8910 
  185.8750    15.9980   429.7170    24.7300     2.2150     6.1600    11.3810     8.6700    -2.7250 
  186.0000    16.1940   430.6060    24.6670     2.2160     6.0570    11.3810     8.6700    -2.4870 
  186.1250    16.3220   431.4510    24.6370     2.2120     5.9220    11.3810     8.7980    -2.3830 
  186.2500    16.3220   432.2300    24.6030     2.2020     5.7170    11.6360     8.7830    -2.1700 
  186.3750    16.5780   432.8560    24.6290     2.2040     5.6210    11.6360     8.7980    -1.8900 
  186.5000    16.7260   433.1050    24.6670     2.2070     5.6790    11.8910     8.7990    -1.7950 
  186.6250    16.8340   433.1080    24.6670     2.2120     5.6710    12.0190     8.7140    -1.7950 
  186.7500    16.9620   433.1100    24.6670     2.2080     5.7090    12.0190     8.7780    -1.9210 
  186.8750    17.0900   432.4800    24.6760     2.2170     5.8980    12.0190     8.6730    -2.0880 
  187.0000    16.8070   430.7900    24.7310     2.2270     6.0670    11.8910     8.6820    -2.3680 
  187.1250    16.0580   430.1420    24.7820     2.2390     6.2510    11.5330     8.8010    -3.0860 
  187.2500    14.8360   431.5570    24.9330     2.2490     6.5140    10.9220     8.8010    -4.2450 
  187.3750    13.5690   435.6270    24.9920     2.2620     7.0700     8.5800     8.8020    -4.8440 
  187.5000    11.2030   434.7670    25.1140     2.2910     7.4750     6.7520     8.8020    -5.4010 
  187.6250     8.7020   429.9930    25.2130     2.3220     7.5810     5.3430     8.2330    -5.9010 
  187.7500     7.4200   426.6690    25.3050     2.3360     7.8250     5.2400     7.3570    -6.3600 
  187.8750     7.1600   404.5000    25.3050     2.3450     7.9410     5.5350     7.0240    -6.7090 
  188.0000     7.6190   380.9650    25.3050     2.3550     7.9520     6.0060     7.0240    -6.9070 
  188.1250     8.0200   369.6290    25.3050     2.3730     7.9690     5.9860     7.0250    -6.9760 
  188.2500     7.6800   384.9860    25.3050     2.3410     7.9540     5.6170     7.9790    -7.0540 
  188.3750     7.1340   403.6940    25.3050     2.3250     7.7880     5.2380     8.9980    -7.1310 
  188.5000     6.8700   425.2760    25.4330     2.3250     7.9590     4.8590     7.1460    -7.2090 
  188.6250     6.4600   434.8800    25.4330     2.3300     8.1510     4.6470     5.6820    -7.2860 
  188.7500     6.3600   432.3090    25.4970     2.3300     8.3700     4.5980     5.5310    -7.2960 
  188.8750     6.2320   430.6200    25.4970     2.3330     8.5480     4.5980     5.2700    -7.2700 
  189.0000     6.1950   432.5290    25.5610     2.3400     8.7870     4.7250     5.0600    -7.2440 
  189.1250     6.1050   438.0240    25.5710     2.3400     8.9180     4.5970     4.9940    -7.2160 
  189.2500     5.9590   444.0820    25.5610     2.3460     9.0310     4.5670     4.9940    -7.1100 
  189.3750     5.8500   447.0820    25.5610     2.3510     8.7740     4.4690     5.1540    -7.1570 
  189.5000     5.6410   445.4140    25.5610     2.3450     8.9910     4.3410     5.2490    -7.1820 
  189.6250     5.5950   443.1670    25.5610     2.3440     8.8620     4.3400     5.2500    -7.2360 
  189.7500     5.5950   440.6930    25.5620     2.3430     8.9930     4.3400     5.5050    -7.2360 
  189.8750     5.7230   430.6610    25.5310     2.3430     9.0730     4.2160     5.5500    -7.3070 
