~V
VERS. 2.00: Ver 2.00
~W
STRT.M 140.0000:
STOP.M 339.0000:
STEP.M 0.1250:
NULL. -999.2500:
UWI. жи50:
~C
DEPT.M :
RML.OHMM :
AC.US/MT :
CALI.CM :
DEN.GM/CC :
GR.API :
RI. :
RXO.OHMM :
SP.MV :
~A
# ...
  230.0000    58.6380   265.1890    24.2710     2.5180     5.0280    58.4430   153.7800   -15.4100 
  230.1250    75.2680   227.2590    24.6480     2.5870     5.1130    90.0680   185.5420   -15.2660 
  230.2500    99.3660   214.7520    24.8470     2.6030     5.2330   105.8500   157.1620   -15.1450 
  230.3750   122.3200   207.8440    24.7840     2.5920     5.3520   107.0270   137.0980   -14.9040 
  230.5000   145.2730   205.7620    24.7200     2.5630     5.3180    99.5900   138.6300   -14.7220 
  230.6250   162.8520   205.7630    24.6570     2.5470     5.2870    96.4340   112.6140   -14.5340 
  230.7500   170.8290   206.3980    24.6570     2.5450     5.2160    94.5690    44.6690   -14.3360 
  230.8750   172.1030   207.0330    24.6260     2.5370     5.2080    83.0830    14.7490   -14.1260 
  231.0000   140.4850   208.1450    24.5850     2.5320     5.2990    70.0730     8.5430   -14.0090 
  231.1250   116.2290   210.4820    24.4800     2.5230     5.2320    57.0630     6.3920   -13.7890 
  231.2500    85.7070   214.6780    24.5940     2.5020     5.0780    44.0530     8.1990   -13.5490 
  231.3750    55.1850   214.2660    24.5940     2.4890     5.1470    28.1200     7.6660   -13.2290 
  231.5000    37.3800   215.0810    24.5940     2.4820     4.9790     4.5490     7.7980   -12.9180 
  231.6250     9.5220   235.2330    24.5940     2.4750     4.7740     4.3350     7.9310   -12.5420 
  231.7500     3.9300   289.8010    24.5950     2.3820     4.6510     4.9680     8.0630   -12.0840 
  231.8750     4.5550   336.4130    24.5310     2.3640     4.5490     4.9360     6.9220   -11.6020 
  232.0000     5.2410   412.9410    24.4680     2.3530     4.0630     4.5620     7.0550   -11.1760 
  232.1250     5.5570   430.2080    24.2230     2.3450     4.2080     4.4970     7.1870   -10.8520 
  232.2500     5.5580   433.2490    24.0290     2.3430     4.3410     4.6250     7.3200   -10.4980 
  232.3750     5.5580   428.5990    23.9220     2.3520     4.4930     4.7180     7.4530   -10.3300 
  232.5000     5.5580   427.6510    23.7150     2.3730     4.6780     4.7530    10.1320   -10.3140 
  232.6250     5.6610   428.8290    23.6410     2.3570     4.7590     4.8810    11.5370   -10.2660 
  232.7500     5.8470   435.1280    23.5440     2.3390     4.8320     4.8150    11.9290   -10.2490 
  232.8750     6.0710   439.4370    23.5140     2.3280     5.1610     4.8800    11.8020   -10.1640 
  233.0000     6.2830   447.2910    23.7940     2.2700     5.4010     5.0090    11.9340   -10.1150 
  233.1250     6.3980   477.8020    24.1070     2.2420     5.5980     5.2080    10.7940    -9.9490 
  233.2500     6.4590   488.2410    24.6420     2.2260     5.5850     5.3930    10.9260    -9.8550 
  233.3750     6.5870   493.0220    25.1900     2.2510     4.8980     5.5010    12.1880    -9.5770 
  233.5000     6.9220   457.7930    25.6870     2.3110     4.5030     5.6240    11.5740    -9.2140 
  233.6250     7.0960   418.7610    26.0930     2.3540     4.2210     5.6490    12.5960    -8.8990 
  233.7500     7.3270   385.2850    26.1880     2.3620     4.0310     5.6710    11.6250    -8.6420 
  233.8750     7.3310   375.6550    25.6260     2.3690     4.1080     5.7770     7.2540    -8.3170 
  234.0000     7.3520   378.2010    25.0530     2.3860     4.2140     5.7760     6.9610    -8.1300 
  234.1250     7.2250   391.9660    24.8020     2.3940     4.1550     5.7760     6.8290    -7.9740 
  234.2500     7.1210   404.5410    24.6610     2.3970     3.9710     6.1610     6.6590    -7.8610 
  234.3750     7.0260   410.8370    24.5980     2.3930     3.8380     6.2180     6.5420    -7.7030 
  234.5000     7.1770   416.2770    24.5980     2.4040     3.8360     5.9670     6.5430    -7.4730 
  234.6250     7.4820   413.2550    24.5980     2.4120     3.7920     5.7750     6.5910    -7.2130 
  234.7500     7.3540   406.1670    24.6620     2.3940     3.7890     5.7750     6.8580    -6.9620 
  234.8750     7.3540   397.4230    24.6620     2.3920     3.7780     5.8890     7.1500    -6.7630 
  235.0000     7.2290   392.9280    24.6620     2.3920     3.6980     5.9020     7.4020    -6.5420 
  235.1250     7.1200   390.9300    24.6700     2.3820     3.6210     5.7940     7.5050    -6.2310 
  235.2500     7.1800   394.8610    24.7260     2.3680     3.7300     5.8020     7.4350    -5.9970 
  235.3750     6.9710   402.8660    24.7900     2.3580     3.7870     5.6300     7.0260    -5.8170 
  235.5000     6.9720   414.5380    24.7910     2.3680     3.8610     5.5160     6.7970    -5.6130 
  235.6250     6.9720   419.5470    24.8540     2.3760     3.9640     5.6160     6.7190    -5.4420 
  235.7500     6.9720   422.6410    24.9160     2.3800     4.0080     5.6840     6.7110    -5.3070 
  235.8750     7.0780   422.0090    24.8540     2.3750     4.0940     5.7720     6.8010    -5.1000 
  236.0000     7.1010   409.7030    24.7910     2.3700     4.1040     5.6430     6.7320    -4.8950 
  236.1250     7.1730   399.3230    24.7910     2.3630     4.0320     5.6430     6.6620    -4.7700 
  236.2500     7.1080   388.6110    24.7910     2.3750     4.1510     5.6430     6.5930    -4.6330 
  236.3750     7.2290   385.0000    24.7910     2.3850     4.0540     5.6430     6.5230    -4.6140 
  236.5000     7.1020   399.0430    24.8140     2.4020     3.9290     5.6940     6.4540    -4.4890 
  236.6250     6.9230   413.2910    25.0230     2.3940     3.8290     5.8990     6.4320    -4.3560 
  236.7500     6.7510   420.2090    25.1980     2.3850     3.9030     6.5400     6.4500    -4.3160 
  236.8750     6.7190   409.9350    25.5120     2.3940     3.8790     6.8480     6.4680    -4.2980 
  237.0000     6.7190   396.9760    25.8100     2.3680     3.7630     5.7060     6.4860    -4.1900 
  237.1250     6.7190   389.4700    25.7640     2.3450     3.8260     5.6410     6.5030    -4.1890 
  237.2500     6.5920   387.1960    25.6200     2.3460     4.0120     5.6410     6.5210    -4.1620 
  237.3750     6.7200   388.4540    25.5540     2.3550     4.1190     5.5590     6.5390    -4.1130 
  237.5000     6.7200   395.8660    25.4930     2.3530     4.2810     5.5120     6.4670    -3.9360 
  237.6250     6.7200   409.2050    25.4930     2.3370     4.3640     5.5080     6.1540    -3.7840 
  237.7500     6.5930   422.3710    25.3900     2.3330     4.5220     5.3830     5.8400    -3.7150 
  237.8750     6.5930   433.0270    25.3660     2.3340     5.0040     5.3830     5.7020    -3.6830 
  238.0000     6.5760   432.7660    25.3660     2.3410     5.2170     5.1260     5.7360    -3.6820 
  238.1250     6.4660   419.4630    25.3660     2.3430     5.3270     5.1830     5.8010    -3.6820 
  238.2500     6.4660   412.8360    25.4300     2.3340     5.5500     5.2530     6.0470    -3.7450 
  238.3750     6.5590   410.6430    25.4470     2.3350     5.6990     5.2530     6.2270    -3.8080 
  238.5000     6.5940   411.9130    25.5240     2.3490     5.7630     5.4060     6.3010    -3.9220 
  238.6250     6.5950   408.4450    25.6210     2.3600     6.2830     5.5090     6.5450    -3.9980 
  238.7500     6.7230   396.2550    25.5780     2.3750     6.3580     5.5090     6.5570    -4.0670 
  238.8750     6.8670   387.6270    25.3980     2.3800     6.5640     5.6370     6.4370    -4.1240 
  239.0000     6.9790   388.6210    25.3670     2.3750     6.7460     5.6010     6.3150    -4.2080 
  239.1250     7.0680   399.2750    25.2670     2.3680     7.0570     5.6370     6.0280    -4.3530 
  239.2500     7.0440   401.7470    25.1760     2.3640     7.2250     5.6370     6.0000    -4.5530 
  239.3750     6.8980   395.0590    25.2400     2.3630     7.1950     5.6360     6.5030    -4.5650 
  239.5000     6.7990   388.1010    25.2610     2.3650     7.1300     5.8100     7.1330    -4.6800 
  239.6250     6.7250   389.7410    25.4600     2.3740     7.0560     5.9880     7.3820    -4.6910 
  239.7500     6.6540   385.3480    25.6040     2.3810     6.9700     6.0210     7.4500    -4.7540 
  239.8750     6.7120   383.8550    25.7500     2.3520     6.9190     6.1490     7.4500    -4.8390 
