~V
VERS. 2.00: Ver 2.00
~W
STRT.M 140.0000:
STOP.M 339.0000:
STEP.M 0.1250:
NULL. -999.2500:
UWI. жи50:
~C
DEPT.M :
RML.OHMM :
AC.US/MT :
CALI.CM :
DEN.GM/CC :
GR.API :
RI. :
RXO.OHMM :
SP.MV :
~A
# ...
  250.0000     8.0630   376.7430    25.5720     2.4260     7.2860     6.6400     7.2810    -6.0280 
  250.1250     8.2340   375.2060    25.5220     2.4200     7.3770     6.6400     7.4840    -5.9630 
  250.2500     8.2240   377.1880    25.5720     2.4110     7.4270     6.5580     7.5560    -6.0030 
  250.3750     8.2830   378.1360    25.5780     2.3940     7.2040     6.5110     7.6120    -6.0650 
  250.5000     8.1560   376.6480    25.6360     2.3820     7.2690     6.5110     7.6120    -6.0650 
  250.6250     8.1560   372.2310    25.6360     2.3670     7.3580     6.5250     7.6120    -6.0940 
  250.7500     8.1630   378.4190    25.5720     2.3650     7.4040     6.8010     7.3640    -6.1280 
  250.8750     8.4120   387.3670    25.6360     2.3630     7.4070     7.0240     7.2380    -6.1280 
  251.0000     8.7970   387.5290    25.8270     2.3580     7.6400     7.0240     7.2320    -6.1280 
  251.1250     9.0240   380.9300    25.6500     2.3420     6.9890     7.2810     7.5360    -6.1900 
  251.2500     9.3380   378.7100    25.5500     2.3330     6.4780     7.7290     8.0520    -6.1460 
  251.3750    10.1230   378.0980    25.5100     2.3260     6.4810     8.3610     9.1590    -6.1900 
  251.5000    10.8650   361.1860    25.5730     2.3160     6.5440     9.6820    10.5350    -6.3070 
  251.6250    14.9190   357.3760    25.5740     2.3140     6.3760    13.4110    14.2650    -6.3420 
  251.7500    18.5910   356.0300    25.6370     2.3100     6.3240    14.4630    17.6990    -6.3790 
  251.8750    22.3600   361.1630    25.7390     2.3070     6.0800    16.2300    19.8120    -6.3860 
  252.0000    25.7950   365.5670    25.7650     2.3000     5.8310    17.6320    21.3410    -6.4700 
  252.1250    27.1170   369.7670    25.6030     2.2960     5.7910    19.5550    22.7310    -6.5240 
  252.2500    28.4010   372.2460    25.5240     2.2970     5.8740    21.4560    24.1220    -6.5520 
  252.3750    29.5300   373.0440    25.8970     2.2930     6.0070    22.7500    25.5130    -6.5680 
  252.5000    30.4840   373.9930    25.9520     2.2810     6.0250    23.8260    26.9030    -6.6310 
  252.6250    31.4590   373.1100    25.6690     2.2830     6.1300    24.4610    28.2940    -6.6310 
  252.7500    32.2210   372.2170    25.4480     2.2970     5.9070    25.0590    28.3460    -6.7570 
  252.8750    32.6630   370.1110    25.4480     2.3010     5.7900    24.6130    26.9370    -6.7570 
  253.0000    32.6050   368.8660    25.6330     2.2860     5.6480    23.9850    25.9980    -6.8060 
  253.1250    32.3500   374.7450    25.6390     2.2720     5.5710    23.8570    26.5350    -6.8190 
  253.2500    31.9870   381.6860    25.6390     2.2660     5.5830    23.9410    26.8160    -6.8190 
  253.3750    31.7110   386.4760    25.5120     2.2790     5.7040    24.2740    27.7340    -6.8190 
  253.5000    31.7760   386.6450    25.3990     2.2920     5.7810    24.9850    29.0110    -6.8820 
  253.6250    32.4040   377.9580    25.4490     2.2990     5.7120    26.4930    30.5990    -6.8820 
  253.7500    33.6380   373.6670    25.5900     2.2990     5.7660    28.5250    33.4800    -6.8820 
  253.8750    36.4380   374.6070    25.7150     2.3010     5.8200    28.1960    35.9080    -6.9110 
  254.0000    39.1230   377.0390    25.7670     2.3050     5.6490    25.8470    35.9820    -6.9440 
  254.1250    34.6480   379.6730    25.6400     2.3000     5.5710    25.2700    32.9500    -6.9080 
  254.2500    32.9990   379.8090    25.6400     2.2850     5.5720    24.9170    29.6870    -6.8810 
  254.3750    32.2250   379.5130    25.5770     2.3000     5.5130    23.9140    27.8370    -6.9440 
  254.5000    30.1510   376.6640    25.5130     2.3130     5.6340    22.0240    26.8310    -6.9440 
  254.6250    27.5710   368.7380    25.5140     2.3240     5.7490    21.1060    25.2950    -6.9010 
  254.7500    25.0590   364.6430    25.5140     2.3340     5.8910    19.7890    23.8580    -6.8800 
  254.8750    23.7520   360.2650    25.5140     2.3360     5.8100    17.6210    22.8280    -6.8800 
  255.0000    21.8190   355.5530    25.5140     2.3280     5.9140    16.1430    21.5090    -6.8940 
  255.1250    19.8830   350.1620    25.5140     2.3220     5.8190    15.3710    20.0870    -6.9430 
  255.2500    22.8580   360.8790    25.4940     2.3190     5.7350    19.9860    19.0360    -6.9420 
  255.3750    26.9710   371.4930    25.5010     2.2990     5.7880    22.2420    22.0900    -6.9800 
  255.5000    29.1070   381.7950    25.5150     2.2870     5.6440    24.1000    27.2260    -7.0680 
  255.6250    31.5120   369.2260    25.5150     2.2810     5.3330    25.5110    29.6600    -7.1230 
  255.7500    33.9960   363.9140    25.5790     2.2790     5.3740    23.6710    30.7650    -7.2580 
  255.8750    36.0220   362.9820    25.6000     2.2810     5.4910    21.8830    30.7140    -7.3840 
  256.0000    33.0430   364.7520    25.6070     2.2780     5.6710    20.7640    26.3170    -7.4260 
  256.1250    28.3220   368.9250    25.5790     2.2730     5.7830    19.2720    22.4070    -7.5990 
  256.2500    26.0200   371.5470    25.5610     2.2680     5.7740    18.2450    21.2550    -7.7080 
  256.3750    24.2490   373.9800    25.5160     2.2660     5.7770    17.3520    19.5510    -7.9550 
  256.5000    23.6000   375.5920    25.5160     2.2700     5.8640    19.0180    18.5310    -8.3880 
  256.6250    24.4410   377.8320    25.4790     2.2750     5.9840    20.1650    19.5050    -8.8120 
  256.7500    26.2720   379.5650    25.4520     2.2800     5.7900    21.1760    23.6370    -9.1960 
  256.8750    27.7160   380.2900    25.5130     2.2760     5.8570    22.0030    25.5330    -9.5170 
  257.0000    28.9680   382.1740    25.5160     2.2720     5.9680    21.4140    26.5020    -9.6560 
  257.1250    28.4310   383.9520    25.5170     2.2720     5.7480    20.2350    23.6960    -9.8700 
  257.2500    23.7820   385.4980    25.5170     2.2740     5.6160    17.4170    20.8020   -10.1170 
  257.3750    21.4470   386.2990    25.5170     2.2790     5.4560    15.7400    18.1240   -10.3510 
  257.5000    19.3490   387.2740    25.5170     2.2860     5.6020    18.0780    16.7500   -10.3560 
  257.6250    26.5760   376.0630    25.5170     2.3010     5.8110    23.5640    23.6900   -10.5380 
  257.7500    30.5570   366.2940    25.5240     2.3180     5.7750    26.9950    30.1380   -10.7920 
  257.8750    36.6130   361.3830    25.5810     2.3090     5.7270    29.1470    36.2280   -11.1740 
  258.0000    42.8720   364.6770    25.6450     2.2820     5.5610    32.6080    42.9560   -11.5290 
  258.1250    54.5130   371.9530    25.7000     2.2670     5.5950    38.7790    52.7450   -12.3760 
  258.2500    59.9530   381.3340    25.7090     2.2560     5.5020    35.5650    56.8880   -13.6200 
  258.3750    55.7500   388.1420    25.7090     2.2560     5.4360    35.9830    40.8000   -14.3620 
  258.5000    50.8510   389.0880    25.5200     2.2640     5.4240    37.2190    43.7780   -15.0510 
  258.6250    52.1360   388.7160    25.4590     2.2750     5.4560    37.2090    50.4210   -16.0350 
  258.7500    53.2960   391.2670    25.4550     2.2840     5.6320    35.9490    56.4020   -16.4660 
  258.8750    49.1630   387.3810    25.5190     2.2890     5.8000    34.8680    42.3690   -17.1980 
  259.0000    47.4700   382.4890    25.3920     2.2890     5.8490    35.0800    43.3550   -17.7060 
  259.1250    49.3950   384.3830    25.4310     2.2860     6.0070    37.0050    44.6790   -18.3750 
  259.2500    51.3910   387.5480    25.5540     2.2860     6.1050    35.5030    47.2500   -18.8840 
  259.3750    52.6940   387.7470    25.5830     2.2950     5.9760    32.7720    50.9750   -19.4100 
  259.5000    44.3060   378.9440    25.5830     2.3190     5.9490    22.8160    55.1570   -19.9040 
  259.6250    23.2990   373.4750    25.5720     2.3220     6.0790    20.3080    45.8030   -20.4000 
  259.7500    24.3140   374.7200    25.5830     2.3240     6.1580    23.1730    23.5320   -20.9500 
  259.8750    26.4710   379.1470    25.5630     2.3590     6.2280    25.7690    29.6690   -21.8220 
