~V
VERS. 2.00: Ver 2.00
~W
STRT.M 140.0000:
STOP.M 339.0000:
STEP.M 0.1250:
NULL. -999.2500:
UWI. жи50:
~C
DEPT.M :
RML.OHMM :
AC.US/MT :
CALI.CM :
DEN.GM/CC :
GR.API :
RI. :
RXO.OHMM :
SP.MV :
~A
# ...
  280.0000    79.3440   320.9480    26.0340     2.4780     6.5330    46.7120    84.9390    -6.5880 
  280.1250    68.9120   332.2720    26.1180     2.4870     6.3950    45.2830    69.1870    -6.5330 
  280.2500    64.4820   283.4670    25.8280     2.4990     6.3000    50.9660    67.1910    -6.4450 
  280.3750    61.4110   297.5540    25.7360     2.4590     6.3290    54.1020    79.2330    -6.3260 
  280.5000    65.6450   278.2270    25.7810     2.4660     6.3840    53.4300    58.1960    -6.1720 
  280.6250    73.6640   274.3520    25.9270     2.4660     6.2400    57.5750    65.8790    -5.9830 
  280.7500    78.1420   316.6620    26.1180     2.4540     6.1430    64.3840   102.0000    -5.8230 
  280.8750    87.9510   290.5860    26.2460     2.4390     6.0540    65.5200    83.6090    -5.5760 
  281.0000   113.9270   247.7050    26.2410     2.4220     5.9670    56.6280    74.5340    -5.4500 
  281.1250   114.3290   251.9290    26.1830     2.3880     5.8000    38.8980    19.8700    -5.2650 
  281.2500    70.0960   332.1320    25.9700     2.3550     4.7330    12.3710    16.0850    -5.0760 
  281.3750    35.2510   344.6310    25.8650     2.3030     4.5280     7.4530    20.8410    -4.7860 
  281.5000    14.6770   279.4720    25.8010     2.2790     4.2960     8.8070    11.4880    -4.5900 
  281.6250    10.3310   290.3050    25.7960     2.2810     4.2160    10.2990    18.2490    -4.2840 
  281.7500    12.2290   345.2620    25.7450     2.2900     4.2770    11.0110    24.9760    -4.0790 
  281.8750    14.9620   369.7690    25.7380     2.2680     4.3210     6.7800     6.6840    -3.8310 
  282.0000    14.2420   393.1490    25.8540     2.2520     4.2910     5.4580     3.4380    -3.5320 
  282.1250     8.2150   442.7530    25.8650     2.2390     4.3860     4.7680     3.3840    -3.2270 
  282.2500     5.8040   457.3780    25.8020     2.2250     4.4880     4.5660     3.7490    -3.0200 
  282.3750     5.0240   442.8770    25.6820     2.2160     4.1250     4.5550     4.3480    -2.8340 
  282.5000     5.1520   419.8860    25.5360     2.2080     3.9050     4.4470     5.6170    -2.5430 
  282.6250     5.3050   413.4430    25.4200     2.2030     3.7680     4.3800     6.1930    -2.3580 
  282.7500     5.5230   426.5240    25.4280     2.1930     3.6070     4.5090     4.5150    -2.1080 
  282.8750     5.0220   436.7920    25.5710     2.1990     3.4840     4.3800     3.5240    -1.9300 
  283.0000     4.5160   444.3620    25.9260     2.2030     3.3370     4.1440     3.2700    -1.7890 
  283.1250     4.2630   448.5490    25.6760     2.2090     3.2470     4.1220     3.0170    -1.7040 
  283.2500     4.2570   442.5590    25.6120     2.2160     2.9020     4.2500     3.1890    -1.6270 
  283.3750     4.5570   435.2100    25.6470     2.2290     2.9460     4.2500     3.6530    -1.5190 
  283.5000     4.8980   431.3730    25.7940     2.2310     2.9640     4.2150     3.2720    -1.4700 
  283.6250     4.7700   435.6270    25.8670     2.2230     3.0500     3.9920     3.2720    -1.4690 
  283.7500     4.4110   438.8610    25.8670     2.2220     3.1370     3.9910     4.2520    -1.4060 
  283.8750     3.9310   439.7670    25.8900     2.2430     3.0920     4.1250     6.0470    -1.4060 
  284.0000     4.1630   439.0790    25.6770     2.2590     3.1590     4.2480     4.9810    -1.4690 
  284.1250     4.8450   429.6390    25.5970     2.2770     3.2300     4.7640     5.0660    -1.4060 
  284.2500     5.1610   406.0070    25.5320     2.2900     3.0760     4.9010     6.4570    -1.4050 
  284.3750     5.4760   392.5990    25.6580     2.2910     3.0200     4.7630     5.0760    -1.4050 
  284.5000     5.6680   412.4720    25.7900     2.2760     3.0960     4.0710     3.4610    -1.3140 
  284.6250     5.5640   424.7220    25.9320     2.2650     3.1500     4.1180     4.3740    -1.1900 
  284.7500     5.0630   442.5550    25.9960     2.2630     3.2040     4.3760     5.8750    -1.0980 
  284.8750     5.0290   434.6650    25.8640     2.2680     3.3760     4.4740     5.5330    -1.0780 
  285.0000     5.0290   434.2840    25.6540     2.2790     3.3670     4.6330     5.3150    -0.9430 
  285.1250     5.5720   440.7170    25.4020     2.2880     3.4360     4.6920     6.1160    -0.8310 
  285.2500     5.9260   431.3800    25.2560     2.2880     3.4770     4.7610     7.1730    -0.7720 
  285.3750     6.0540   417.2330    25.1080     2.2910     3.4890     4.9060     4.4520    -0.6940 
  285.5000     5.9090   404.5620    25.0040     2.3020     3.4780     5.0180     3.7260    -0.6460 
  285.6250     5.6670   399.9410    24.9780     2.2890     3.5880     4.8420     3.5330    -0.5870 
  285.7500     5.5430   403.7870    25.0420     2.2660     3.7670     4.7600     3.5760    -0.5350 
  285.8750     5.4150   416.3100    25.1450     2.2780     3.7080     4.7600     3.5340    -0.5330 
  286.0000     5.2870   407.4840    25.3320     2.2940     3.5150     4.6300     3.4080    -0.5820 
  286.1250     5.4100   422.1940    25.5820     2.3170     3.4460     4.3720     3.5000    -0.5310 
  286.2500     5.3730   438.2030    25.8330     2.3230     3.2780     4.3590     3.4080    -0.5190 
  286.3750     5.3360   441.6680    26.3380     2.2980     3.2170     4.1310     3.2820    -0.4790 
  286.5000     5.3000   439.5130    26.6350     2.2880     3.1560     3.9970     3.2400    -0.4560 
  286.6250     5.2890   437.1720    26.6210     2.2870     3.0490     3.9850     3.2800    -0.3290 
  286.7500     5.1770   448.0340    26.4710     2.2880     3.0680     3.9490     3.2830    -0.2240 
  286.8750     5.0520   469.5610    26.4100     2.2890     3.1430     3.8550     3.2830    -0.1210 
  287.0000     4.8550   477.7950    26.3810     2.2890     2.7850     3.8240     3.3090    -0.0760 
  287.1250     4.7770   474.7350    26.2570     2.2870     2.7570     3.7260     3.4110    -0.0280 
  287.2500     4.6490   468.7470    25.9420     2.2840     2.6290     3.6590     3.5390    -0.0340 
  287.3750     4.4520   459.0010    25.6280     2.2800     2.5780     3.5200     3.4120    -0.0680 
  287.5000     4.2720   464.0550    25.3070     2.2690     2.6290     3.4670     3.3030    -0.0760 
  287.6250     4.2420   469.7850    25.5780     2.2750     2.5740     3.3380     3.0940    -0.1380 
  287.7500     4.1380   464.6430    25.8320     2.2830     2.6570     3.3380     2.8420    -0.1380 
  287.8750     4.1390   451.3970    25.5680     2.2780     2.6470     3.2310     2.8680    -0.1330 
  288.0000     4.1720   443.0270    25.5540     2.2730     2.6060     3.2080     3.0330    -0.0750 
  288.1250     4.2290   435.3430    25.6180     2.2730     2.7250     3.0470     3.1740    -0.0750 
  288.2500     4.4950   431.5490    25.8090     2.2730     2.9510     3.0790     3.4810    -0.1380 
  288.3750     4.6320   435.2590    25.6220     2.2730     3.1280     3.1650     3.9240    -0.1370 
  288.5000     4.6520   429.6090    25.3320     2.2830     3.2400     3.4180     3.7850    -0.1370 
  288.6250     4.7560   425.6630    25.2370     2.3030     3.2730     3.5730     3.4710    -0.1710 
  288.7500     4.8120   439.8320    25.1030     2.3040     3.2570     3.8070     3.4220    -0.2000 
  288.8750     4.9900   456.1400    25.1740     2.2960     3.3530     3.8500     4.0590    -0.2090 
  289.0000     5.0380   433.3590    25.3640     2.3100     3.4670     4.0440     5.6030    -0.2630 
  289.1250     5.5140   407.7750    25.2430     2.3330     3.2870     4.3590     7.7570    -0.2630 
  289.2500     5.8870   372.6160    25.1370     2.3510     3.1110     5.2220     9.1260    -0.2860 
  289.3750     6.5170   351.8630    25.1740     2.3690     2.9990     6.2270     6.5020    -0.3890 
  289.5000     7.1470   394.6100    25.2830     2.3530     2.8220     5.8500     4.6640    -0.3880 
  289.6250     6.5610   434.5700    25.3860     2.2700     2.8370     4.7940     3.0760    -0.4270 
  289.7500     4.8370   452.2840    25.4930     2.2520     2.9520     4.2920     2.6570    -0.4510 
  289.8750     4.2110   471.1470    25.5560     2.2560     3.0760     4.0420     2.7850    -0.3880 
