~V
VERS. 2.00: Ver 2.00
~W
STRT.M 140.0000:
STOP.M 339.0000:
STEP.M 0.1250:
NULL. -999.2500:
UWI. жи50:
~C
DEPT.M :
RML.OHMM :
AC.US/MT :
CALI.CM :
DEN.GM/CC :
GR.API :
RI. :
RXO.OHMM :
SP.MV :
~A
# ...
  270.0000    37.6700   322.4340    26.2960     2.3730     5.9290    21.5320    56.0610    -5.8110 
  270.1250    33.0620   285.9080    26.1740     2.3890     6.0050    18.4610    62.6430    -5.7190 
  270.2500    23.2260   374.7470    25.9920     2.3410     6.1400    13.4030    25.5730    -5.6270 
  270.3750    14.8720   406.0260    25.7960     2.3180     6.3870    10.2040    10.1510    -5.4910 
  270.5000    12.1830   385.5060    25.6390     2.3080     6.5720    11.9940    10.7380    -5.4420 
  270.6250    13.7670   386.3830    25.5970     2.3000     6.7440    16.0200    13.9410    -5.3390 
  270.7500    18.6030   385.0900    25.5820     2.3110     7.0150    17.7870    19.1380    -5.2850 
  270.8750    22.3130   403.4700    25.6750     2.3210     6.8640    19.8760    23.5590    -5.0560 
  271.0000    25.9020   494.7380    25.6990     2.3220     6.6500    15.8440    26.8890    -4.8210 
  271.1250    22.8080   478.2270    25.7250     2.3410     6.7670    12.9910    27.7110    -4.5670 
  271.2500    17.1820   429.6330    25.7410     2.3680     6.4570    11.5930    15.4010    -4.3520 
  271.3750    12.6590   380.7370    25.6610     2.3740     6.4600     9.6060     9.8540    -4.3230 
  271.5000    10.7190   370.1700    25.7970     2.3720     6.6430    12.5780    11.5350    -4.2030 
  271.6250    11.0060   364.0290    25.9160     2.3880     6.8000    16.2440    13.3670    -4.2650 
  271.7500    15.2070   292.8830    25.7250     2.4190     6.4080    16.2440    17.9100    -4.3820 
  271.8750    20.2700   261.9600    25.6620     2.4360     6.1890    18.3710    22.0670    -4.5170 
  272.0000    24.5900   236.5800    25.5390     2.4390     5.9610    19.7170    23.9090    -4.6430 
  272.1250    27.8400   248.3070    25.5350     2.4350     6.0790    21.4370    20.6500    -4.5160 
  272.2500    27.7780   290.4520    25.5350     2.4270     6.2800    21.5430    21.5870    -4.4530 
  272.3750    26.0070   326.5410    25.5350     2.4240     6.4360    19.9220    23.8940    -4.2190 
  272.5000    26.0090   332.6920    25.5550     2.4160     6.1790    19.3360    34.0790    -4.1580 
  272.6250    28.0790   315.4930    25.6480     2.4000     6.2370    23.8410    45.7310    -4.2000 
  272.7500    30.8670   351.2460    25.7100     2.3810     6.2860    22.4340    30.2800    -4.1950 
  272.8750    25.1170   514.2140    25.7900     2.3720     6.2090    19.6320    20.4150    -3.9450 
  273.0000    22.3900   449.1980    25.7910     2.3620     6.3280    15.1430    18.9360    -3.6320 
  273.1250    18.0800   427.1840    25.7500     2.3590     6.5070    13.2750    13.9600    -3.2010 
  273.2500    15.5520   499.5030    25.6640     2.3590     6.6130    12.4030    14.6400    -2.9430 
  273.3750    14.1080   435.7440    25.6640     2.3590     6.7870    11.8370    13.6260    -2.7000 
  273.5000    13.6630   420.8630    25.6640     2.3600     7.3800    10.4440    10.0100    -2.3990 
  273.6250    12.7390   378.5410    25.6640     2.3630     7.6630     9.3480    10.2990    -2.1670 
  273.7500    11.7320   380.6720    25.6640     2.3680     7.8150     9.1020     9.2390    -1.8940 
  273.8750    10.8560   369.5380    25.6930     2.3750     8.0630     9.0500    11.7780    -1.6720 
  274.0000    10.9130   372.6380    25.7280     2.3780     8.1570    10.2920    13.7240    -1.6090 
  274.1250    12.8340   395.9990    25.7280     2.3700     7.8960    12.2500    13.7680    -1.5200 
  274.2500    15.5440   463.4610    25.7280     2.3600     8.1620    13.4580    14.4760    -1.4970 
  274.3750    17.0710   424.0650    25.7290     2.3500     8.3850    13.4650    15.4070    -1.4190 
  274.5000    16.5820   384.9060    25.7920     2.3430     8.3240    11.9380    17.5100    -1.4190 
  274.6250    12.7250   397.3880    25.7820     2.3350     8.1780     8.9470    10.7430    -1.4740 
  274.7500     9.9840   414.1590    25.7290     2.3280     8.3770     8.7320     8.7430    -1.5450 
  274.8750    10.4340   473.9510    25.7290     2.3190     8.4870    10.6580    12.8270    -1.6610 
  275.0000    14.0390   499.9550    25.7290     2.3300     8.3140    12.9690    17.1870    -1.7340 
  275.1250    18.2670   470.8420    25.7150     2.3440     8.1680    14.7850    15.1370    -1.8700 
  275.2500    20.5150   364.4190    25.6660     2.3560     7.8720    14.5610    13.0330    -2.0580 
  275.3750    17.9290   361.5810    25.6660     2.3640     7.8410    13.3620    12.5800    -2.1120 
  275.5000    16.7920   367.3170    25.6660     2.3650     7.6610    12.6780    12.6520    -2.1750 
  275.6250    15.9180   364.7300    25.6030     2.3650     7.5260    12.6690    12.6160    -2.1750 
  275.7500    16.4100   331.6580    25.6610     2.3680     7.6730    13.0520    11.3410    -2.1120 
  275.8750    18.4690   291.4550    25.8470     2.3700     7.4030    13.8990    12.3260    -2.1750 
  276.0000    19.9160   267.0770    26.1060     2.3720     7.1580    15.5710    13.5560    -2.3810 
  276.1250    21.0520   271.0870    26.4760     2.3260     6.9570    16.8050    18.9600    -2.5980 
  276.2500    22.4540   292.0080    26.8340     2.3170     6.7640    17.6590    24.6620    -2.7940 
  276.3750    24.2570   332.5690    26.7130     2.3000     6.5860    18.8570    30.3630    -3.0280 
  276.5000    27.0350   343.1340    26.2880     2.2860     6.5800    20.2200    35.5380    -3.4000 
  276.6250    30.1310   343.4150    26.2230     2.2820     6.6670    22.8510    35.5470    -3.6450 
  276.7500    32.5160   354.4490    26.2850     2.2880     6.7380    22.9430    29.7850    -3.9920 
  276.8750    29.7180   366.4440    26.2950     2.2910     6.4480    21.6870    25.3310    -4.4080 
  277.0000    27.6040   370.0170    26.0500     2.2860     6.3700    20.7420    20.3230    -4.6980 
  277.1250    28.2930   370.0370    26.0240     2.2760     6.3500    21.7690    21.6020    -5.0420 
  277.2500    30.7680   371.1050    26.2410     2.2570     6.3900    25.2980    25.1710    -5.3090 
  277.3750    33.9740   382.7200    26.3690     2.2450     6.2920    27.3240    37.2760    -5.5610 
  277.5000    40.1020   391.7380    26.4330     2.2400     6.3930    28.8790    33.9270    -5.8070 
  277.6250    42.2150   391.5710    26.2760     2.2580     6.3390    29.8830    32.2450    -6.0530 
  277.7500    41.4710   382.7550    26.2420     2.2810     6.2720    27.2220    30.8380    -6.2410 
  277.8750    38.9890   378.1040    26.3570     2.2960     6.2280    26.0790    30.9650    -6.3860 
  278.0000    37.2590   364.6970    26.4970     2.3030     6.0900    26.7170    31.7390    -6.5560 
  278.1250    39.1400   351.1910    26.5610     2.3110     5.9920    27.9760    36.1270    -6.6970 
  278.2500    40.8570   336.4430    26.3700     2.3160     5.8030    29.2810    29.5870    -6.8000 
  278.3750    41.1260   344.3030    26.2260     2.3220     5.8210    29.7600    30.8720    -6.9060 
  278.5000    40.4250   366.0740    25.9570     2.3180     5.9750    29.1810    32.6360    -6.9660 
  278.6250    39.3350   379.8090    25.9250     2.3050     6.0610    28.5110    30.8260    -6.9690 
  278.7500    38.4150   390.6520    25.9670     2.3320     6.1360    28.2140    29.4510    -6.9680 
  278.8750    37.4750   389.5980    25.9250     2.3550     6.2080    29.0380    30.9220    -6.9360 
  279.0000    39.1450   387.1410    25.9250     2.3630     6.1100    30.8920    33.8310    -6.8420 
  279.1250    43.4060   384.3110    25.9300     2.3760     6.1000    33.7900    36.3240    -6.8420 
  279.2500    48.8350   392.8770    26.0870     2.3950     6.1980    37.6870    44.6460    -6.8410 
  279.3750    54.8810   384.9150    26.2130     2.4280     6.0760    41.1910    60.1550    -6.8370 
  279.5000    60.6100   310.6310    26.2480     2.4490     5.9940    48.4320    67.2050    -6.7450 
  279.6250    73.2600   290.3740    26.1250     2.4820     6.1030    54.8460   136.6660    -6.7150 
  279.7500    83.4380   275.0160    26.0020     2.4820     6.2990    50.1760   175.3770    -6.6750 
  279.8750    89.3220   289.6080    25.9260     2.4780     6.5280    47.9180   104.1970    -6.5950 
