~V
VERS. 2.00: Ver 2.00
~W
STRT.M 140.0000:
STOP.M 339.0000:
STEP.M 0.1250:
NULL. -999.2500:
UWI. жи50:
~C
DEPT.M :
RML.OHMM :
AC.US/MT :
CALI.CM :
DEN.GM/CC :
GR.API :
RI. :
RXO.OHMM :
SP.MV :
~A
# ...
  220.0000    11.6700   417.4820    24.5730     2.3280     7.3230     8.9010    12.0750   -19.9090 
  220.1250    11.2990   421.7710    24.5420     2.3060     7.2790     9.0120    12.2890   -20.0890 
  220.2500    11.0310   421.6480    24.4950     2.2960     7.3780     9.3620    12.5040   -20.2700 
  220.3750    11.3800   417.5770    24.5170     2.2860     7.5070     9.6530    12.0700   -20.4070 
  220.5000    11.9800   411.6630    24.4940     2.2770     6.9800     9.5240    11.6730   -20.7720 
  220.6250    12.2460   406.8800    24.4540     2.2700     6.7430     9.3960    11.5140   -21.0460 
  220.7500    12.0280   406.5190    24.3900     2.2660     6.5250     9.3950    11.5190   -21.2710 
  220.8750    11.9280   410.4740    24.3430     2.2630     6.3850     9.2670    11.5250   -21.4800 
  221.0000    11.9280   410.9580    24.3270     2.2620     6.2140     9.2670    11.5730   -21.7040 
  221.1250    11.6730   410.3270    24.3270     2.2600     5.9370     9.0870    11.6630   -21.9080 
  221.2500    11.5450   412.5470    24.3270     2.2580     5.9590     8.9190    11.9140   -22.0150 
  221.3750    11.4120   416.1900    24.3800     2.2560     5.8610     8.8810    12.0570   -22.1560 
  221.5000    10.7800   420.3080    24.3910     2.2540     5.5260     8.7530    12.1900   -22.2810 
  221.6250    10.2760   427.6440    24.3420     2.2510     5.1130     8.5680    12.3770   -22.3020 
  221.7500    10.1390   429.9810    24.3280     2.2470     5.1520     8.4190    12.0160   -22.4290 
  221.8750    10.0260   430.5810    24.3280     2.2440     5.2530     8.3910    11.4030   -22.4280 
  222.0000    10.0250   428.6880    24.3010     2.2420     5.2790     8.4960    10.8480   -22.3020 
  222.1250    10.1400   427.1310    24.3920     2.2380     5.3920     8.5200    10.4340   -22.2220 
  222.2500    10.1400   425.5730    24.2650     2.2350     5.5350     8.6230    10.4380   -22.0980 
  222.3750    10.1410   423.1100    24.2650     2.2360     5.4340     8.7650    10.4430   -21.9280 
  222.5000    10.3110   422.3920    24.2650     2.2430     5.5170     8.9370    10.4490   -21.7210 
  222.6250    10.5250   421.7600    24.1380     2.2520     5.6260     9.1900    10.6650   -21.4670 
  222.7500    10.7810   421.7630    24.0190     2.2590     5.6680     9.2630    10.7870   -21.2420 
  222.8750    10.7830   420.9520    23.9470     2.2580     5.4470     9.3320    10.9760   -21.0180 
  223.0000    10.9100   420.5000    23.8840     2.2500     5.5130     9.5190    11.3640   -20.7220 
  223.1250    10.9100   420.3700    23.8200     2.2460     5.6490     9.5190    11.4430   -20.5030 
  223.2500    11.0240   419.2370    23.8100     2.2530     5.4760     9.5190    11.6300   -20.2260 
  223.3750    11.0380   418.5500    23.7570     2.2630     5.4310     9.3900    11.6360   -19.9140 
  223.5000    11.1660   417.2610    23.7570     2.2680     5.3730     9.2620    11.6410   -19.5390 
  223.6250    11.2950   414.7730    23.6940     2.2730     5.2180     9.0050    11.6470   -19.1460 
  223.7500    11.3570   412.8880    23.7520     2.2760     5.2830     9.0050    11.6520   -18.6930 
  223.8750    11.4230   410.6070    23.7620     2.2800     5.3760     9.0050    11.5300   -18.4040 
  224.0000    11.4230   408.2000    23.7580     2.2830     5.2950     9.2610    11.5360   -18.0750 
  224.1250    11.4240   406.0720    23.7590     2.2860     5.4250     9.4780    11.9270   -17.7940 
  224.2500    11.4240   402.6860    23.8850     2.2880     5.5740     9.6010    12.4080   -17.5040 
  224.3750    11.4660   400.1870    23.9440     2.2860     5.7040     9.7890    12.9070   -17.2020 
  224.5000    11.5650   397.9900    23.8890     2.2820     5.4630     9.9010    13.3320   -16.8350 
  224.6250    11.9360   395.1980    23.9500     2.2780     5.6250     9.9940    13.6410   -16.5430 
  224.7500    12.2370   394.8130    24.0070     2.2850     5.6060    10.1570    13.7380   -16.1110 
  224.8750    12.4490   397.5260    23.9930     2.2910     5.7380    10.4130    13.6750   -15.8520 
  225.0000    12.7680   396.5750    24.0000     2.2960     5.8540    10.7260    13.6220   -15.6720 
  225.1250    13.6930   389.3710    24.0140     2.2980     5.8950    11.1710    13.6270   -15.4230 
  225.2500    13.9330   386.3870    24.0000     2.2930     5.8920    10.7380    13.8620   -15.3020 
  225.3750    13.1130   394.0470    24.0140     2.2850     5.7260    10.1150    15.7500   -15.3270 
  225.5000    12.5570   404.6950    24.0140     2.2780     5.7760     9.8990    17.7470   -15.2450 
  225.6250    11.9390   412.2700    24.0220     2.2730     5.8410     9.7400    16.8320   -15.2110 
  225.7500    11.9390   414.5730    24.1420     2.2640     5.8740     9.5140    15.6940   -15.2740 
  225.8750    11.9390   412.9490    24.1420     2.2600     5.7550     9.2570    13.8570   -15.3380 
  226.0000    11.9390   411.7740    24.2070     2.2590     5.8180     9.1290    11.7480   -15.4000 
  226.1250    11.9400   410.8500    24.2700     2.2670     5.9010     9.2570    11.5100   -15.4870 
  226.2500    12.0680   409.7870    24.2700     2.2720     5.7490     9.2570    11.6360   -15.5260 
  226.3750    12.0680   412.4790    24.3610     2.2710     5.6590     9.3850    11.4660   -15.5650 
  226.5000    11.9410   416.4020    24.3970     2.2660     5.8210     9.4450    11.3910   -15.6220 
  226.6250    11.9410   418.8690    24.3970     2.2580     5.7110     9.3840    11.2690   -15.6520 
  226.7500    11.9410   418.0350    24.4090     2.2540     5.8340     9.4860    11.1470   -15.6900 
  226.8750    11.7730   417.4710    24.3980     2.2490     5.5030     9.1270    11.1950   -15.6510 
  227.0000    11.7560   418.0620    24.4620     2.2410     5.6270     8.9990    11.8310   -15.6550 
  227.1250    11.8140   419.0150    24.4620     2.2390     5.7730     8.8700    12.2090   -15.7140 
  227.2500    11.8140   420.2600    24.4620     2.2440     5.7670     8.8030    12.0520   -15.7140 
  227.3750    11.8150   422.4380    24.5260     2.2450     5.4870     8.8010    11.4370   -15.7130 
  227.5000    11.7420   423.1190    24.5260     2.2470     5.4310     8.8690    11.1420   -15.7130 
  227.6250    11.6870   421.3140    24.5010     2.2570     5.5650     8.8690    10.8030   -15.7720 
  227.7500    11.6880   418.7820    24.4620     2.2750     5.7560     8.7410    10.8870   -15.8390 
  227.8750    11.6880   418.2550    24.4630     2.2780     5.5670     8.7400    11.3410   -15.9210 
  228.0000    11.6880   419.5020    24.4370     2.2690     5.6840     8.6120    11.7240   -15.9810 
  228.1250    11.6880   420.5960    24.4400     2.2650     5.7710     8.7330    27.1720   -16.0910 
  228.2500    11.6890   420.5980    24.4630     2.2740     5.7060     8.7400    23.4790   -16.2280 
  228.3750    11.6570   419.7540    24.3480     2.2770     5.6180     8.8930    22.3350   -16.3320 
  228.5000    11.5610   418.1690    24.2720     2.2740     5.6970     9.1070    22.4670   -16.4700 
  228.6250    11.5640   416.0520    24.2190     2.2710     5.7330     9.2520    21.3240   -16.4920 
  228.7500    11.6900   414.2020    24.2090     2.2720     5.6160     9.3670    23.7590   -16.4710 
  228.8750    11.6900   412.6770    24.2090     2.2800     5.3810     9.5300    25.5970   -16.4400 
  229.0000    11.6900   413.0070    24.2260     2.2910     5.4540     9.6360    29.3680   -16.4060 
  229.1250    11.6910   413.6430    24.2640     2.2990     5.5630     9.8650    41.5100   -16.3430 
  229.2500    11.6910   413.6450    24.2100     2.3100     5.4410    10.1040    70.3100   -16.2160 
  229.3750    11.6910   412.1460    24.2100     2.3210     5.6080    10.6920   120.4160   -16.0580 
  229.5000    11.8190   410.0610    24.1460     2.3330     5.7590    11.2190   168.4010   -15.9720 
  229.6250    12.1230   404.3100    24.0830     2.3700     5.4950    12.4730   188.0480   -15.8620 
  229.7500    25.3770   396.2410    24.0830     2.4400     5.3630    15.1360   208.7210   -15.7330 
  229.8750    42.0070   382.4680    24.1480     2.4890     5.1790    31.8480   198.6540   -15.6000 
