~V
VERS. 2.00: Ver 2.00
~W
STRT.M 140.0000:
STOP.M 339.0000:
STEP.M 0.1250:
NULL. -999.2500:
UWI. жи50:
~C
DEPT.M :
RML.OHMM :
AC.US/MT :
CALI.CM :
DEN.GM/CC :
GR.API :
RI. :
RXO.OHMM :
SP.MV :
~A
# ...
  150.0000     7.7600   413.4480    24.5140     2.2710     6.2230     6.0460     9.8490   -16.8100 
  150.1250     7.6820   421.7760    24.6180     2.2760     6.0490     6.2320     8.5690   -16.7500 
  150.2500     7.4270   432.9730    24.7410     2.2700     6.0720     6.3360     7.7000   -16.6290 
  150.3750     7.2340   436.9710    24.8700     2.2750     6.0290     6.2170     7.5350   -16.5550 
  150.5000     7.1720   431.7810    24.8780     2.2970     6.1610     6.2800     7.2810   -16.3700 
  150.6250     7.1720   430.4850    24.8460     2.3090     6.1020     6.4720     7.2820   -16.1830 
  150.7500     7.4120   426.7950    24.6870     2.3140     6.0250     6.7800     7.2820   -16.0040 
  150.8750     7.7950   378.5090    24.6240     2.3240     6.2080     7.4280     7.2830   -15.7850 
  151.0000     8.5080   305.2290    24.6240     2.3590     6.0930     8.2560     7.2690   -15.5780 
  151.1250     9.3440   312.6200    24.6640     2.3330     6.1860     7.1840     6.7750   -15.5430 
  151.2500     9.8730   352.7520    24.6240     2.2970     5.9150     6.0880     6.6480   -15.6040 
  151.3750     8.9000   412.1900    24.4610     2.2490     5.8580     5.8660     6.6900   -15.6020 
  151.5000     7.6070   433.0870    24.3700     2.2230     5.9590     5.4880     6.9000   -15.5390 
  151.6250     6.7910   437.4890    24.2440     2.2260     5.9220     5.1530     7.2750   -15.1460 
  151.7500     6.7910   435.3200    24.3070     2.2330     5.8660     5.2740     7.6150   -14.7100 
  151.8750     6.7950   432.5070    24.4290     2.2340     5.8580     5.3430     7.7480   -14.2720 
  152.0000     7.0470   431.2580    24.4980     2.2340     6.1070     5.5700     7.3690   -13.5210 
  152.1250     7.0480   431.8120    24.5850     2.2340     6.3270     5.4480     7.0550   -12.8040 
  152.2500     6.9270   432.8000    24.7310     2.2380     6.5550     5.3200     6.7640   -12.2070 
  152.3750     6.5920   432.4490    24.8730     2.2440     6.7670     5.3200     6.5010   -11.1690 
  152.5000     6.5380   426.5450    24.9110     2.2550     7.2330     5.2690     6.0780   -10.3450 
  152.6250     6.1040   414.3770    24.6700     2.2670     7.4310     5.0830     5.7430    -9.7180 
  152.7500     5.5710   412.2150    24.5320     2.2780     7.6770     5.0640     5.5590    -9.1970 
  152.8750     5.2280   418.0810    24.4490     2.2880     7.7890     5.0640     5.3820    -8.6780 
  153.0000     4.9600   423.2310    24.4360     2.2980     7.8570     4.7770     5.3260    -8.4100 
  153.1250     4.7770   425.8570    24.4360     2.3000     7.9190     4.5530     5.3290    -7.9870 
  153.2500     4.6950   424.8830    24.4730     2.3040     7.7640     4.3510     5.3840    -7.7780 
  153.3750     4.6240   421.3850    24.5440     2.2950     7.7550     4.1700     5.2080    -7.6740 
  153.5000     4.6240   417.4090    24.6270     2.3030     7.9990     3.9660     4.8800    -7.7370 
  153.6250     4.7520   415.3100    24.8140     2.3120     8.2030     3.9140     5.0490    -7.7240 
  153.7500     4.8790   412.8850    25.0000     2.3140     8.3930     3.9140     5.1310    -7.9490 
  153.8750     5.0080   413.2020    25.1360     2.3120     7.8370     4.0390     5.1310    -8.1170 
  154.0000     5.3510   416.6190    25.0730     2.3170     7.3970     4.0980     5.1320    -8.0540 
  154.1250     5.2860   422.1830    24.9670     2.3290     7.3820     4.3540     5.4960    -7.8370 
  154.2500     4.8980   426.3760    24.8950     2.3460     7.5210     4.4230     5.9970    -7.5250 
  154.3750     4.7540   431.7680    24.8820     2.3610     7.6680     4.0830     5.5450    -7.2760 
  154.5000     4.5290   407.1900    24.9290     2.3620     7.7810     4.0400     5.2790    -7.0330 
  154.6250     4.9270   392.9800    25.0100     2.3560     7.9430     4.3600     5.7250    -6.9110 
  154.7500     5.2940   389.4340    25.0100     2.3670     7.9930     4.9870     6.6060    -6.9110 
  154.8750     6.4180   359.9170    24.8420     2.3760     8.0440     5.6140     8.3670    -7.0320 
  155.0000     7.1630   342.5450    24.7560     2.3390     8.0940     6.1400     9.4310    -7.0990 
  155.1250     6.3420   359.8460    24.6820     2.3330     8.1460     5.0330     6.6080    -7.2190 
  155.2500     5.5400   388.7260    24.5630     2.3100     8.2630     4.7320     5.8490    -7.3100 
  155.3750     5.3940   417.6760    24.5450     2.2980     8.0700     4.4210     4.8360    -7.3870 
  155.5000     5.3820   433.4110    24.5660     2.2950     7.8460     4.2510     4.6280    -7.5440 
  155.6250     5.3950   437.6780    24.6870     2.2990     7.6060     4.2880     4.6290    -7.4800 
  155.7500     5.3950   436.8770    24.7960     2.3030     7.7050     4.2920     4.8830    -7.1470 
  155.8750     5.2910   434.4100    24.8580     2.2990     7.7980     4.1750     4.8810    -6.6950 
  156.0000     5.0910   430.0930    24.8950     2.2990     7.8850     4.1640     4.8010    -6.2670 
  156.1250     5.0130   427.3050    24.8850     2.3060     8.0230     4.0360     4.7200    -6.0000 
  156.2500     4.8930   425.1270    24.8850     2.3110     8.1610     3.9080     4.6390    -5.9380 
  156.3750     4.7480   421.6550    24.8850     2.3120     8.1250     3.8000     4.5580    -5.8940 
  156.5000     4.6190   418.6240    24.8620     2.3120     8.0440     3.9080     4.4770    -5.8340 
  156.6250     4.5350   417.4950    24.8220     2.3090     8.1210     3.9070     4.3970    -5.9480 
  156.7500     4.5700   418.8540    24.8580     2.3090     8.2400     4.0350     4.2510    -6.0750 
  156.8750     4.5040   420.7160    24.8860     2.3090     8.3230     3.9070     4.3790    -6.2170 
  157.0000     4.5040   422.5780    24.8490     2.3090     8.3850     3.8790     4.4170    -6.2820 
  157.1250     4.5040   424.9560    24.7590     2.3060     8.3940     3.8290     4.3800    -6.3850 
  157.2500     4.5040   422.3720    24.7590     2.3000     8.5060     4.0330     4.2530    -6.4760 
  157.3750     4.7600   413.6850    24.7590     2.3030     8.5970     4.0330     4.2530    -6.5900 
  157.5000     4.7600   408.0080    24.7590     2.3100     8.5450     4.0330     4.3810    -6.7380 
  157.6250     4.9070   409.0900    24.7590     2.3120     8.3740     4.2040     4.5360    -6.9000 
  157.7500     5.1440   412.7820    24.8160     2.3130     8.2580     4.3980     4.9780    -7.1510 
  157.8750     5.2130   415.4900    24.8870     2.3140     8.2760     4.6100     5.4390    -7.3300 
  158.0000     5.2720   416.1240    24.8870     2.3200     8.3600     4.6700     5.1450    -7.5850 
  158.1250     5.1910   410.7850    25.0050     2.3330     8.3180     4.5810     5.5530    -7.8030 
  158.2500     5.7540   400.9670    25.1090     2.3550     8.0380     4.7080     6.7810    -8.0410 
  158.3750     6.7720   355.8450    25.1420     2.3820     7.8880     5.7450     9.8480    -8.3160 
  158.5000     8.6700   314.5140    25.2060     2.3610     7.6430     7.1430    12.5830    -8.6890 
  158.6250    10.0090   267.5490    25.0780     2.3230     7.8730     8.1250    15.0980    -9.0610 
  158.7500    11.0070   281.6980    24.9760     2.2970     7.3570     7.4180    17.6170    -9.2480 
  158.8750     7.6730   372.5820    24.8530     2.2770     7.3290     6.4770     8.5000    -9.3770 
  159.0000     7.1190   403.1550    24.7610     2.2670     7.3930     5.7620     6.7210    -9.3220 
  159.1250     6.7390   425.0180    24.7610     2.2720     7.4490     5.3250     7.1960    -9.2290 
  159.2500     6.5520   426.9490    24.6980     2.2800     7.5480     5.2160     7.4180    -9.1980 
  159.3750     6.2970   423.1020    24.7440     2.2880     7.4980     5.0490     6.8500    -9.2950 
  159.5000     6.1140   426.7750    24.7620     2.2870     7.6430     5.0210     5.7050    -9.4390 
  159.6250     5.9200   431.8140    24.8250     2.2860     7.4200     4.7930     5.3300    -9.4390 
  159.7500     5.7870   433.6750    24.7620     2.2860     7.3080     4.7930     5.2780    -9.3750 
  159.8750     5.6740   435.1210    24.7190     2.2890     7.2080     4.7930     5.5330    -9.3520 
