~V
VERS. 2.00: Ver 2.00
~W
STRT.M 50.0000:
STOP.M 219.0000:
STEP.M 0.1250:
NULL. -999.2500:
UWI. F10086:
~C
DEPT.M :
GR.API :
RML.OHMM :
RI. :
RXO.OHMM :
DEN.GM/CC :
SP.MV :
~A
# ...
   75.7500    53.6270    23.6910    21.2150    22.2560     2.4300    -4.6850 
   75.8750    57.0540    25.1710    22.2400    19.9110     2.4400    -4.5740 
   76.0000    59.6590    24.5040    21.5180    14.9730     2.3930    -4.4580 
   76.1250    61.8680    22.2040    19.5420    11.2450     2.3070    -4.3450 
   76.2500    59.2270    19.6170    17.2920    10.2510     2.2280    -4.2390 
   76.3750    58.7280    17.8600    15.6130     9.8140     2.1980    -4.1500 
   76.5000    55.8110    16.7650    14.5490     9.8290     2.1950    -4.0790 
   76.6250    54.4440    16.2140    13.9890     9.9260     2.1960    -4.0250 
   76.7500    54.6480    16.0190    13.7670     9.8460     2.1970    -3.9890 
   76.8750    56.9150    15.9580    13.6950     9.6680     2.1960    -3.9700 
   77.0000    65.8250    15.8240    13.5970     9.9950     2.1930    -3.9660 
   77.1250    67.3210    15.5230    13.4240     9.7110     2.1890    -3.9790 
   77.2500    67.6070    15.1850    13.2250     9.3270     2.1850    -4.0030 
   77.3750    61.8400    15.0930    13.2180     9.0590     2.1820    -4.0370 
   77.5000    55.3560    15.3770    13.4840     9.0920     2.1840    -4.0760 
   77.6250    53.6470    15.9220    13.9120     9.5270     2.1860    -4.1190 
   77.7500    53.7180    16.2830    14.1530    10.3200     2.1830    -4.1610 
   77.8750    61.6950    14.6610    13.0420    11.3160     2.1810    -4.1970 
   78.0000    70.2100    11.9180    10.9520    10.4770     2.1940    -4.2230 
   78.1250    75.4120     9.2910     8.7370     7.7000     2.2220    -4.2380 
   78.2500    75.7520     7.3230     6.9280     5.1300     2.2530    -4.2420 
   78.3750    72.1580     6.1420     5.7800     4.4930     2.2760    -4.2350 
   78.5000    68.2200     5.6870     5.3060     4.7560     2.2740    -4.2200 
   78.6250    69.8820     5.8270     5.4320     4.9140     2.2590    -4.2000 
   78.7500    71.4100     6.2560     5.7790     4.7590     2.2480    -4.1820 
   78.8750    71.0830     6.5790     6.0650     4.8890     2.2430    -4.1690 
   79.0000    70.1310     6.5570     6.0970     5.0820     2.2420    -4.1640 
   79.1250    69.2690     6.1480     5.8230     4.9580     2.2420    -4.1690 
   79.2500    65.8070     5.5450     5.3660     4.5480     2.2470    -4.1850 
   79.3750    65.3090     5.1120     4.9920     3.9970     2.2510    -4.2130 
   79.5000    66.4240     4.9190     4.8060     4.0050     2.2610    -4.2510 
   79.6250    66.6030     5.0210     4.8810     4.4460     2.2700    -4.2970 
   79.7500    65.3940     5.4130     5.2140     5.0320     2.2810    -4.3510 
   79.8750    62.3550     6.0520     5.7420     5.5210     2.2940    -4.4120 
   80.0000    55.4430     6.8760     6.3670     5.9210     2.2990    -4.4790 
   80.1250    55.6090     7.6610     6.9530     6.7340     2.2800    -4.5530 
   80.2500    55.2370     8.5490     7.7210     7.5830     2.2520    -4.6310 
   80.3750    57.8800     9.7170     8.8030     7.7570     2.2340    -4.7080 
   80.5000    60.8310    11.4560    10.3790     9.8800     2.2470    -4.7820 
   80.6250    60.6320    14.0490    12.6410    16.6960     2.3020    -4.8510 
   80.7500    57.8140    17.6740    15.7630    28.1970     2.3980    -4.9080 
   80.8750    55.6530    23.0090    20.1370    35.9480     2.5160    -4.9500 
   81.0000    53.6270    29.0110    24.9930    45.7910     2.6120    -4.9770 
   81.1250    55.4850    33.2630    28.4050    74.9390     2.6720    -4.9900 
   81.2500    56.6030    34.5710    29.3900    92.2310     2.6970    -4.9900 
   81.3750    54.0560    32.9320    27.9410    72.8240     2.6920    -4.9810 
   81.5000    55.0380    29.5380    25.0810    44.8600     2.6720    -4.9660 
   81.6250    54.5390    25.7210    21.8630    33.1850     2.6290    -4.9470 
   81.7500    57.2720    22.1050    18.8720    23.6070     2.5640    -4.9300 
   81.8750    61.0660    18.3490    15.8530    17.1670     2.4780    -4.9160 
   82.0000    64.3050    14.8240    12.9840    12.9330     2.3850    -4.9080 
   82.1250    66.1860    11.9480    10.5360     9.5030     2.3060    -4.9060 
   82.2500    67.0030     9.6350     8.5780     6.3410     2.2600    -4.9100 
   82.3750    66.5050     7.9930     7.2680     5.5040     2.2590    -4.9230 
   82.5000    65.8720     7.0160     6.4130     5.2290     2.2770    -4.9410 
   82.6250    68.0470     6.5360     5.9820     5.0280     2.2970    -4.9640 
   82.7500    70.1940     6.4140     5.8790     5.0140     2.3090    -4.9900 
   82.8750    70.2200     6.4710     5.9540     5.3110     2.3080    -5.0160 
   83.0000    72.1690     6.4580     6.0180     5.5630     2.2970    -5.0400 
   83.1250    69.8420     6.2570     5.9550     4.9030     2.2940    -5.0550 
   83.2500    72.2310     6.0860     5.9100     4.5250     2.2970    -5.0590 
   83.3750    70.5450     6.0900     6.0180     4.7900     2.2990    -5.0500 
   83.5000    64.1260     6.4530     6.4870     5.4360     2.2890    -5.0270 
   83.6250    55.8600     7.3260     7.4500     6.1120     2.2620    -4.9890 
   83.7500    48.4350     8.7620     8.8300     6.8550     2.2270    -4.9370 
   83.8750    45.9420    10.9500    10.6900     9.9430     2.1980    -4.8730 
   84.0000    50.7260    13.2700    12.6060    10.1910     2.1860    -4.8050 
   84.1250    53.5520    15.7660    14.5870     9.7180     2.1930    -4.7370 
   84.2500    57.1930    17.3190    15.7840    10.1420     2.2240    -4.6740 
   84.3750    63.6180    16.6890    15.2580    13.4080     2.2770    -4.6200 
   84.5000    63.7040    13.4300    12.6910    22.1620     2.3380    -4.5780 
   84.6250    71.5160    10.4130     9.9460    18.6020     2.3760    -4.5540 
   84.7500    72.8570     8.3220     7.9010     9.3140     2.3720    -4.5460 
   84.8750    74.3160     7.0750     6.5770     5.5070     2.3370    -4.5550 
   85.0000    74.8270     6.4830     5.8600     5.7800     2.2980    -4.5790 
   85.1250    72.4650     6.2980     5.5560     5.6350     2.2770    -4.6180 
   85.2500    70.0060     6.2760     5.4470     5.2970     2.2710    -4.6710 
   85.3750    70.5040     6.2250     5.4170     4.9070     2.2690    -4.7360 
   85.5000    71.4070     5.9610     5.2510     4.4280     2.2600    -4.8080 
   85.6250    74.5380     5.8830     5.2400     4.5380     2.2550    -4.8820 
   85.7500    77.5900     6.0730     5.4450     4.7940     2.2640    -4.9530 
   85.8750    77.8140     6.4460     5.7890     4.9920     2.2920    -5.0160 
   86.0000    75.1560     6.8750     6.1400     6.2550     2.3340    -5.0670 
   86.1250    72.6630     7.3820     6.6360     7.5260     2.3690    -5.0980 
   86.2500    68.1470     7.7000     6.9510     6.5040     2.3900    -5.1090 
   86.3750    66.0080     7.8740     7.0810     7.5150     2.3980    -5.1020 
   86.5000    64.9910     7.8070     6.9570     9.4890     2.4010    -5.0800 
   86.6250    65.1080     7.4360     6.5710     9.4210     2.4030    -5.0470 
   86.7500    73.0380     6.8670     6.0870     5.3370     2.3930    -5.0070 
   86.8750    77.0270     6.5160     5.8140     4.7280     2.3660    -4.9670 
   87.0000    83.4440     6.3110     5.6610     4.8030     2.3280    -4.9350 
   87.1250    81.4760     6.3640     5.7210     5.0620     2.2980    -4.9130 
   87.2500    77.5280     6.6990     5.9990     5.2800     2.2830    -4.9030 
   87.3750    79.2100     7.1990     6.4000     5.4330     2.2790    -4.9070 
   87.5000    82.2570     7.5770     6.7280     5.6580     2.2860    -4.9250 
   87.6250    89.9020     7.6460     6.8360     5.7610     2.2860    -4.9570 
   87.7500    91.3390     7.5470     6.8040     5.4620     2.2920    -4.9980 
   87.8750    89.2030     7.4770     6.7860     5.4320     2.3020    -5.0470 
   88.0000    84.9590     7.5360     6.8610     5.6030     2.3100    -5.1000 
   88.1250    79.8520     7.7360     7.0340     5.9450     2.3080    -5.1560 
   88.2500    75.5410     8.0100     7.2380     7.0680     2.2860    -5.2100 
   88.3750    72.0510     8.3980     7.5560     7.3800     2.2480    -5.2580 
   88.5000    72.8810     8.8190     7.9110     6.7960     2.2150    -5.2970 
