~V
VERS. 2.00: Ver 2.00
~W
STRT.M 50.0000:
STOP.M 254.0000:
STEP.M 0.1250:
NULL. -999.2500:
UWI. F10088:
~C
DEPT.M :
GR.API :
RML.OHMM :
RI. :
RXO.OHMM :
DEN.GM/CC :
SP.MV :
~A
# ...
  217.3750    62.8190    17.9530    14.3840    18.5400     2.3090    -2.3660 
  217.5000    60.6760    18.0920    14.1790    25.3730     2.2920    -2.1670 
  217.6250    60.8300    16.6990    13.0070    29.6580     2.2770    -1.9710 
  217.7500    61.5050    13.9620    11.0090    27.6560     2.2730    -1.7830 
  217.8750    61.6780    10.7480     8.6880    19.1160     2.2860    -1.6050 
  218.0000    64.2010     8.3510     6.7820     8.5480     2.3130    -1.4400 
  218.1250    65.8100     7.1680     5.6520     8.0570     2.3410    -1.2970 
  218.2500    69.6180     6.7770     5.2150     8.5890     2.3620    -1.1780 
  218.3750    71.6450     6.8770     5.1830     9.0180     2.3750    -1.0840 
  218.5000    73.1510     7.1830     5.3340     9.0370     2.3800    -1.0170 
  218.6250    75.2410     7.4560     5.5020     8.7870     2.3790    -0.9770 
  218.7500    77.0290     7.5700     5.5990     8.6670     2.3730    -0.9630 
  218.8750    81.9370     7.5970     5.6290     8.3560     2.3630    -0.9760 
  219.0000    82.9280     7.5830     5.6190     8.6600     2.3550    -1.0090 
  219.1250    83.2500     7.5390     5.5890     8.8960     2.3500    -1.0540 
  219.2500    81.7450     7.4970     5.5680     8.7040     2.3450    -1.1060 
  219.3750    79.4750     7.5230     5.5990     8.3010     2.3410    -1.1600 
  219.5000    81.2140     7.7120     5.7330     8.4990     2.3390    -1.2110 
  219.6250    79.6050     8.0870     5.9540     9.5030     2.3420    -1.2540 
  219.7500    81.1580     8.5670     6.1970    11.3730     2.3470    -1.2870 
  219.8750    81.4600     8.9170     6.3460    12.2450     2.3540    -1.3070 
  220.0000    81.6940     9.0170     6.3540    11.5340     2.3600    -1.3160 
  220.1250    82.6540     8.8650     6.2280    10.0270     2.3650    -1.3150 
  220.2500    82.5220     8.5820     6.0210     9.6620     2.3650    -1.3050 
  220.3750    80.1080     8.3160     5.8200     9.8120     2.3710    -1.2880 
  220.5000    75.3560     8.1920     5.7050    10.2290     2.3850    -1.2680 
  220.6250    71.8920     8.1140     5.6320    10.0940     2.4030    -1.2480 
  220.7500    71.7310     8.0460     5.5850     9.7800     2.4190    -1.2300 
  220.8750    74.5900     7.9820     5.5590     9.5900     2.4250    -1.2160 
  221.0000    77.9320     7.9330     5.5500     9.2880     2.4160    -1.2100 
  221.1250    83.4040     7.8410     5.5170     8.8910     2.4080    -1.2130 
  221.2500    86.1240     7.7220     5.4620     8.7710     2.4050    -1.2290 
  221.3750    86.9550     7.5160     5.3580     8.6470     2.4010    -1.2580 
  221.5000    85.6810     7.2500     5.2290     8.2100     2.3940    -1.3040 
  221.6250    82.2100     6.9670     5.1010     7.5480     2.3850    -1.3680 
  221.7500    77.6570     6.7020     4.9860     7.2550     2.3740    -1.4510 
  221.8750    83.3700     6.5750     4.9530     7.2220     2.3650    -1.5610 
  222.0000    81.9970     6.5600     4.9960     7.2860     2.3580    -1.6950 
  222.1250    82.3740     6.6380     5.1090     7.5160     2.3570    -1.8530 
  222.2500    79.7640     6.7390     5.2540     7.7950     2.3660    -2.0340 
  222.3750    75.1250     6.8120     5.4010     8.0290     2.3820    -2.2390 
  222.5000    80.2670     6.8580     5.5470     8.2250     2.3950    -2.4660 
  222.6250    82.5200     6.9660     5.7550     8.2490     2.3960    -2.7170 
  222.7500    86.4250     7.3000     6.1370     8.4070     2.3880    -2.9890 
  222.8750    86.2860     7.8290     6.6310     8.9740     2.3820    -3.2770 
  223.0000    85.9970     8.4210     7.1320     9.9730     2.3770    -3.5800 
  223.1250    87.3460     8.8890     7.5290    11.0900     2.3720    -3.8930 
  223.2500    86.1160     9.0460     7.7440    11.6590     2.3680    -4.2130 
  223.3750    85.8750     9.0180     7.8780    10.5860     2.3570    -4.5350 
  223.5000    82.2600     9.4090     8.4190    10.3140     2.3030    -4.8520 
  223.6250    78.4980    10.5700     9.7730    10.6330     2.2590    -5.1560 
  223.7500    74.0410    13.0780    12.3580    16.5850     2.2310    -5.4430 
  223.8750    68.1800    17.6990    16.6270    29.7520     2.2140    -5.7050 
  224.0000    61.5640    25.2600    23.0620    46.6130     2.2020    -5.9370 
  224.1250    57.3800    36.1630    32.4850    88.1150     2.1810    -6.1260 
  224.2500    55.1230    47.1910    42.5550   188.1390     2.1580    -6.2700 
  224.3750    52.1370    56.9240    51.6310   172.6860     2.1460    -6.3690 
  224.5000    49.6230    66.5010    60.5320   105.9210     2.1500    -6.4240 
  224.6250    48.7470    77.1810    70.3200    73.8260     2.1660    -6.4360 
  224.7500    49.1230    89.0690    81.1850    94.5800     2.1820    -6.4070 
  224.8750    50.4110    98.5050    90.1950   154.3180     2.1870    -6.3370 
  225.0000    50.8720   104.0330    95.8390   178.6510     2.1880    -6.2370 
  225.1250    50.7710   108.0780   100.1220   184.6530     2.1900    -6.1180 
  225.2500    51.3300   111.6670   103.9430   186.3430     2.1920    -5.9840 
  225.3750    51.9500   115.2650   107.7900   190.3760     2.1910    -5.8410 
  225.5000    49.6750   118.8940   111.8320   193.4040     2.1870    -5.6930 
  225.6250    47.0190   121.3050   115.1200   191.7640     2.1930    -5.5440 
  225.7500    44.4330   121.6520   116.8810   204.9560     2.2010    -5.3960 
  225.8750    45.6600   118.8940   115.8140   179.4430     2.2090    -5.2490 
  226.0000    47.3000   113.6030   112.2190   153.8500     2.2130    -5.1050 
  226.1250    47.1200   106.9800   107.0770   162.1520     2.2100    -4.9610 
  226.2500    46.9800   100.2920   101.5480   196.3210     2.2000    -4.8200 
  226.3750    44.4850    94.1670    96.3260   261.5260     2.1910    -4.6800 
  226.5000    42.7490    89.2480    92.1420   200.6230     2.1880    -4.5440 
  226.6250    41.3510    85.6320    89.1190   145.0590     2.1880    -4.4110 
  226.7500    42.6710    83.6220    87.6370   121.2100     2.1870    -4.2820 
  226.8750    46.8700    83.2680    87.8690   118.9350     2.1850    -4.1570 
  227.0000    50.4290    84.2250    89.5960   117.6270     2.1830    -4.0360 
  227.1250    54.2910    86.1930    92.4260   117.1970     2.1880    -3.9200 
  227.2500    55.1210    89.0330    96.2060   120.0310     2.1940    -3.8070 
  227.3750    53.5400    91.3670    99.3990   118.5340     2.1960    -3.6960 
  227.5000    51.3690    92.3820   101.0410   110.1350     2.1900    -3.5880 
  227.6250    49.4520    91.7900   100.8060    98.9840     2.1790    -3.4800 
  227.7500    47.1520    89.8480    99.0720    95.1870     2.1750    -3.3730 
  227.8750    49.4050    86.8880    96.2130    97.0480     2.1830    -3.2680 
  228.0000    48.1410    84.3330    93.6920    99.9360     2.1960    -3.0750 
  228.1250    46.4490    82.5870    92.0000   104.3670     2.2110    -2.9370 
  228.2500    44.3980    82.0920    91.6400   109.8250     2.2260    -2.8370 
  228.3750    42.4850    82.8460    92.6160   115.9810     2.2370    -2.7380 
  228.5000    42.6330    84.2260    94.2480   122.8130     2.2410    -2.6410 
  228.6250    45.2070    85.2890    95.5950   125.1000     2.2300    -2.5460 
  228.7500    48.6790    86.4700    96.9660   122.0240     2.2180    -2.4530 
  228.8750    49.7090    87.2850    97.8300   110.3120     2.2180    -2.3620 
  229.0000    49.3870    87.6820    98.2000   111.3600     2.2280    -2.2730 
  229.1250    48.3820    88.0360    98.5820   153.7820     2.2420    -2.1860 
  229.2500    45.6310    89.1030    99.8710   247.5100     2.2480    -2.1000 
  229.3750    46.5960    91.6400   102.6840   167.4450     2.2460    -2.0150 
  229.5000    42.8700    95.5880   106.8820   112.6740     2.2460    -1.9290 
  229.6250    42.8080    99.8770   111.3940   127.6270     2.2500    -1.8420 
  229.7500    44.0300   104.2690   115.9190   175.0620     2.2550    -1.7510 
  229.8750    44.7760   108.2780   119.8590   217.4480     2.2560    -1.6550 
  230.0000    47.3950   110.9780   122.1530   244.7920     2.2490    -1.5550 
  230.1250    45.4640   113.0030   123.2390   171.5270     2.2340    -1.4460 
