~V
VERS. 2.00: Ver 2.00
~W
STRT.M 50.0000:
STOP.M 254.0000:
STEP.M 0.1250:
NULL. -999.2500:
UWI. F10088:
~C
DEPT.M :
GR.API :
RML.OHMM :
RI. :
RXO.OHMM :
DEN.GM/CC :
SP.MV :
~A
# ...
  204.5000    58.1590     7.3620     6.3110     9.2220     2.4380     1.7070 
  204.6250    60.7340     7.8150     6.6800     9.5610     2.4530     1.6660 
  204.7500    62.4880     8.1850     6.9540    10.5040     2.4710     1.6300 
  204.8750    64.8820     8.3580     7.0710    11.8000     2.4750     1.5990 
  205.0000    64.2250     8.2680     7.0000    12.1860     2.4600     1.5710 
  205.1250    60.2200     7.9390     6.7630    11.0950     2.4290     1.5450 
  205.2500    58.8210     7.5210     6.4610     9.5120     2.3960     1.5200 
  205.3750    55.2800     7.3320     6.2990    10.0180     2.3880     1.4930 
  205.5000    56.7310     7.3720     6.3410    10.2510     2.4090     1.4620 
  205.6250    57.1300     7.6580     6.5530    10.9040     2.4440     1.4260 
  205.7500    56.8850     8.0260     6.8050    12.0270     2.4800     1.3840 
  205.8750    57.3070     8.2800     6.9590    12.8620     2.5050     1.3350 
  206.0000    58.2080     8.2820     6.9220    12.0300     2.5080     1.2790 
  206.1250    57.8860     7.9320     6.6470    11.0890     2.4900     1.2130 
  206.2500    59.2740     7.4820     6.3060     9.7160     2.4700     1.1370 
  206.3750    59.2380     7.1380     6.0580     9.0450     2.4530     1.0530 
  206.5000    58.4170     7.0480     6.0280     8.9620     2.4440     0.9620 
  206.6250    57.3310     7.3090     6.2940     9.2760     2.4430     0.8630 
  206.7500    54.9570     7.9460     6.8610    10.2160     2.4480     0.7580 
  206.8750    53.3480     8.8900     7.6020    12.1110     2.4540     0.6480 
  207.0000    53.1070     9.7280     8.2210    14.2510     2.4550     0.5370 
  207.1250    55.3040    10.0980     8.4930    14.5120     2.4480     0.4270 
  207.2500    58.6120     9.9210     8.3700    13.1300     2.4340     0.3180 
  207.3750    61.1050     9.2900     7.9100    11.4450     2.4190     0.2110 
  207.5000    61.5240     8.4340     7.2580    11.1130     2.4090     0.1080 
  207.6250    63.7770     7.8510     6.7710    11.5000     2.4110     0.0080 
  207.7500    65.7570     7.6320     6.6110    10.8070     2.4220    -0.0890 
  207.8750    66.1700     7.9270     6.9190    10.3660     2.4360    -0.1850 
  208.0000    64.4990     8.8510     7.7510    11.6010     2.4410    -0.2800 
  208.1250    62.0060    10.4000     8.9880    15.1470     2.4320    -0.3760 
  208.2500    61.8670    12.3460    10.2850    20.5390     2.4100    -0.4740 
  208.3750    65.1670    13.3430    10.8340    29.4420     2.3960    -0.5760 
  208.5000    62.1000    11.9360     9.9060    23.7450     2.4030    -0.6830 
  208.6250    60.6380     9.5650     8.2710    13.3560     2.4170    -0.7960 
  208.7500    57.8820     7.4470     6.6340     6.8510     2.4280    -0.9160 
  208.8750    53.5620     6.2080     5.4670     6.6020     2.4300    -1.0430 
  209.0000    54.3590     5.6420     4.8690     6.7340     2.4270    -1.1770 
  209.1250    50.4960     5.6660     4.8480     6.5330     2.4230    -1.3200 
  209.2500    51.8380     5.8870     5.0230     6.9470     2.4220    -1.4690 
  209.3750    53.8290     6.1420     5.2650     7.4180     2.4320    -1.6210 
  209.5000    55.8610     6.4560     5.5760     7.8070     2.4580    -1.7750 
  209.6250    57.8720     6.8420     5.9360     8.1990     2.4920    -1.9290 
  209.7500    59.1350     7.2210     6.2480     8.8800     2.5170    -2.0830 
  209.8750    59.9390     7.5630     6.4990    10.9550     2.5160    -2.2340 
  210.0000    61.1550     7.5870     6.5190    10.7330     2.4980    -2.3840 
  210.1250    62.0230     7.4270     6.4350     9.6380     2.4740    -2.5310 
  210.2500    62.7390     7.2280     6.3260     8.8330     2.4570    -2.6780 
  210.3750    62.2100     7.1300     6.2820     8.8730     2.4550    -2.8250 
  210.5000    57.7530     7.2490     6.4020     9.5690     2.4680    -2.9720 
  210.6250    54.2120     7.7210     6.7860    12.2240     2.4770    -3.1210 
  210.7500    52.0420     8.2700     7.2140    13.4320     2.4690    -3.2740 
  210.8750    52.9410     8.6460     7.5070    13.5710     2.4560    -3.4300 
  211.0000    55.2830     8.7560     7.6080    13.0050     2.4520    -3.5920 
  211.1250    58.1840     8.6120     7.5280    11.9960     2.4650    -3.7600 
  211.2500    62.9370     8.3190     7.3240    10.7170     2.4870    -3.9340 
  211.3750    66.3170     8.1560     7.2150    10.7710     2.5040    -4.1120 
  211.5000    67.3660     8.2390     7.3020    11.7070     2.5240    -4.2930 
  211.6250    64.0250     8.6180     7.6470    13.8600     2.5360    -4.4720 
  211.7500    59.7160     9.3320     8.2730    16.3710     2.5310    -4.6440 
  211.8750    57.6300    10.3840     9.1880    18.8250     2.5060    -4.8060 
  212.0000    57.8390    11.7530    10.3920    21.8210     2.4580    -4.9520 
  212.1250    55.9880    13.4610    11.8710    24.0400     2.4030    -5.0710 
  212.2500    56.2620    15.4120    13.5340    25.7030     2.3640    -5.1610 
  212.3750    55.6470    17.3130    15.1950    30.2220     2.3360    -5.2200 
  212.5000    56.0690    19.0360    16.7710    34.4840     2.3170    -5.2470 
  212.6250    57.0420    20.7930    18.4310    34.9930     2.3100    -5.2410 
  212.7500    53.6820    22.9710    20.4490    31.3690     2.3190    -5.2020 
  212.8750    53.6010    22.6080    20.0400    35.1250     2.3520    -5.1290 
  213.0000    56.3320    20.6390    18.4470    42.2230     2.3900    -5.0310 
  213.1250    58.7110    18.0230    16.2740    36.2190     2.4140    -4.9140 
  213.2500    61.1160    15.5150    14.1310    24.1660     2.4170    -4.7830 
  213.3750    64.1540    13.6420    12.4820    15.8480     2.4020    -4.6450 
  213.5000    67.2550    12.6200    11.5280    14.4330     2.3830    -4.5040 
  213.6250    68.2200    12.6840    11.5300    18.8150     2.3800    -4.3690 
  213.7500    67.5400    13.2770    11.9980    20.5250     2.3710    -4.2460 
  213.8750    64.8940    14.1400    12.7540    23.0640     2.3520    -4.1370 
  214.0000    61.4270    15.0340    13.6770    23.2700     2.3350    -4.0440 
  214.1250    58.6560    15.9300    14.7210    21.1180     2.3270    -3.9680 
  214.2500    57.6910    17.1060    15.9510    23.1860     2.3280    -3.9100 
  214.3750    56.7250    19.0320    17.6070    32.1560     2.3270    -3.8720 
  214.5000    58.0920    20.1410    18.4490    34.1700     2.3150    -3.8500 
  214.6250    59.7580    19.5670    18.0070    34.4140     2.3090    -3.8400 
  214.7500    62.8240    17.5860    16.4190    31.8050     2.3210    -3.8400 
  214.8750    67.0830    15.0490    14.2520    25.2650     2.3560    -3.8490 
  215.0000    69.4710    13.0390    12.3630    16.7320     2.4100    -3.8640 
  215.1250    68.5050    12.5070    11.8610    17.4540     2.4510    -3.8850 
  215.2500    66.4410    13.3610    12.8410    19.5250     2.4450    -3.9090 
  215.3750    64.2410    15.8490    15.1700    23.6100     2.4130    -3.9330 
  215.5000    61.7400    20.2280    18.7610    35.2210     2.3800    -3.9550 
  215.6250    58.5180    25.5970    22.8740    55.4480     2.3630    -3.9710 
  215.7500    54.4310    29.3710    25.7930    75.7300     2.3580    -3.9790 
  215.8750    52.0980    25.5360    23.3020    61.6580     2.3470    -3.9710 
  216.0000    52.5790    19.7730    18.7480    39.9850     2.3250    -3.9430 
  216.1250    55.6470    15.4150    14.7070    22.8970     2.3140    -3.8940 
  216.2500    59.3200    12.8620    11.9900    14.2130     2.3210    -3.8220 
  216.3750    62.3370    11.7470    10.6880    13.5510     2.3400    -3.7270 
  216.5000    64.9600    11.7950    10.5410    17.6670     2.3570    -3.6100 
  216.6250    62.7070    12.8600    11.2850    19.8660     2.3520    -3.4690 
  216.7500    60.5910    14.4510    12.3120    19.7850     2.3330    -3.3100 
  216.8750    57.9730    15.7810    13.1650    19.4700     2.3130    -3.1370 
  217.0000    57.8490    16.4260    13.5800    17.5370     2.3030    -2.9540 
  217.1250    60.2930    16.5590    13.6600    14.4720     2.3060    -2.7620 
  217.2500    60.5660    16.9820    13.9060    14.3650     2.3150    -2.5660 
