~V
VERS. 2.00: Ver 2.00
~W
STRT.M 50.0000:
STOP.M 219.0000:
STEP.M 0.1250:
NULL. -999.2500:
UWI. F10086:
~C
DEPT.M :
GR.API :
RML.OHMM :
RI. :
RXO.OHMM :
DEN.GM/CC :
SP.MV :
~A
# ...
  153.0000    44.8040    18.8950    18.4180    15.7530     2.5490    -4.5810 
  153.1250    48.4770    18.6540    18.2030    17.4140     2.5350    -4.6300 
  153.2500    49.9520    18.3980    17.9280    18.5500     2.5130    -4.6720 
  153.3750    48.0140    18.1660    17.6600    17.5840     2.4990    -4.7020 
  153.5000    43.5100    18.1650    17.6120    15.6380     2.5030    -4.7210 
  153.6250    38.5240    18.1070    17.4990    15.1500     2.5130    -4.7240 
  153.7500    36.0310    18.2030    17.5090    17.1320     2.5150    -4.7160 
  153.8750    34.9830    18.6870    17.8900    18.3420     2.5180    -4.7000 
  154.0000    34.7010    19.5100    18.6110    18.0390     2.5230    -4.6800 
  154.1250    35.2820    20.5450    19.5400    17.4740     2.5320    -4.6610 
  154.2500    37.7090    21.6980    20.5550    19.4520     2.5440    -4.6460 
  154.3750    38.2080    22.7090    21.4470    22.8090     2.5410    -4.6420 
  154.5000    37.4600    23.3570    21.9990    24.8590     2.5330    -4.6500 
  154.6250    35.5150    23.5230    22.1120    24.9190     2.5200    -4.6690 
  154.7500    33.8860    23.0470    21.6530    23.2330     2.5100    -4.7010 
  154.8750    33.8150    21.9380    20.6300    20.5690     2.5090    -4.7430 
  155.0000    35.1330    20.5060    19.3020    17.9290     2.5200    -4.7950 
  155.1250    36.1300    19.4780    18.3510    16.6740     2.5370    -4.8560 
  155.2500    37.1280    18.9880    17.9020    16.6390     2.5360    -4.9220 
  155.3750    39.4940    19.1270    18.0010    18.4750     2.5190    -4.9910 
  155.5000    41.3540    19.7510    18.5390    21.2170     2.4900    -5.0610 
  155.6250    41.5980    20.6570    19.3520    22.9750     2.4580    -5.1300 
  155.7500    41.9620    21.6830    20.2900    21.6210     2.4440    -5.1960 
  155.8750    38.4720    22.4400    20.9610    19.1710     2.4560    -5.2520 
  156.0000    36.9220    22.6420    21.1310    20.0960     2.4680    -5.2960 
  156.1250    35.8640    22.4370    20.9160    20.3910     2.4770    -5.3270 
  156.2500    35.0110    21.7780    20.3140    19.1890     2.4830    -5.3430 
  156.3750    34.6180    20.6370    19.3280    17.2010     2.4900    -5.3440 
  156.5000    35.0830    19.1400    18.0380    15.8010     2.5080    -5.3320 
  156.6250    34.5840    17.9980    16.9710    13.8850     2.5220    -5.3070 
  156.7500    36.3040    17.4460    16.4630    13.4560     2.5290    -5.2790 
  156.8750    38.0430    17.6210    16.6050    15.2250     2.5340    -5.2530 
  157.0000    39.3940    18.3930    17.2700    17.2970     2.5380    -5.2320 
  157.1250    40.6350    19.5570    18.2730    17.8550     2.5440    -5.2210 
  157.2500    42.1310    20.9530    19.4620    16.9040     2.5480    -5.2230 
  157.3750    43.6270    22.0260    20.4340    17.5650     2.5430    -5.2430 
  157.5000    42.4880    22.6110    20.9900    19.0820     2.5280    -5.2790 
  157.6250    39.9820    22.6830    21.0900    20.5080     2.5120    -5.3290 
  157.7500    38.0020    22.5210    20.9750    21.1250     2.4960    -5.3910 
  157.8750    38.0770    22.3870    20.8720    20.5030     2.4770    -5.4640 
  158.0000    40.3980    22.3360    20.8170    18.7280     2.4550    -5.5460 
  158.1250    37.9050    22.6960    21.0400    19.7370     2.4300    -5.6330 
  158.2500    36.3830    23.2210    21.3180    20.3470     2.4160    -5.7200 
  158.3750    34.3150    23.5670    21.4720    19.4280     2.4230    -5.8030 
  158.5000    35.1460    23.5320    21.3940    18.3410     2.4470    -5.8770 
  158.6250    39.3220    23.0550    21.0460    18.4300     2.4780    -5.9390 
  158.7500    40.3200    22.2270    20.4680    19.5100     2.4990    -5.9840 
  158.8750    41.3170    21.4500    19.9070    20.0410     2.5070    -6.0050 
  159.0000    42.1750    20.9430    19.5570    18.5460     2.5160    -6.0030 
  159.1250    39.6300    20.4420    19.1950    17.3550     2.5290    -5.9800 
  159.2500    36.2270    19.7850    18.6810    16.5280     2.5400    -5.9410 
  159.3750    34.2320    18.8940    17.9460    15.6470     2.5450    -5.8890 
  159.5000    32.3780    17.7850    17.0180    14.7700     2.5420    -5.8300 
  159.6250    34.3720    16.6810    16.0900    13.8900     2.5280    -5.7730 
  159.7500    35.9500    15.9520    15.4700    13.1270     2.5090    -5.7270 
  159.8750    35.5460    15.5480    15.1220    12.8670     2.4950    -5.6970 
  160.0000    35.1350    15.5270    15.0980    13.4570     2.4930    -5.6890 
  160.1250    36.2490    15.8670    15.3830    14.7370     2.5010    -5.7040 
  160.2500    37.7100    16.3740    15.8180    15.8370     2.5150    -5.7480 
  160.3750    38.2080    16.8680    16.2620    16.6810     2.5280    -5.8270 
  160.5000    40.0950    17.4090    16.8090    17.0490     2.5190    -5.9380 
  160.6250    42.1500    18.1710    17.5930    16.4990     2.4830    -6.0780 
  160.7500    44.7960    19.3620    18.7340    18.9300     2.4230    -6.2470 
  160.8750    47.5430    21.0630    20.2510    25.4910     2.3550    -6.4410 
  161.0000    47.9690    23.1360    22.0230    30.5840     2.3020    -6.6580 
  161.1250    50.9610    25.5920    24.1450    26.5010     2.2710    -6.8950 
  161.2500    52.5640    27.3860    25.7280    24.8220     2.2440    -7.1430 
  161.3750    52.7320    28.4620    26.7210    25.2750     2.2130    -7.3930 
  161.5000    51.1470    29.0230    27.2570    25.7800     2.1890    -7.6400 
  161.6250    49.2520    29.6220    27.7910    26.0420     2.1810    -7.8790 
  161.7500    50.9620    31.1110    29.0750    29.3010     2.1900    -8.1060 
  161.8750    53.9530    33.0520    30.7710    33.0290     2.1950    -8.3160 
  162.0000    55.5560    34.1560    31.6750    35.7400     2.1960    -8.5080 
  162.1250    54.1380    33.7120    31.2630    34.6230     2.1950    -8.6860 
  162.2500    52.4500    31.7280    29.5780    30.0080     2.1950    -8.8500 
  162.3750    53.0780    28.6860    27.0140    24.2840     2.1960    -9.0020 
  162.5000    55.6530    25.3990    24.1790    20.9760     2.1910    -9.1430 
  162.6250    55.9850    23.1770    22.1140    19.0360     2.1850    -9.2720 
  162.7500    55.2060    22.0510    21.0620    19.6340     2.1740    -9.3930 
  162.8750    54.8430    22.1310    21.1630    20.4790     2.1640    -9.5060 
  163.0000    55.5680    23.1800    22.1610    21.7720     2.1560    -9.6130 
  163.1250    56.1310    24.8610    23.7100    23.9650     2.1510    -9.7140 
  163.2500    53.1760    26.8790    25.5560    26.5190     2.1530    -9.8110 
  163.3750    51.1810    28.3310    26.9480    26.7560     2.1610    -9.9050 
  163.5000    50.8550    28.8640    27.5420    26.0970     2.1670    -9.9960 
  163.6250    54.0270    28.6870    27.4720    25.5250     2.1720   -10.0870 
  163.7500    56.1850    28.0250    26.9150    24.6370     2.1760   -10.1770 
  163.8750    53.9820    27.1760    26.1430    23.3430     2.1830   -10.2630 
  164.0000    49.6280    26.5010    25.4920    22.7190     2.1900   -10.3450 
  164.1250    48.7970    26.1450    25.1200    23.4690     2.1940   -10.4170 
  164.2500    48.6610    26.0310    24.9670    22.4420     2.1910   -10.4780 
  164.3750    48.5550    26.0770    24.9900    21.8150     2.1880   -10.5270 
  164.5000    47.9540    26.1950    25.1010    21.9920     2.1850   -10.5630 
  164.6250    47.4980    26.3040    25.2170    22.4480     2.1810   -10.5890 
  164.7500    49.4300    26.3600    25.3000    22.2350     2.1730   -10.6060 
  164.8750    54.0840    26.3940    25.3370    22.1110     2.1660   -10.6190 
  165.0000    56.5120    26.3370    25.2840    21.9110     2.1700   -10.6330 
  165.1250    57.6600    26.2270    25.1670    21.9720     2.1840   -10.6530 
  165.2500    58.2520    26.1000    24.9990    22.3820     2.2010   -10.6810 
  165.3750    58.2780    25.9930    24.8090    22.8570     2.2140   -10.7180 
  165.5000    56.8190    25.9430    24.6550    22.7220     2.2130   -10.7670 
  165.6250    56.3210    25.9830    24.5530    21.9990     2.2040   -10.8290 
  165.7500    57.0740    26.0190    24.4800    21.5650     2.1980   -10.9020 
