~V
VERS. 2.00: Ver 2.00
~W
STRT.M 50.0000:
STOP.M 254.0000:
STEP.M 0.1250:
NULL. -999.2500:
UWI. F10088:
~C
DEPT.M :
GR.API :
RML.OHMM :
RI. :
RXO.OHMM :
DEN.GM/CC :
SP.MV :
~A
# ...
  140.1250    55.3960    25.2340    22.3010    27.4050     2.2320     1.2340 
  140.2500    51.7630    27.7320    24.1390    26.7800     2.2390     1.1570 
  140.3750    51.8290    29.0690    25.0640    26.2050     2.2390     1.0770 
  140.5000    52.1950    29.1230    24.9970    25.9910     2.2320     0.9940 
  140.6250    50.2650    28.3410    24.2820    25.5390     2.2210     0.9110 
  140.7500    50.4620    27.6860    23.6470    24.7740     2.2140     0.8290 
  140.8750    49.1750    27.4660    23.3070    23.8330     2.2140     0.7540 
  141.0000    50.2890    27.4230    23.0470    23.3290     2.2170     0.6860 
  141.1250    51.1390    27.0020    22.4900    23.8270     2.2200     0.6280 
  141.2500    51.7830    25.9870    21.5230    24.0340     2.2210     0.5810 
  141.3750    52.0110    24.3830    20.1840    22.4880     2.2200     0.5460 
  141.5000    49.9270    22.3720    18.5980    18.7890     2.2190     0.5220 
  141.6250    53.4680    20.5920    17.2290    16.0770     2.2220     0.5100 
  141.7500    54.0720    19.7840    16.5790    15.9430     2.2320     0.5080 
  141.8750    56.9080    19.9070    16.6640    16.5410     2.2550     0.5110 
  142.0000    58.9270    20.7580    17.2790    18.3340     2.2970     0.5190 
  142.1250    57.7500    21.9250    18.0870    24.3880     2.3540     0.5300 
  142.2500    56.9980    22.8090    18.7040    39.2020     2.4110     0.5420 
  142.3750    57.9630    23.2040    18.9960    29.7540     2.4280     0.5540 
  142.5000    56.5260    23.2890    19.0640    21.6080     2.3870     0.5680 
  142.6250    58.7490    23.3410    19.0810    19.2940     2.3220     0.5840 
  142.7500    60.5810    23.4740    19.1320    20.1600     2.2670     0.6030 
  142.8750    59.4630    23.7250    19.2650    21.0660     2.2390     0.6280 
  143.0000    60.9380    24.0680    19.4980    22.4850     2.2350     0.6610 
  143.1250    58.0420    23.8050    19.3440    22.6180     2.2390     0.7050 
  143.2500    58.4170    23.1190    18.8470    21.6350     2.2390     0.7590 
  143.3750    57.1820    22.3400    18.2410    20.3280     2.2370     0.8240 
  143.5000    56.6820    21.5960    17.6480    19.3760     2.2330     0.8980 
  143.6250    58.0290    20.9630    17.1540    18.8590     2.2270     0.9830 
  143.7500    56.4090    20.5370    16.8440    17.9880     2.2140     1.0780 
  143.8750    57.0530    20.3100    16.7440    17.4600     2.2030     1.1830 
  144.0000    54.7580    20.5340    17.0260    17.5510     2.2000     1.2990 
  144.1250    52.2660    21.0510    17.5410    18.8170     2.1970     1.4260 
  144.2500    50.4980    21.8270    18.2490    20.5230     2.1900     1.5640 
  144.3750    49.7050    22.7600    19.0630    21.5540     2.1820     1.7140 
  144.5000    50.1050    23.5710    19.7650    21.1060     2.1820     1.8760 
  144.6250    53.0010    23.7900    19.9860    21.0930     2.1980     2.0550 
  144.7500    53.8940    23.3340    19.6300    20.8410     2.2090     2.2470 
  144.8750    53.6670    22.5720    19.0090    19.7290     2.2110     2.4510 
  145.0000    52.4690    21.9460    18.4940    18.4280     2.2060     2.6660 
  145.1250    51.6500    21.8240    18.3990    17.6710     2.2050     2.8900 
  145.2500    54.3970    22.3860    18.8750    17.5780     2.2180     3.1210 
  145.3750    52.3860    23.8040    20.0090    21.1650     2.2340     3.3570 
  145.5000    51.7770    25.5290    21.4030    25.0620     2.2390     3.5930 
  145.6250    48.8170    27.1530    22.7760    25.8760     2.2380     3.8260 
  145.7500    46.7020    28.4790    23.9470    25.9010     2.2360     4.0550 
  145.8750    47.5810    29.0990    24.5440    27.7560     2.2350     4.2770 
  146.0000    48.0210    28.2110    23.8910    31.0340     2.2320     4.4920 
  146.1250    52.2060    26.0200    22.2210    33.3910     2.2200     4.6960 
  146.2500    56.2560    23.3090    20.1370    30.7980     2.2050     4.8920 
  146.3750    58.7570    20.8640    18.2310    24.8210     2.2020     5.0800 
  146.5000    59.6730    18.9150    16.6350    20.8000     2.2210     5.2610 
  146.6250    58.9670    17.5650    15.4270    21.1040     2.2600     5.4370 
  146.7500    56.0330    17.0070    14.8420    21.0060     2.3080     5.6100 
  146.8750    56.9990    17.1670    14.9330    18.1090     2.3560     5.7820 
  147.0000    58.2320    17.6540    15.4130    17.1350     2.4040     5.9580 
  147.1250    60.3320    18.2960    16.0900    30.7760     2.4380     6.2700 
  147.2500    60.7220    19.0820    16.9420    40.8940     2.4430     6.5880 
  147.3750    58.2090    20.0110    17.9370    33.1150     2.4130     6.8190 
  147.5000    55.5530    21.0030    18.9440    18.2890     2.3450     7.0710 
  147.6250    50.4030    21.6280    19.6640    19.1500     2.2770     7.3510 
  147.7500    48.3970    21.5420    19.7220    20.3440     2.2330     7.6550 
  147.8750    46.4700    21.5930    19.8630    20.7780     2.2040     7.9810 
  148.0000    44.4950    22.0970    20.3500    20.5680     2.1860     8.3260 
  148.1250    43.6300    23.3030    21.3700    21.1890     2.1750     8.6860 
  148.2500    45.2350    25.6250    23.2320    25.3390     2.1680     9.0550 
  148.3750    46.6830    29.4720    26.2520    31.6600     2.1700     9.4280 
  148.5000    50.4060    33.8990    29.7990    34.4470     2.1850     9.7910 
  148.6250    52.3550    38.1840    33.2720    42.4260     2.2040    10.1400 
  148.7500    52.3730    41.6290    36.1340    50.3400     2.2200    10.4680 
  148.8750    51.2330    43.7910    38.0110    51.0800     2.2330    10.7680 
  149.0000    49.0110    44.6900    38.8230    44.0940     2.2510    11.0360 
  149.1250    47.7230    45.5360    39.4570    59.8010     2.2940    11.2610 
  149.2500    47.3730    45.4750    39.3140    72.7110     2.3230    11.4460 
  149.3750    47.5170    45.2860    39.0390    64.8680     2.3110    11.5940 
  149.5000    47.2830    45.1900    38.8150    51.9470     2.2570    11.7050 
  149.6250    46.0560    45.3220    38.7650    48.3110     2.1810    11.7800 
  149.7500    44.0510    45.9620    39.1420    46.2880     2.1210    11.8210 
  149.8750    44.6950    47.1060    39.9450    44.3890     2.1080    11.8220 
  150.0000    43.4640    48.6480    41.1350    46.6160     2.1050    11.7900 
  150.1250    44.0920    49.9760    42.2110    48.7430     2.1040    11.7260 
  150.2500    44.6680    50.9730    43.0460    48.2950     2.1030    11.6310 
  150.3750    44.0400    51.4570    43.4640    45.4020     2.1020    11.5050 
  150.5000    45.2960    50.8960    43.0340    43.3030     2.1030    11.3490 
  150.6250    45.6180    49.2080    41.7470    42.6210     2.1090    11.1580 
  150.7500    47.7480    47.0230    39.9990    41.6270     2.1230    10.9410 
  150.8750    48.4620    44.7470    38.1540    43.7280     2.1430    10.7000 
  151.0000    48.2790    42.4920    36.3210    46.2330     2.1610    10.4390 
  151.1250    48.0550    40.3580    34.5870    45.6600     2.1700    10.1610 
  151.2500    47.0890    38.5820    33.1450    41.2600     2.1670     9.8680 
  151.3750    46.1230    37.4790    32.2650    40.6340     2.1510     9.5620 
  151.5000    46.7650    36.7690    31.7240    39.9250     2.1510     9.2490 
  151.6250    47.6800    36.3470    31.3970    39.4930     2.1620     8.9300 
  151.7500    48.4610    36.1090    31.1570    39.5120     2.1720     8.6100 
  151.8750    48.5800    35.8930    30.8500    39.4580     2.1750     8.2890 
  152.0000    46.9530    35.4330    30.2930    38.0580     2.1730     7.9720 
  152.1250    44.7800    33.9970    29.0190    39.7840     2.1700     7.6610 
  152.2500    45.4890    31.9650    27.4530    38.8490     2.1710     7.3590 
  152.3750    47.7940    30.5700    26.4470    34.9860     2.1730     7.0680 
  152.5000    51.3180    30.3550    26.3370    31.1160     2.1740     6.7880 
  152.6250    54.4270    31.3770    27.1310    32.2820     2.1720     6.5220 
  152.7500    53.4610    33.2610    28.5640    43.9540     2.1640     6.2710 
  152.8750    52.4960    34.5240    29.5160    52.1180     2.1510     6.0400 
