~V
VERS. 2.00: Ver 2.00
~W
STRT.M 50.0000:
STOP.M 254.0000:
STEP.M 0.1250:
NULL. -999.2500:
UWI. F10088:
~C
DEPT.M :
GR.API :
RML.OHMM :
RI. :
RXO.OHMM :
DEN.GM/CC :
SP.MV :
~A
# ...
  101.5000    63.1300    17.5740    15.8810    15.7100     2.2160     4.7390 
  101.6250    66.3180    16.6480    15.1360    13.3560     2.2260     4.7230 
  101.7500    70.9870    16.1780    14.6560    12.8540     2.2250     4.7060 
  101.8750    66.1590    15.8460    14.2200    13.3680     2.2230     4.6880 
  102.0000    62.6450    14.8010    13.2840    13.8850     2.2300     4.6730 
  102.1250    60.0210    13.1180    11.8870    13.8730     2.2490     4.6590 
  102.2500    58.7070    11.2850    10.3540    12.4360     2.2810     4.6460 
  102.3750    59.6840     9.8250     9.0790    10.1130     2.3180     4.6330 
  102.5000    64.1740     9.0040     8.3460    10.1500     2.3440     4.6210 
  102.6250    67.7140     9.1430     8.4830    10.6700     2.3330     4.6080 
  102.7500    70.2030    10.0040     9.2320    11.1170     2.2960     4.5990 
  102.8750    69.2800    11.5450    10.4340    12.2650     2.2580     4.5940 
  103.0000    64.9060    13.2940    11.7640    13.3010     2.2300     4.5980 
  103.1250    58.7480    14.7520    12.9210    13.6770     2.2160     4.6130 
  103.2500    53.6700    15.7340    13.8040    14.4920     2.2070     4.6380 
  103.3750    52.7040    16.6740    14.6820    15.6740     2.1960     4.6800 
  103.5000    52.3300    17.8850    15.7040    18.4710     2.1940     4.7360 
  103.6250    52.4360    19.3940    16.8860    21.6790     2.2000     4.8030 
  103.7500    50.4760    20.8970    18.0200    22.3280     2.2100     4.8770 
  103.8750    46.4270    22.0330    18.8540    19.6730     2.2140     4.9540 
  104.0000    46.3480    22.6020    19.2420    18.2480     2.2060     5.0300 
  104.1250    46.3480    22.6140    19.1630    22.0350     2.1870     5.0980 
  104.2500    48.4520    22.5820    19.0470    24.3010     2.1640     5.1530 
  104.3750    48.8410    22.6480    19.0370    25.0760     2.1480     5.1930 
  104.5000    47.6070    22.7410    19.0810    25.4100     2.1390     5.2150 
  104.6250    46.7680    22.7410    19.0720    26.0860     2.1350     5.2160 
  104.7500    48.6710    22.6090    18.9560    26.6010     2.1330     5.1960 
  104.8750    48.9930    22.8110    19.0690    25.6160     2.1310     5.1490 
  105.0000    49.5780    22.9110    19.1470    23.4430     2.1420     5.0810 
  105.1250    48.7800    21.1510    18.0250    21.6140     2.1820     4.9950 
  105.2500    49.0060    17.8080    15.6900    25.0020     2.2520     4.8920 
  105.3750    52.5340    13.9730    12.7010    30.8980     2.3330     4.7750 
  105.5000    58.3230    10.6360     9.7570    21.5460     2.3950     4.6480 
  105.6250    63.8750     8.3920     7.7260    11.0860     2.3940     4.5150 
  105.7500    68.0460     7.1550     6.4470     8.6450     2.3540     4.3840 
  105.8750    69.9190     6.4050     5.6570     7.6760     2.3150     4.2570 
  106.0000    71.0000     6.0310     5.2970     6.9800     2.2990     4.1390 
  106.1250    73.0930     6.0120     5.3280     6.8760     2.3070     4.0300 
  106.2500    76.5940     6.1980     5.6230     6.5810     2.3230     3.9350 
  106.3750    77.8810     6.9360     6.4480     7.2910     2.3230     3.8570 
  106.5000    75.4160     8.1250     7.5550     8.9250     2.3020     3.7930 
  106.6250    72.1670     9.3020     8.5580    10.7680     2.2730     3.7450 
  106.7500    68.7800     9.9390     9.1020    11.7060     2.2520     3.7110 
  106.8750    66.4410     9.6900     8.9480    10.7540     2.2470     3.6950 
  107.0000    68.6170     8.6020     8.0640     7.6200     2.2610     3.7040 
  107.1250    66.6860     7.4860     7.0000     8.5610     2.2810     3.7350 
  107.2500    67.9810     6.5410     6.0550     8.9700     2.2890     3.7780 
  107.3750    69.9430     5.9090     5.4200     8.2870     2.2900     3.8310 
  107.5000    72.6490     5.6960     5.2270     7.1540     2.2970     3.8920 
  107.6250    76.0970     5.9690     5.5470     6.7000     2.3240     3.9560 
  107.7500    78.2070     6.7590     6.3900     8.1800     2.3730     4.0220 
  107.8750    72.7350     8.7070     8.1380    22.5160     2.4100     4.0850 
  108.0000    64.9580    11.9470    10.6820    28.8200     2.4010     4.1390 
  108.1250    56.4210    16.2410    13.8980    26.8440     2.3470     4.1830 
  108.2500    50.1560    20.3640    17.0890    23.4110     2.2690     4.2140 
  108.3750    47.8930    22.6630    19.0880    23.5180     2.1960     4.2290 
  108.5000    47.9050    21.5770    18.4150    23.5730     2.1540     4.2260 
  108.6250    48.5480    17.1490    15.1620    22.0690     2.1460     4.2000 
  108.7500    51.6300    12.6960    11.6510    18.0180     2.1600     4.1540 
  108.8750    54.8030     9.1190     8.5450    12.2600     2.1950     4.0900 
  109.0000    60.1260     6.7010     6.2560     7.7240     2.2420     4.0100 
  109.1250    67.9540     5.3850     4.9350     6.2080     2.2920     3.9160 
  109.2500    72.6790     4.9510     4.4400     5.9430     2.3300     3.8100 
  109.3750    76.2190     5.2770     4.7880     6.1760     2.3350     3.6940 
  109.5000    75.0150     6.4870     5.9190     9.3260     2.3220     3.5740 
  109.6250    70.7690     8.7140     7.7460    13.1030     2.2960     3.4520 
  109.7500    65.9720    11.8880    10.0760    15.0480     2.2660     3.3320 
  109.8750    62.7440    15.0510    12.2750    14.4690     2.2410     3.2160 
  110.0000    61.7600    15.9300    13.0650    13.8910     2.2290     3.1050 
  110.1250    59.8290    13.1400    11.2630    12.7720     2.2430     3.0060 
  110.2500    60.0070    10.5920     9.2500    10.3190     2.2760     2.9160 
  110.3750    62.6440     8.6960     7.6400     8.1700     2.3180     2.8360 
  110.5000    67.9910     7.5080     6.5780     7.4410     2.3510     2.7670 
  110.6250    74.1940     6.9400     6.0280     8.0610     2.3620     2.7090 
  110.7500    76.1940     6.9100     5.9710     8.2810     2.3490     2.6600 
  110.8750    81.6660     7.3810     6.3320     7.4780     2.3230     2.6250 
  111.0000    81.0710     8.0790     6.8220     8.0000     2.2970     2.6010 
  111.1250    79.5380     8.7080     7.2740     9.1450     2.2750     2.5890 
  111.2500    75.5840     9.1010     7.5730     9.5170     2.2620     2.5880 
  111.3750    69.3350     9.1430     7.6360     8.5940     2.2590     2.5970 
  111.5000    68.0860     8.7240     7.3990     7.8850     2.2640     2.6160 
  111.6250    68.7300     8.0530     6.9140     7.7950     2.2710     2.6440 
  111.7500    66.9330     7.5430     6.5080     7.9310     2.2760     2.6750 
  111.8750    65.8460     7.3860     6.3840     7.9310     2.2780     2.7070 
  112.0000    64.3080     7.5920     6.5790     7.7330     2.2770     2.7370 
  112.1250    61.7260     8.1750     7.1020     7.7620     2.2700     2.7630 
  112.2500    61.4040     9.2760     8.0450     9.0500     2.2620     2.7840 
  112.3750    61.0820    11.0270     9.4370    11.7390     2.2510     2.8000 
  112.5000    62.6080    13.1320    10.9410    15.1250     2.2420     2.8130 
  112.6250    61.1470    15.2580    12.4120    17.2200     2.2390     2.8260 
  112.7500    58.0120    16.5240    13.2660    16.6250     2.2370     2.8410 
  112.8750    55.4190    16.1870    13.0050    14.0710     2.2330     2.8600 
  113.0000    52.8430    14.2050    11.6290    13.4290     2.2280     2.8830 
  113.1250    54.1310    11.7270     9.6070    13.6250     2.2300     2.9140 
  113.2500    58.3220     9.8190     8.0340    10.4710     2.2470     2.9510 
  113.3750    63.7990     8.5500     6.9660     8.4750     2.2650     2.9920 
  113.5000    68.4220     7.8600     6.3510     8.2900     2.2720     3.0380 
  113.6250    70.2550     7.6430     6.1040     9.0540     2.2620     3.0890 
  113.7500    68.3300     7.8050     6.1760     9.9580     2.2420     3.1430 
  113.8750    66.7210     8.2470     6.5030     9.0060     2.2330     3.2020 
  114.0000    70.9210     8.5320     6.7930     8.4520     2.2270     3.2680 
  114.1250    73.8960     8.8620     7.1350     8.3950     2.2220     3.3390 
  114.2500    74.7360     9.2900     7.5340     8.7560     2.2150     3.4180 
