~V
VERS. 2.00: Ver 2.00
~W
STRT.M 50.0000:
STOP.M 219.0000:
STEP.M 0.1250:
NULL. -999.2500:
UWI. F10086:
~C
DEPT.M :
GR.API :
RML.OHMM :
RI. :
RXO.OHMM :
DEN.GM/CC :
SP.MV :
~A
# ...
  114.3750    58.8520    24.2840    25.6820    20.1820     2.2190    -5.7070 
  114.5000    59.9460    24.3120    25.5720    16.1950     2.2090    -5.6960 
  114.6250    65.5960    24.2440    25.4440    16.9390     2.2030    -5.6990 
  114.7500    63.2000    24.2820    25.4560    21.4990     2.1980    -5.7100 
  114.8750    59.1480    24.6080    25.7200    22.1410     2.1880    -5.7290 
  115.0000    54.9490    25.4470    26.4610    19.6900     2.1780    -5.7530 
  115.1250    51.5630    27.0840    27.9530    17.2040     2.1750    -5.7790 
  115.2500    52.0720    29.8220    30.4190    15.5860     2.1840    -5.8060 
  115.3750    53.0690    31.6560    32.0420    17.4420     2.1990    -5.8290 
  115.5000    51.2010    33.4900    33.5420    18.8060     2.2070    -5.8430 
  115.6250    51.1850    35.3640    34.9990    17.7900     2.2010    -5.8460 
  115.7500    52.6810    37.0390    36.2190    15.9410     2.1850    -5.8350 
  115.8750    53.9200    37.9530    36.6840    15.1690     2.1650    -5.8070 
  116.0000    54.2870    37.2300    35.5450    15.4880     2.1530    -5.7630 
  116.1250    56.2820    34.3240    32.4390    14.9990     2.1550    -5.6980 
  116.2500    56.2290    30.9330    29.1180    12.9100     2.1630    -5.6220 
  116.3750    55.2140    27.8200    26.1950    11.0370     2.1680    -5.5380 
  116.5000    52.6940    25.5200    24.0590    10.7720     2.1680    -5.4520 
  116.6250    49.6790    24.3620    22.9450    12.6490     2.1660    -5.3660 
  116.7500    50.7090    24.4540    22.9630    15.9610     2.1670    -5.2860 
  116.8750    53.2010    25.7490    24.0120    19.5410     2.1690    -5.2160 
  117.0000    53.7830    27.2560    25.3150    22.3080     2.1780    -5.1580 
  117.1250    54.7760    27.9370    26.0240    23.7070     2.1900    -5.1100 
  117.2500    54.5900    27.5070    25.7950    23.2440     2.2030    -5.0740 
  117.3750    52.9070    26.2580    24.7550    21.2090     2.2110    -5.0480 
  117.5000    53.9810    24.9330    23.4940    19.1600     2.2030    -5.0330 
  117.6250    50.9890    23.7200    22.2500    18.7000     2.1710    -5.0300 
  117.7500    53.3240    21.7850    20.4400    16.6870     2.1410    -5.0360 
  117.8750    59.6030    19.4370    18.2570    13.6770     2.1310    -5.0500 
  118.0000    66.7400    17.2080    16.1270    10.6560     2.1400    -5.0710 
  118.1250    71.8750    15.6020    14.5250     9.1820     2.1610    -5.0980 
  118.2500    73.8650    14.8830    13.8220    11.3110     2.1800    -5.1280 
  118.3750    68.2140    15.3900    14.2740    15.3780     2.1740    -5.1580 
  118.5000    61.0610    16.8840    15.5770    18.0580     2.1610    -5.1850 
  118.6250    55.9600    19.0840    17.3580    18.8270     2.1510    -5.2090 
  118.7500    51.9530    21.2450    19.0660    18.0310     2.1470    -5.2300 
  118.8750    48.6830    22.4940    20.0850    16.5790     2.1480    -5.2490 
  119.0000    49.6360    22.1680    19.8900    15.6690     2.1520    -5.2690 
  119.1250    48.6390    21.5740    19.4030    15.6180     2.1510    -5.2950 
  119.2500    52.5610    21.4390    19.2680    15.9150     2.1560    -5.3290 
  119.3750    56.3060    21.7820    19.4680    17.0080     2.1640    -5.3740 
  119.5000    59.2970    22.4110    19.8290    18.2090     2.1760    -5.4320 
  119.6250    61.9560    22.9090    20.0270    18.4770     2.1880    -5.5050 
  119.7500    63.3740    22.6650    19.6280    17.0570     2.1910    -5.5910 
  119.8750    61.3800    21.4510    18.5610    15.0910     2.1910    -5.6930 
  120.0000    59.3860    20.1060    17.4340    12.7720     2.1850    -5.8070 
  120.1250    54.5980    19.4330    16.9090    12.1680     2.1780    -5.9290 
  120.2500    50.0120    19.6800    17.1480    14.0850     2.1720    -6.0580 
  120.3750    48.0180    20.7900    18.0390    17.5900     2.1690    -6.1900 
  120.5000    46.1250    22.5360    19.3120    19.7070     2.1740    -6.3240 
  120.6250    48.6180    23.4610    19.9360    17.5580     2.1980    -6.4520 
  120.7500    47.4190    22.8250    19.4610    14.4310     2.2490    -6.5710 
  120.8750    47.2880    21.0100    18.0660    12.8210     2.3010    -6.6750 
  121.0000    49.3390    19.0170    16.4740    11.8860     2.3350    -6.7590 
  121.1250    53.0140    17.8060    15.4780    10.9230     2.3340    -6.8190 
  121.2500    57.2360    17.7910    15.5650    11.7320     2.2910    -6.8530 
  121.3750    57.2360    19.8820    17.3510    16.3880     2.2340    -6.8530 
  121.5000    53.1340    23.7380    20.2450    21.7730     2.2030    -6.8250 
  121.6250    53.2210    28.5930    23.7130    26.6420     2.1890    -6.7740 
  121.7500    54.6210    32.5470    26.6660    29.0540     2.1890    -6.7050 
  121.8750    54.0310    33.9010    27.9770    27.6540     2.1980    -6.6230 
  122.0000    54.7510    32.2380    26.9510    22.7630     2.2060    -6.5340 
  122.1250    50.7630    29.3630    24.7970    20.3150     2.2070    -6.4450 
  122.2500    52.5190    27.1530    23.1630    19.0820     2.1980    -6.3630 
  122.3750    54.3720    26.0910    22.3980    19.9250     2.1910    -6.2900 
  122.5000    53.7770    26.2040    22.5150    22.7670     2.1890    -6.2290 
  122.6250    50.9340    27.2890    23.3710    25.9000     2.1920    -6.1820 
  122.7500    48.5910    29.0630    24.7770    25.7530     2.1950    -6.1500 
  122.8750    45.6000    30.4020    25.8510    25.2400     2.1890    -6.1360 
  123.0000    50.4080    29.2200    25.0140    24.3160     2.1830    -6.1380 
  123.1250    56.4750    24.3590    21.5280    21.6580     2.1820    -6.1530 
  123.2500    64.0510    17.5910    16.5050    17.4050     2.1940    -6.1780 
  123.3750    72.6860    11.4880    11.6030    12.0970     2.2230    -6.2100 
  123.5000    76.6870     7.7950     8.0340     6.0810     2.2690    -6.2460 
  123.6250    81.1740     6.0380     6.0720     4.7380     2.3180    -6.2790 
  123.7500    80.7340     5.2810     5.1800     4.5640     2.3500    -6.3040 
  123.8750    78.6160     5.1060     4.9600     4.7190     2.3590    -6.3180 
  124.0000    74.4330     5.3490     5.2000     4.9530     2.3470    -6.3180 
  124.1250    68.1380     5.8880     5.7370     5.3000     2.3230    -6.3060 
  124.2500    62.5620     6.5350     6.4030     5.8780     2.3040    -6.2820 
  124.3750    60.0690     7.1340     7.0670     6.2440     2.2980    -6.2490 
  124.5000    57.1650     7.8110     7.7850     6.6740     2.3100    -6.2140 
  124.6250    56.4550     8.5950     8.5810     7.4130     2.3160    -6.1830 
  124.7500    56.4150     9.5710     9.5260     8.3890     2.3090    -6.1600 
  124.8750    56.1250    10.8560    10.7130     9.6680     2.2890    -6.1480 
  125.0000    58.2340    12.5840    12.2440    11.7130     2.2650    -6.1490 
  125.1250    58.2340    14.9710    14.2600    14.1400     2.2490    -6.1680 
  125.2500    60.2880    17.0030    15.9190    15.8350     2.2430    -6.2020 
  125.3750    62.0550    17.2450    16.1340    17.2750     2.2320    -6.2490 
  125.5000    64.0890    15.5980    14.8120    15.7460     2.2200    -6.3080 
  125.6250    66.4480    12.8890    12.5390    10.6260     2.2110    -6.3760 
  125.7500    66.5980    10.5540    10.3400     6.8600     2.2120    -6.4500 
  125.8750    66.0990     9.4850     9.1780     7.1390     2.2210    -6.5290 
  126.0000    63.1350     9.3020     8.9080     8.0260     2.2220    -6.6070 
  126.1250    59.5410    10.0140     9.5620     9.9950     2.2110    -6.6800 
  126.2500    57.4360    11.7320    11.1900    12.5130     2.1940    -6.7440 
  126.3750    57.4920    14.5560    13.7640    15.3180     2.1790    -6.7940 
  126.5000    57.7840    18.4970    17.1250    19.2830     2.1730    -6.8280 
  126.6250    59.7780    23.3970    21.1790    25.8450     2.1690    -6.8370 
  126.7500    60.1280    27.6070    24.8910    25.8390     2.1660    -6.8250 
  126.8750    59.6610    30.2710    27.3680    24.0920     2.1620    -6.7950 
  127.0000    58.1720    30.9260    28.0970    22.6250     2.1580    -6.7500 
  127.1250    55.5670    29.7250    27.1340    21.9930     2.1550    -6.6970 
