~V
VERS. 2.00: Ver 2.00
~W
STRT.M 50.0000:
STOP.M 219.0000:
STEP.M 0.1250:
NULL. -999.2500:
UWI. F10086:
~C
DEPT.M :
GR.API :
RML.OHMM :
RI. :
RXO.OHMM :
DEN.GM/CC :
SP.MV :
~A
# ...
   62.8750    72.6490     6.8040     5.4160     5.9340     2.2290    -9.5160 
   63.0000    61.5100     7.7310     5.9770     6.1360     2.1980    -9.6580 
   63.1250    56.4350     8.4230     6.3880     6.2220     2.1750    -9.8930 
   63.2500    57.2510     8.7370     6.5650     6.2410     2.1610   -10.2260 
   63.3750    60.0960     8.6850     6.5010     6.1920     2.1540   -10.6590 
   63.5000    60.4340     8.5000     6.3250     6.1600     2.1520   -11.1870 
   63.6250    61.9300     8.3640     6.1650     6.0800     2.1580   -11.8130 
   63.7500    60.2170     8.2860     6.0390     6.2260     2.1610   -12.4900 
   63.8750    60.7380     8.2270     5.9250     6.1300     2.1630   -13.1930 
   64.0000    63.9700     8.1840     5.8240     5.8260     2.1590   -13.8940 
   64.1250    67.4070     8.1650     5.7460     5.5680     2.1450   -14.5650 
   64.2500    67.3990     8.1710     5.6910     5.5650     2.1200   -15.1780 
   64.3750    65.5710     8.2760     5.7070     5.7180     2.0920   -15.6780 
   64.5000    66.8180     8.4730     5.7850     5.9350     2.0790   -16.0640 
   64.6250    68.1090     8.6840     5.8660     6.0180     2.0870   -16.3270 
   64.7500    70.2180     8.7900     5.8860     5.8530     2.1110   -16.4630 
   64.8750    73.3900     8.7040     5.7980     5.4650     2.1430   -16.4730 
   65.0000    73.3980     8.4310     5.6090     5.0820     2.1790   -16.3660 
   65.1250    75.0600     7.9930     5.3380     4.8730     2.2000   -16.1310 
   65.2500    77.7920     7.5940     5.0850     4.9140     2.2110   -15.8130 
   65.3750    78.6730     7.3500     4.9200     4.9290     2.2140   -15.4260 
   65.5000    79.1840     7.2350     4.8320     4.9480     2.2120   -14.9830 
   65.6250    80.7180     7.1680     4.7840     5.0650     2.2100   -14.4960 
   65.7500    80.4850     7.1030     4.7490     5.2110     2.2120   -13.9770 
   65.8750    83.4770     6.8220     4.6050     4.8170     2.2280   -13.4350 
   66.0000    88.4750     6.5060     4.4360     4.5390     2.2490   -12.8870 
   66.1250    90.4900     6.2690     4.3040     4.2760     2.2700   -12.3450 
   66.2500    88.3220     6.1440     4.2330     4.0820     2.2850   -11.8180 
   66.3750    83.5400     6.1280     4.2280     4.0580     2.2860   -11.3180 
   66.5000    79.5830     6.2080     4.2880     4.2440     2.2770   -10.8540 
   66.6250    81.5780     6.2340     4.3330     4.2790     2.2670   -10.4460 
   66.7500    85.9810     6.2120     4.3610     4.1490     2.2650   -10.0880 
   66.8750    85.4330     6.2240     4.4100     4.0820     2.2670    -9.7790 
   67.0000    79.3240     6.2980     4.4910     4.2020     2.2680    -9.5150 
   67.1250    72.1940     6.4320     4.5990     4.4910     2.2690    -9.2910 
   67.2500    72.1920     6.6090     4.7180     4.7600     2.2690    -9.0980 
   67.3750    71.8590     6.6230     4.7440     4.7010     2.2760    -8.9350 
   67.5000    74.7400     6.4800     4.6810     4.5420     2.2770    -8.7890 
   67.6250    74.0690     6.2370     4.5500     4.3150     2.2720    -8.6570 
   67.7500    73.4780     5.9870     4.4070     4.1950     2.2670    -8.5370 
   67.8750    77.2710     5.8140     4.3130     4.2880     2.2690    -8.4300 
   68.0000    81.5910     5.7530     4.3040     4.4340     2.2820    -8.3370 
   68.1250    85.7460     5.9320     4.4840     4.3720     2.3010    -8.2610 
   68.2500    84.4100     6.3170     4.8020     4.4610     2.3020    -8.2010 
   68.3750    82.3550     6.8630     5.1860     4.9170     2.2890    -8.1540 
   68.5000    80.6930     7.3920     5.5180     5.5180     2.2690    -8.1200 
   68.6250    79.6810     7.6320     5.6620     5.7730     2.2500    -8.0950 
   68.7500    81.1620     7.2580     5.4820     5.0860     2.2440    -8.0770 
   68.8750    80.1650     6.4420     5.0270     4.5110     2.2510    -8.0660 
   69.0000    77.9620     5.9860     4.7290     4.2420     2.2630    -8.0590 
   69.1250    75.1670     5.8740     4.6480     4.8000     2.2760    -8.0530 
   69.2500    72.8500     6.1390     4.7990     6.0370     2.2940    -8.0490 
   69.3750    72.3090     6.6740     5.1070     7.0390     2.3150    -8.0430 
   69.5000    74.7770     7.0730     5.3580     6.0710     2.3340    -8.0340 
   69.6250    73.2810     7.0210     5.4000     5.5390     2.3350    -8.0170 
   69.7500    68.1670     6.7760     5.3230     5.0260     2.3240    -7.9870 
   69.8750    63.0910     6.6620     5.3380     5.1400     2.3090    -7.9410 
   70.0000    60.2250     6.9380     5.6510     5.8370     2.2900    -7.8790 
   70.1250    59.4170     7.7550     6.3740     6.7350     2.2650    -7.7990 
   70.2500    57.4200     9.1050     7.4350     7.4020     2.2320    -7.7000 
   70.3750    54.9270    10.6310     8.4840     7.6780     2.1980    -7.5840 
   70.5000    54.0420    11.1620     8.9270     7.4060     2.1780    -7.4570 
   70.6250    59.2900    10.6410     8.6880     6.8590     2.1740    -7.3250 
   70.7500    66.6430     9.4850     7.9660     6.2490     2.1850    -7.1910 
   70.8750    71.0100     8.2530     7.0860     5.6680     2.2040    -7.0580 
   71.0000    72.9450     7.3390     6.3690     5.0330     2.2240    -6.9270 
   71.1250    65.9640     6.9880     6.0660     5.0960     2.2410    -6.8010 
   71.2500    63.8110     6.9700     6.0300     5.4150     2.2490    -6.6770 
   71.3750    62.8140     7.1740     6.1620     5.6490     2.2500    -6.5560 
   71.5000    65.0620     7.4130     6.3310     5.6750     2.2470    -6.4370 
   71.6250    70.5980     7.5160     6.4250     5.5520     2.2420    -6.3190 
   71.7500    70.5770     7.4100     6.4010     5.4860     2.2410    -6.2050 
   71.8750    67.5860     7.2730     6.3650     5.5790     2.2580    -6.0950 
   72.0000    64.9970     7.4100     6.5910     5.8990     2.2770    -5.9930 
   72.1250    63.7140     7.9850     7.2220     6.6390     2.2860    -5.8970 
   72.2500    65.0430     9.0930     8.2970     7.6640     2.2790    -5.8060 
   72.3750    67.3270    10.7580     9.7720     8.8710     2.2540    -5.7200 
   72.5000    63.0950    12.9090    11.5470    10.4970     2.2190    -5.6370 
   72.6250    59.6040    15.0400    13.2990    10.7710     2.2010    -5.5520 
   72.7500    56.2480    16.4360    14.5170    10.6510     2.1950    -5.4630 
   72.8750    55.7000    16.9290    15.0670    10.4860     2.1840    -5.3690 
   73.0000    56.8450    16.6570    14.9860    10.0610     2.1680    -5.2700 
   73.1250    57.9110    15.9630    14.4980     9.3390     2.1520    -5.1680 
   73.2500    59.2220    15.2940    14.0000     9.1210     2.1460    -5.0650 
   73.3750    58.0590    14.5240    13.4060     9.3090     2.1620    -4.9670 
   73.5000    57.8350    13.5940    12.6610     9.1800     2.1770    -4.8790 
   73.6250    61.4700    12.6310    11.8490     8.7580     2.1910    -4.8040 
   73.7500    65.8950    11.7240    11.0490     7.9910     2.2050    -4.7450 
   73.8750    67.7100    10.8870    10.2950     7.0160     2.2190    -4.7040 
   74.0000    68.1690    10.0310     9.5320     6.3890     2.2290    -4.6820 
   74.1250    63.5160     8.9730     8.6060     6.4620     2.2270    -4.6820 
   74.2500    66.6480     7.8230     7.6090     6.0080     2.2270    -4.7000 
   74.3750    71.6340     6.7460     6.6550     5.3100     2.2380    -4.7310 
   74.5000    75.6710     5.9060     5.8750     5.1560     2.2570    -4.7730 
   74.6250    77.7780     5.4390     5.4110     5.8800     2.2780    -4.8210 
   74.7500    77.7660     5.4260     5.3960     6.5170     2.2870    -4.8720 
   74.8750    76.2700     6.0420     6.0510     7.2160     2.2900    -4.9160 
   75.0000    73.0290     7.3080     7.2680     8.1820     2.2910    -4.9480 
   75.1250    68.5640     9.0770     8.8430     8.8860     2.2850    -4.9620 
   75.2500    62.7640    11.2560    10.7340     9.5240     2.2750    -4.9550 
   75.3750    56.5450    13.7890    12.9510    10.6190     2.2720    -4.9250 
   75.5000    53.2190    16.6630    15.4680    12.6970     2.3000    -4.8690 
   75.6250    49.7290    20.4250    18.6140    19.2190     2.3690    -4.7850 
