~V
VERS. 2.00: Ver 2.00
~W
STRT.M 50.0000:
STOP.M 254.0000:
STEP.M 0.1250:
NULL. -999.2500:
UWI. F10088:
~C
DEPT.M :
GR.API :
RML.OHMM :
RI. :
RXO.OHMM :
DEN.GM/CC :
SP.MV :
~A
# ...
   88.6250    91.3400     6.0790     5.0220     6.4860     2.3080     2.1290 
   88.7500    91.4160     6.2290     5.2100     6.3430     2.3100     2.0410 
   88.8750    90.8290     6.8160     5.7470     6.8050     2.3120     1.9570 
   89.0000    85.6510     7.9080     6.6520     8.3040     2.3070     1.8820 
   89.1250    78.2480     9.3780     7.7570    10.0420     2.2790     1.8240 
   89.2500    68.4910    10.7400     8.6840    10.6550     2.2490     1.7830 
   89.3750    65.0920    11.5200     9.1960    10.6560     2.2290     1.7630 
   89.5000    66.9870    11.5800     9.2140    10.2900     2.2240     1.7640 
   89.6250    70.2750    11.0570     8.8170     9.8420     2.2300     1.7880 
   89.7500    73.7660    10.3070     8.2540     9.8470     2.2390     1.8350 
   89.8750    73.4440     9.8340     7.8730     9.9000     2.2490     1.9080 
   90.0000    70.2450     9.7380     7.7920     9.5850     2.2550     1.9990 
   90.1250    69.5380    10.0800     8.0310    10.0870     2.2540     2.1010 
   90.2500    70.9590    10.7930     8.5240    11.7320     2.2440     2.2120 
   90.3750    71.5740    11.7580     9.1860    13.6350     2.2280     2.3240 
   90.5000    68.4850    12.8750     9.9560    13.4690     2.2100     2.4320 
   90.6250    63.0130    13.8020    10.5890    12.7590     2.1960     2.5290 
   90.7500    57.5410    14.4910    11.0800    12.4490     2.1810     2.6110 
   90.8750    56.7070    14.9300    11.3660    12.5300     2.1630     2.6770 
   91.0000    57.8020    14.9930    11.3640    12.3390     2.1480     2.7260 
   91.1250    58.1660    14.4200    10.9340    11.4250     2.1460     2.7580 
   91.2500    61.0880    12.8190     9.8630    10.2360     2.1660     2.7750 
   91.3750    65.9160    10.4760     8.2410     8.5530     2.2090     2.7750 
   91.5000    72.0530     8.4560     6.7480     7.4740     2.2550     2.7640 
   91.6250    75.9240     7.0040     5.6190     6.6120     2.2910     2.7460 
   91.7500    77.5120     6.1050     4.8850     6.0140     2.3140     2.7210 
   91.8750    77.8810     5.6400     4.4870     5.8130     2.3300     2.6910 
   92.0000    77.3200     5.5110     4.3580     5.9390     2.3460     2.6570 
   92.1250    82.7920     5.6810     4.4910     6.0920     2.3650     2.6200 
   92.2500    80.8010     5.9660     4.7560     6.0560     2.3670     2.5840 
   92.3750    77.3960     6.4170     5.1790     6.7190     2.3520     2.5500 
   92.5000    72.5800     7.0620     5.7980     7.8630     2.3320     2.5210 
   92.6250    67.1830     7.9550     6.6380     8.9590     2.3200     2.5000 
   92.7500    67.9410     9.2120     7.6980     9.8170     2.3250     2.4880 
   92.8750    65.3670    10.7980     8.8310    11.5640     2.3330     2.4920 
   93.0000    61.7440    11.7000     9.4620    12.5170     2.3270     2.5110 
   93.1250    57.0910    11.5770     9.4050    12.3740     2.3160     2.5440 
   93.2500    54.7380    10.5590     8.6970    11.0650     2.3110     2.5910 
   93.3750    56.6920     9.0770     7.5700     9.1170     2.3170     2.6490 
   93.5000    59.9670     7.7210     6.4310     7.9080     2.3280     2.7150 
   93.6250    67.2090     7.0570     5.7970     7.7940     2.3320     2.7860 
   93.7500    71.7000     6.7320     5.4670     7.3100     2.3330     2.8560 
   93.8750    73.1910     6.7040     5.3560     7.3520     2.3380     2.9220 
   94.0000    72.4580     6.8230     5.3700     8.1020     2.3450     2.9820 
   94.1250    69.9640     6.9650     5.4470     8.8890     2.3510     3.0350 
   94.2500    64.8410     7.1320     5.6010     8.1310     2.3470     3.0820 
   94.3750    61.6230     7.3540     5.8440     8.2690     2.3370     3.1230 
   94.5000    59.1900     7.8640     6.2830     9.0390     2.3350     3.1610 
   94.6250    59.1120     8.4650     6.7330    10.4060     2.3420     3.2010 
   94.7500    62.4000     8.9660     7.0910    12.1130     2.3520     3.2420 
   94.8750    66.9970     9.0860     7.2100    12.8060     2.3550     3.2870 
   95.0000    66.0460     8.4200     6.8210     9.5240     2.3410     3.3350 
   95.1250    66.0460     7.4950     6.2040     8.0460     2.3090     3.3860 
   95.2500    63.9480     6.9800     5.7960     7.5210     2.2830     3.4380 
   95.3750    64.1420     6.8380     5.6650     7.6070     2.2690     3.4890 
   95.5000    65.7730     7.1190     5.8670     8.1300     2.2650     3.5390 
   95.6250    66.5830     7.7980     6.3710     8.7950     2.2650     3.5890 
   95.7500    65.9300     8.6510     7.0090     8.9930     2.2630     3.6410 
   95.8750    64.6430     9.2820     7.4560     8.9800     2.2550     3.6970 
   96.0000    64.2070     9.3550     7.5440     9.4210     2.2450     3.7610 
   96.1250    65.1040     9.0400     7.3590     9.2770     2.2380     3.8350 
   96.2500    66.4460     8.5460     7.0550     8.4870     2.2400     3.9210 
   96.3750    67.4120     8.0860     6.7930     7.8000     2.2490     4.0190 
   96.5000    68.3250     7.8360     6.6910     8.5760     2.2590     4.1280 
   96.6250    65.7500     7.8640     6.7830     8.9590     2.2620     4.2470 
   96.7500    66.2570     8.0110     6.9330     9.0370     2.2690     4.3700 
   96.8750    68.7010     8.3220     7.1720     8.9280     2.2810     4.4950 
   97.0000    71.6520     8.6330     7.3680     8.5930     2.2940     4.6160 
   97.1250    73.3450     8.7000     7.3560     8.3640     2.2980     4.7330 
   97.2500    71.7850     8.3150     7.0440     9.3020     2.2880     4.8430 
   97.3750    68.2450     7.4810     6.4210    10.3300     2.2790     4.9410 
   97.5000    69.1650     7.0310     6.0890     8.6420     2.2960     5.0290 
   97.6250    71.6900     7.0830     6.2240     7.0100     2.3370     5.1050 
   97.7500    73.6510     7.8510     7.0260     9.4070     2.3790     5.1690 
   97.8750    72.4240     9.6030     8.6710    16.8570     2.3950     5.2190 
   98.0000    64.4170    12.6270    11.2840    24.0740     2.3680     5.2560 
   98.1250    58.9450    18.2120    15.2680    22.5410     2.2910     5.2720 
   98.2500    55.3100    23.2170    18.8760    22.3490     2.2230     5.2710 
   98.3750    55.6570    24.4700    19.9650    22.6430     2.1790     5.2540 
   98.5000    57.1620    22.8440    18.9740    21.7420     2.1610     5.2210 
   98.6250    57.6480    20.5240    17.2880    18.8290     2.1610     5.1730 
   98.7500    59.8760    18.8420    15.9520    15.3410     2.1690     5.1130 
   98.8750    60.5200    17.8270    15.0670    15.0110     2.1780     5.0410 
   99.0000    62.4760    17.2600    14.5670    14.7560     2.1800     4.9630 
   99.1250    59.9730    17.0600    14.3920    14.6280     2.1780     4.8840 
   99.2500    56.3750    17.1150    14.4640    14.3390     2.1740     4.8070 
   99.3750    55.2010    17.3320    14.6960    13.8140     2.1720     4.7340 
   99.5000    53.3510    17.6770    15.0210    13.6210     2.1760     4.6700 
   99.6250    56.5700    18.0120    15.3060    14.0070     2.1830     4.6190 
   99.7500    58.4750    16.9340    14.6570    13.9950     2.1900     4.5800 
   99.8750    59.0930    14.7590    13.1510    13.3980     2.2010     4.5560 
  100.0000    60.0310    12.1660    11.1360    11.7480     2.2230     4.5450 
  100.1250    61.9360     9.8600     9.1250     9.3070     2.2530     4.5470 
  100.2500    62.6150     8.2660     7.6750     7.8290     2.2820     4.5610 
  100.3750    65.4310     7.7760     7.1700     8.5170     2.2890     4.5860 
  100.5000    64.3730     7.9230     7.3170     8.6300     2.2760     4.6180 
  100.6250    65.0200     8.8000     8.1220     8.9330     2.2590     4.6520 
  100.7500    65.1630    10.3760     9.5420    10.8130     2.2410     4.6860 
  100.8750    62.4680    12.5800    11.4830    14.5950     2.2230     4.7160 
  101.0000    60.1860    15.3720    13.7990    18.2440     2.2030     4.7390 
  101.1250    56.1630    17.9590    15.8310    21.2670     2.1920     4.7520 
  101.2500    54.6360    19.0280    16.8110    22.0600     2.1930     4.7550 
  101.3750    58.2340    18.6420    16.6470    19.4640     2.2030     4.7500 
