~V
VERS. 2.00: Ver 2.00
~W
STRT.M 20.0000:
STOP.M 297.0000:
STEP.M 0.1250:
NULL. -999.2500:
UWI. F10080:
~C
DEPT.M :
GR.API :
RML.OHMM :
RI. :
RXO.OHMM :
DEN.GM/CC :
SP.MV :
~A
# ...
  123.0000    69.9930     7.6490     7.1340     9.0160     2.1220   -35.4840 
  123.1250    67.7260     8.1120     7.1260     8.9680     2.1180   -35.5830 
  123.2500    64.0440     8.2590     7.1430     9.1330     2.1260   -35.6690 
  123.3750    62.5030     7.8730     7.2150     9.4730     2.1400   -35.7450 
  123.5000    60.2440     7.9440     7.2720     9.6710     2.1530   -35.8080 
  123.6250    60.5680     8.8820     7.3470     9.3520     2.1550   -35.8560 
  123.7500    63.8600     9.5610     7.3150     9.3000     2.1440   -35.8890 
  123.8750    67.1310    10.1290     7.3060     9.2590     2.1310   -35.9090 
  124.0000    69.9050    10.0640     7.2630     9.3150     2.1210   -35.9140 
  124.1250    71.1360     9.3460     7.1210     9.5150     2.1190   -35.9050 
  124.2500    67.9380     9.0320     6.8970     9.6180     2.1260   -35.8850 
  124.3750    65.9140     8.2440     6.6450     8.3630     2.1370   -35.8520 
  124.5000    67.1960     7.8320     6.5200     6.8590     2.1410   -35.8110 
  124.6250    67.9080     7.6680     6.5090     7.0730     2.1400   -35.7630 
  124.7500    69.0660     7.7060     6.5870     8.2370     2.1330   -35.7100 
  124.8750    70.3390     8.0210     6.7600     9.1060     2.1240   -35.6520 
  125.0000    67.1310     8.8040     7.0830     9.3180     2.1190   -35.5890 
  125.1250    67.1310     9.0700     7.5260     9.1520     2.1170   -35.5160 
  125.2500    64.1610     9.9040     7.8530     9.4770     2.1360   -35.4350 
  125.3750    63.9340     9.7760     7.9780     9.7830     2.1710   -35.3430 
  125.5000    65.7040     9.1590     7.8660     9.5260     2.2070   -35.2400 
  125.6250    67.5090     8.7620     7.5340     8.7000     2.2250   -35.1260 
  125.7500    68.9970     8.5200     7.0510     8.1340     2.2010   -35.0030 
  125.8750    66.7300     8.2520     6.5480     8.0040     2.1530   -34.8720 
  126.0000    66.7590     7.6810     6.1160     8.2940     2.1220   -34.7400 
  126.1250    66.7310     7.4140     5.7960     8.2140     2.1170   -34.6110 
  126.2500    69.3590     7.1650     5.5280     7.5000     2.1300   -34.4910 
  126.3750    74.7180     6.7430     5.2990     6.4950     2.1510   -34.3820 
  126.5000    76.4370     6.5890     5.2220     6.1840     2.1730   -34.2870 
  126.6250    78.7040     6.6420     5.3680     7.2670     2.1850   -34.2100 
  126.7500    75.2990     6.9960     5.7030     8.2040     2.1740   -34.1420 
  126.8750    71.0210     7.4610     6.0830     8.8790     2.1470   -34.0760 
  127.0000    67.9820     7.6170     6.3990     9.3810     2.1160   -34.0020 
  127.1250    66.7420     7.3970     6.5880     9.7260     2.0940   -33.9100 
  127.2500    66.7920     7.3820     6.6520     9.7310     2.0920   -33.7860 
  127.3750    68.2500     7.2230     6.6690     9.8570     2.1030   -33.6080 
  127.5000    67.1400     7.4100     6.7880     9.7930     2.1210   -33.3700 
  127.6250    68.8080     7.5860     6.9300     9.7010     2.1360   -33.0690 
  127.7500    72.3350     7.7680     7.0340     9.7810     2.1450   -32.7050 
  127.8750    75.7590     8.0030     7.0810    10.1340     2.1450   -32.2770 
  128.0000    78.7410     8.1960     7.1110    10.6480     2.1410   -31.7910 
  128.1250    74.5310     8.4810     7.0230    10.1880     2.1340   -31.2480 
  128.2500    73.2940     8.1960     6.7110     9.2390     2.1410   -30.6710 
  128.3750    72.4400     7.6320     6.2100     8.2900     2.1640   -30.0780 
  128.5000    75.4110     6.8670     5.6440     7.0840     2.2000   -29.4840 
  128.6250    83.1270     6.0340     5.1170     5.7420     2.2400   -28.9070 
  128.7500    89.6740     5.4430     4.6490     5.2840     2.2740   -28.3620 
  128.8750    98.1750     5.1590     4.3680     5.1080     2.2880   -27.8820 
  129.0000   100.1200     5.0950     4.2440     5.2010     2.2870   -27.2310 
  129.1250    98.3000     5.2170     4.3250     5.3270     2.2850   -26.8610 
  129.2500    98.2660     5.4240     4.5200     5.3790     2.2830   -26.7160 
  129.3750   101.5010     5.6320     4.7120     5.3350     2.2810   -26.6460 
  129.5000   101.8250     5.8270     4.8400     5.2570     2.2730   -26.6450 
  129.6250   102.1490     5.9490     4.9510     5.5510     2.2640   -26.7070 
  129.7500    97.9430     5.9310     4.9330     6.0610     2.2520   -26.8100 
  129.8750    95.0530     5.7450     4.8700     6.2570     2.2400   -26.9390 
  130.0000    95.1250     5.5100     4.7900     6.0060     2.2320   -27.0860 
  130.1250    97.3160     5.3860     4.7680     5.5870     2.2300   -27.2420 
  130.2500    99.0880     5.4970     4.9670     5.7790     2.2300   -27.4000 
  130.3750    96.1730     6.0060     5.3420     9.6280     2.2310   -27.5530 
  130.5000    92.1090     6.7220     5.9150    13.0350     2.2250   -27.6980 
  130.6250    87.6120     7.3760     6.4680    12.3550     2.2120   -27.8330 
  130.7500    85.2880     7.6610     6.8230     9.9520     2.1900   -27.9590 
  130.8750    85.6500     7.4250     6.8390     8.5430     2.1620   -28.0770 
  131.0000    85.1210     6.8010     6.4460     7.9400     2.1370   -28.1900 
  131.1250    85.6070     6.2280     5.9020     7.1410     2.1400   -28.3100 
  131.2500    88.1220     5.8520     5.5150     6.1790     2.1640   -28.4470 
  131.3750    88.1550     5.6530     5.3160     5.7940     2.2010   -28.6130 
  131.5000    85.9710     5.5440     5.2400     5.8990     2.2380   -28.8180 
  131.6250    82.9040     5.4740     5.2280     6.1690     2.2650   -29.0710 
  131.7500    79.6890     5.5060     5.2980     6.3720     2.2790   -29.3810 
  131.8750    85.8420     5.9550     5.7650     6.2870     2.2810   -29.7650 
  132.0000    92.5360     7.0040     6.9730     7.3250     2.2930   -30.2110 
  132.1250    92.5420     9.1620     9.1890    11.3970     2.3290   -30.7080 
  132.2500    87.8090    12.9000    12.6730    21.5300     2.3970   -31.2470 
  132.3750    81.4060    17.7640    17.0320    35.9670     2.4900   -31.8150 
  132.5000    73.4140    21.7460    20.7210    44.9940     2.5860   -32.3960 
  132.6250    72.5230    18.0850    17.3880    35.3220     2.6100   -32.9700 
  132.7500    68.8570    13.0790    13.0860    18.7470     2.5430   -33.5170 
  132.8750    65.4710     9.3500     9.6360    10.1710     2.4120   -34.0240 
  133.0000    63.4040     7.2640     7.4230     8.0990     2.2690   -34.4840 
  133.1250    63.1970     6.3700     6.3020     7.7110     2.1620   -34.8880 
  133.2500    65.4640     6.1700     6.0590     7.9540     2.1160   -35.2360 
  133.3750    67.7310     6.6000     6.3320     8.2190     2.1140   -35.5180 
  133.5000    70.5400     7.1470     6.7420     8.4050     2.1230   -35.7510 
  133.6250    72.2180     7.5520     7.0560     8.5830     2.1310   -35.9470 
  133.7500    72.7660     7.5310     7.1110     8.8070     2.1310   -36.1160 
  133.8750    72.7080     7.1080     6.9310     9.1260     2.1240   -36.2670 
  134.0000    72.4500     6.7940     6.8070     9.5380     2.1250   -36.4100 
  134.1250    71.8030     7.1210     7.4900     9.2480     2.1900   -36.5570 
  134.2500    71.9680     8.3010     8.7530     8.7260     2.2950   -36.7150 
  134.3750    72.6010    10.3010    10.3490    16.5030     2.3820   -36.8850 
  134.5000    73.0920    12.3840    11.7150    23.4630     2.4150   -37.0670 
  134.6250    73.3840    13.2750    12.1160    21.0200     2.3780   -37.2580 
  134.7500    74.1650    11.5040    10.8420    11.7490     2.2820   -37.4530 
  134.8750    69.9550     9.0230     8.7320     9.6700     2.2060   -37.6390 
  135.0000    66.2200     7.5910     7.1460     8.9530     2.1670   -37.8040 
  135.1250    63.6590     6.9880     6.3500     8.7110     2.1460   -37.9380 
  135.2500    62.7770     6.9990     6.2360     8.9760     2.1320   -38.0330 
  135.3750    63.9150     7.3320     6.4870     9.8030     2.1180   -38.0820 
  135.5000    67.0940     7.6200     6.6960    10.7980     2.1050   -38.0810 
  135.6250    68.7130     7.6990     6.8050    10.8100     2.0980   -38.0220 
  135.7500    73.1780     7.6780     6.8390    10.0080     2.1000   -37.9170 
