~V
VERS. 2.00: Ver 2.00
~W
STRT.M 20.0000:
STOP.M 297.0000:
STEP.M 0.1250:
NULL. -999.2500:
UWI. F10080:
~C
DEPT.M :
GR.API :
RML.OHMM :
RI. :
RXO.OHMM :
DEN.GM/CC :
SP.MV :
~A
# ...
   71.5000    66.3160    10.9350     8.3540    10.3020     2.1280   -41.4330 
   71.6250    65.7820    10.8060     8.3800    11.2480     2.1480   -41.3130 
   71.7500    64.4810    10.6400     8.3020    10.9350     2.1660   -41.1940 
   71.8750    62.8620    10.2120     8.1780    11.5930     2.1690   -41.0800 
   72.0000    65.7380     9.9660     8.0850    12.1070     2.1640   -40.9740 
   72.1250    69.2250     9.9410     8.1120    12.0310     2.1600   -40.8740 
   72.2500    71.6540    10.0750     8.2550    12.0800     2.1580   -40.7810 
   72.3750    72.3170    10.4090     8.4450    12.9960     2.1590   -40.6940 
   72.5000    70.7240    11.2000     8.5820    14.6090     2.1640   -40.6090 
   72.6250    70.6430    11.1960     8.5490    12.9640     2.1650   -40.5230 
   72.7500    74.0670    10.9800     8.3640    11.9620     2.1680   -40.4330 
   72.8750    74.4810    10.4660     8.0680    11.7170     2.1720   -40.3340 
   73.0000    72.4370     9.9590     7.7800    11.7990     2.1780   -40.2240 
   73.1250    69.3900     9.9240     7.7730    11.7790     2.1840   -40.1000 
   73.2500    63.3780    10.7920     8.5050    11.7060     2.1930   -39.9600 
   73.3750    65.4830    12.7680    10.0400    13.6600     2.2340   -39.7980 
   73.5000    67.1910    15.8070    11.9260    32.6040     2.3060   -39.6170 
   73.6250    67.2110    17.5700    13.3170    69.2470     2.3720   -39.4180 
   73.7500    65.4970    17.1820    13.4980    96.1620     2.3980   -39.2010 
   73.8750    63.5710    14.9280    12.2710    84.9840     2.3660   -38.9650 
   74.0000    64.6110    12.0780    10.2730    29.6080     2.2900   -38.7110 
   74.1250    64.9340    10.7770     8.6250    14.0300     2.2000   -38.4340 
   74.2500    66.5820    10.1990     7.8410    11.1130     2.1580   -38.1370 
   74.3750    65.4760    10.3190     7.6810    11.1720     2.1400   -37.8230 
   74.5000    64.8120    10.6880     7.7490    11.1280     2.1310   -37.4950 
   74.6250    67.1210    10.7400     7.6500    10.7760     2.1250   -37.1590 
   74.7500    68.5230    10.0610     7.1440    10.2540     2.1350   -36.8240 
   74.8750    75.8900     8.9770     6.4220     8.3300     2.1720   -36.5040 
   75.0000    82.0000     8.0560     5.7890     6.9570     2.2150   -36.2160 
   75.1250    87.2290     7.3870     5.3450     6.4950     2.2470   -35.9710 
   75.2500    89.4160     7.0500     5.1300     6.3700     2.2610   -35.7800 
   75.3750    88.4240     7.0560     5.1340     6.0900     2.2600   -35.6490 
   75.5000    89.4530     7.3070     5.3020     6.0130     2.2560   -35.5840 
   75.6250    93.6630     7.7010     5.5750     6.3300     2.2570   -35.5970 
   75.7500    93.1060     8.3970     5.8900     6.7760     2.2610   -35.6640 
   75.8750    88.6850     9.1120     6.2460     7.2680     2.2580   -35.7710 
   76.0000    80.6380     9.7720     6.6160     7.8280     2.2450   -35.9010 
   76.1250    72.3500    10.2560     6.9570     8.4000     2.2210   -36.0390 
   76.2500    72.6220    10.2200     7.2130     8.7210     2.1960   -36.1670 
   76.3750    70.0310    10.3570     7.2810     8.9990     2.1780   -36.2580 
   76.5000    72.2090    10.4350     7.2960     9.0700     2.1670   -36.2980 
   76.6250    70.9940    10.6470     7.2760     8.9110     2.1620   -36.2800 
   76.7500    68.9560    10.7790     7.2630     8.9780     2.1580   -36.1960 
   76.8750    68.3320    10.6710     7.2760     9.5000     2.1530   -36.0420 
   77.0000    63.2140    10.5410     7.2800     9.9500     2.1440   -35.8140 
   77.1250    61.5140    10.3810     7.3520    10.0440     2.1240   -35.5020 
   77.2500    61.2050    10.4360     7.4220     9.8560     2.0940   -35.1270 
   77.3750    61.0040    10.3380     7.3230     9.6030     2.0690   -34.7010 
   77.5000    61.2230     9.9730     7.0230     9.4400     2.0650   -34.2370 
   77.6250    63.3260     9.3450     6.5500     9.0980     2.0990   -33.7480 
   77.7500    69.5270     8.4760     5.9440     7.6670     2.1700   -33.2520 
   77.8750    78.2710     7.6090     5.3670     6.8240     2.2420   -32.7730 
   78.0000    88.2070     7.0270     4.9240     6.4370     2.2810   -32.3320 
   78.1250    93.7510     6.7000     4.6280     6.0190     2.2950   -31.9400 
   78.2500    95.3040     6.7060     4.5750     5.7630     2.3020   -31.6090 
   78.3750    95.0920     7.0330     4.7920     5.8530     2.3140   -31.3450 
   78.5000    94.0890     7.4350     5.1150     5.9980     2.3360   -31.1540 
   78.6250    91.4170     7.6320     5.4500     7.0690     2.3580   -31.0500 
   78.7500    92.7220     7.8480     5.5800     9.8440     2.3810   -31.0130 
   78.8750    94.9580     7.8830     5.5640     9.0950     2.4000   -31.0320 
   79.0000    96.8180     7.7510     5.4130     6.8710     2.3980   -31.1000 
   79.1250    97.7770     7.5140     5.1830     6.2910     2.3630   -31.2080 
   79.2500    97.4540     7.1720     5.0340     6.9640     2.3040   -31.3490 
   79.3750    93.0020     7.2920     5.1440     7.0810     2.2480   -31.5160 
   79.5000    87.4210     7.9630     5.6090     6.7270     2.2250   -31.6970 
   79.6250    81.7930     9.0110     6.2790     7.0420     2.2320   -31.8850 
   79.7500    77.6780    10.2060     6.9830     8.0630     2.2620   -32.0760 
   79.8750    76.8940    11.2100     7.5250     9.0870     2.2990   -32.2650 
   80.0000    81.0670    11.5700     7.6870     8.9670     2.3230   -32.4480 
   80.1250    83.3340    10.6750     7.1820     7.9930     2.3060   -32.6190 
   80.2500    85.5340     9.3590     6.4140     7.2570     2.2670   -32.7760 
   80.3750    87.5700     8.2590     5.7150     6.8820     2.2290   -32.9150 
   80.5000    89.3770     7.6840     5.3180     6.8490     2.2040   -33.0330 
   80.6250    90.4280     7.7160     5.3240     7.0880     2.1900   -33.1260 
   80.7500    89.3750     8.2690     5.6580     7.5520     2.1790   -33.1910 
   80.8750    84.1930     9.2660     6.2200     9.0000     2.1900   -33.2170 
   81.0000    82.9920    10.1230     6.7450    10.6120     2.2220   -33.2080 
   81.1250    81.5150    10.6620     7.0750    10.4880     2.2610   -33.1650 
   81.2500    80.7900    10.5140     7.0450     9.2600     2.2850   -33.0920 
   81.3750    81.8720     9.6420     6.6120     8.2660     2.2810   -32.9930 
   81.5000    82.2820     8.6920     5.9530     8.1540     2.2530   -32.8780 
   81.6250    86.9770     7.7090     5.2700     6.6740     2.2360   -32.7610 
   81.7500    93.6640     6.9650     4.7260     5.3240     2.2380   -32.6580 
   81.8750    99.1830     6.3260     4.2820     5.0210     2.2440   -32.5820 
   82.0000   103.3090     5.8700     3.9760     5.1620     2.2530   -32.5420 
   82.1250   105.9460     5.7200     3.8780     4.9980     2.2610   -32.5440 
   82.2500   105.2430     5.9300     4.0530     4.6660     2.2640   -32.5920 
   82.3750   101.8430     6.6340     4.5560     5.4160     2.2560   -32.6910 
   82.5000    93.7950     7.7320     5.2550     7.2320     2.2260   -32.8230 
   82.6250    86.7360     9.0770     6.0030     8.6160     2.1880   -32.9750 
   82.7500    80.5660    10.0490     6.5410     9.0810     2.1560   -33.1370 
   82.8750    77.0100    10.0770     6.6390     8.8340     2.1410   -33.2990 
   83.0000    84.2950     9.0650     6.2220     8.5400     2.1460   -33.4530 
   83.1250    87.5330     8.0050     5.6150     7.1150     2.1670   -33.5870 
   83.2500    93.9590     7.3620     5.2010     6.4140     2.1860   -33.7040 
   83.3750    97.5680     7.1630     5.0640     6.4820     2.1990   -33.8040 
   83.5000    97.7330     7.3480     5.1700     7.2490     2.2030   -33.8900 
   83.6250    95.7210     7.8040     5.4340     8.3170     2.1980   -33.9650 
   83.7500    92.2300     8.3880     5.7630     8.8580     2.1850   -34.0300 
   83.8750    84.3760     8.6880     5.9760     9.0220     2.1730   -34.0870 
   84.0000    79.5120     8.7190     6.1120     8.4390     2.1700   -34.1350 
   84.1250    78.2160     8.7080     6.1990     7.4390     2.1770   -34.1750 
   84.2500    78.0890     8.7780     6.2970     7.3550     2.1900   -34.2070 
