~V
VERS. 2.00: Ver 2.00
~W
STRT.M 20.0000:
STOP.M 297.0000:
STEP.M 0.1250:
NULL. -999.2500:
UWI. F10080:
~C
DEPT.M :
GR.API :
RML.OHMM :
RI. :
RXO.OHMM :
DEN.GM/CC :
SP.MV :
~A
# ...
   58.6250    67.6650     3.5770     2.5700     5.6240     2.0720    -5.9690 
   58.7500    68.4460     5.1850     3.8700     5.7390     1.9870   -11.1760 
   58.8750    65.7140     5.9410     4.9390     6.5460     1.9230   -15.8540 
   59.0000    66.3620     5.9290     5.1320     7.0230     1.8800   -19.9450 
   59.1250    67.0090     4.7700     4.9440     7.5890     1.8450   -23.2830 
   59.2500    76.6690     4.4920     5.1300     6.7810     1.8570   -26.0310 
   59.3750    83.0030     4.7350     5.6730     6.5000     1.9340   -28.2500 
   59.5000    84.1810     5.4280     6.6450     7.6320     2.0520   -30.0050 
   59.6250    80.8880     6.6110     8.0380     9.6370     2.1700   -31.3680 
   59.7500    70.2940     8.3020     9.6230    10.2480     2.2590   -32.4140 
   59.8750    66.8930     9.7100    10.7310    11.1950     2.3100   -33.1780 
   60.0000    64.9400     9.6800    10.6040    10.6830     2.3630   -33.7790 
   60.1250    65.7030     8.8120     9.6690     9.5530     2.3830   -34.2570 
   60.2500    66.2980     7.7820     8.4820     8.9530     2.3520   -34.6380 
   60.3750    64.6720     7.1140     7.5510     9.4520     2.2740   -34.9390 
   60.5000    63.6630     6.9630     7.1510    10.2840     2.1840   -35.1710 
   60.6250    65.9300     7.3460     7.3300    10.7690     2.1340   -35.3260 
   60.7500    68.1970     8.0180     7.7410    10.5760     2.1120   -35.4190 
   60.8750    70.7120     8.5980     8.1000    10.3260     2.1060   -35.4540 
   61.0000    71.2100     8.8900     8.2480    10.2400     2.1110   -35.4350 
   61.1250    69.9990     8.8360     8.1280    10.3230     2.1220   -35.3680 
   61.2500    73.8600     8.4860     7.7740    10.4740     2.1390   -35.2580 
   61.3750    75.8030     8.0200     7.3060     9.1770     2.1610   -35.1090 
   61.5000    80.6430     7.5060     6.8440     7.7500     2.1840   -34.9400 
   61.6250    82.1760     7.1750     6.5360     7.6400     2.2070   -34.7580 
   61.7500    83.2130     7.0980     6.4300     7.7620     2.2270   -34.5710 
   61.8750    85.9070     7.2910     6.5410     7.1600     2.2370   -34.3840 
   62.0000    84.2030     7.7880     6.8980     7.1370     2.2350   -34.2020 
   62.1250    82.2600     8.4070     7.3130     9.0850     2.2190   -34.0290 
   62.2500    78.4730     8.8400     7.5640     9.2570     2.2050   -33.8660 
   62.3750    77.4920     8.8120     7.5040     9.4240     2.1980   -33.7130 
   62.5000    79.5820     8.2390     7.0740     9.0810     2.2080   -33.5710 
   62.6250    84.7880     7.2460     6.3360     7.5850     2.2360   -33.4430 
   62.7500    95.9760     6.1880     5.4980     5.8620     2.2730   -33.3320 
   62.8750   102.4530     5.6470     4.9360     5.4940     2.3070   -33.2490 
   63.0000   106.5580     5.2130     4.5960     5.5520     2.3310   -33.1960 
   63.1250   107.1890     5.1930     4.4930     5.7260     2.3460   -33.1760 
   63.2500   106.6110     5.5300     4.5760     5.8170     2.3530   -33.1930 
   63.3750   106.7960     6.1290     4.7900     5.8320     2.3540   -33.2490 
   63.5000   106.4230     7.1090     5.1230     6.0590     2.3450   -33.3420 
   63.6250   102.5360     7.7660     5.4760     6.5500     2.3370   -33.4770 
   63.7500    98.9800     8.1020     5.7060     6.8750     2.3280   -33.6420 
   63.8750   100.0220     7.9930     5.8230     6.8480     2.3150   -33.8290 
   64.0000   102.5670     7.7790     5.8410     6.7380     2.2960   -34.0320 
   64.1250   102.1580     7.7220     5.8440     6.8940     2.2770   -34.2460 
   64.2500    97.8350     7.5940     6.0320     7.4290     2.2670   -34.4640 
   64.3750    91.2770     8.4740     6.6230     7.8610     2.2780   -34.6770 
   64.5000    85.8390     9.3370     7.4420     8.3450     2.3130   -34.8810 
   64.6250    81.4540    10.4600     8.2030     9.9110     2.3450   -35.0720 
   64.7500    76.7960    11.2170     8.6320    12.1260     2.3550   -35.2460 
   64.8750    71.9330    11.0090     8.5430    13.3090     2.3340   -35.4040 
   65.0000    70.3970    10.0320     7.9290    10.8260     2.2770   -35.5440 
   65.1250    74.6070     8.7360     7.0370     8.0510     2.2190   -35.6680 
   65.2500    79.8720     7.8120     6.3070     7.3230     2.1910   -35.7860 
   65.3750    84.3830     7.3370     5.8810     7.2090     2.1870   -35.9050 
   65.5000    86.3900     7.2300     5.7500     7.1770     2.2000   -36.0320 
   65.6250    85.7420     7.2850     5.8110     7.1740     2.2170   -36.1770 
   65.7500    85.0890     7.2170     5.9310     7.3270     2.2280   -36.3440 
   65.8750    84.1180     7.3000     6.0580     7.0880     2.2210   -36.5480 
   66.0000    85.7850     7.4730     6.2510     6.7680     2.2090   -36.7840 
   66.1250    86.4590     7.8520     6.4880     7.1610     2.1960   -37.0470 
   66.2500    86.6720     8.3200     6.7550     7.9360     2.1810   -37.3350 
   66.3750    86.6000     8.7470     7.0190     8.4320     2.1650   -37.6400 
   66.5000    82.7430     9.1510     7.2180     8.3040     2.1450   -37.9560 
   66.6250    80.8000     8.9190     7.2470     8.9760     2.1250   -38.2760 
   66.7500    77.8010     8.5500     7.1930     9.6770     2.1140   -38.5900 
   66.8750    76.2060     8.5290     7.4650     9.8010     2.1320   -38.8980 
   67.0000    75.6060     9.2690     8.3400     9.5980     2.1960   -39.1990 
   67.1250    74.0520    11.1890    10.0590    10.9100     2.3090   -39.4940 
   67.2500    69.2030    14.7660    12.8920    17.7370     2.4500   -39.7860 
   67.3750    64.9120    20.7560    17.0870    36.6360     2.5420   -40.0830 
   67.5000    64.6470    26.0220    20.6410    46.1300     2.5540   -40.3890 
   67.6250    65.0960    25.2800    20.3480    38.9080     2.4970   -40.7040 
   67.7500    66.2600    20.2950    17.0940    24.4260     2.4030   -41.0300 
   67.8750    66.7780    15.0140    13.1980    14.5750     2.2960   -41.3630 
   68.0000    60.7090    11.7060    10.3130    12.0810     2.1820   -41.6990 
   68.1250    60.0610    10.4260     8.9400    11.4150     2.1400   -42.0280 
   68.2500    59.0830     9.8460     8.2900    11.2690     2.1090   -42.3400 
   68.3750    60.8710     9.6660     8.0750    11.2930     2.0930   -42.6290 
   68.5000    63.8950     9.4250     8.0390    11.2940     2.0900   -42.9640 
   68.6250    66.5810     9.0070     8.0360    11.1660     2.0990   -43.3200 
   68.7500    70.6860     9.0320     8.1150    10.8550     2.1130   -43.4500 
   68.8750    68.1760     9.6480     8.3320    10.5100     2.1280   -43.5270 
   69.0000    65.6010    10.7130     8.5770    10.9430     2.1390   -43.5610 
   69.1250    60.3680    11.3080     8.8040    11.7870     2.1480   -43.5550 
   69.2500    56.8860    11.0850     8.8140    12.1400     2.1530   -43.5120 
   69.3750    58.7230    10.2600     8.4980    11.5260     2.1540   -43.4370 
   69.5000    62.5700     9.6010     8.0250    10.6600     2.1520   -43.3340 
   69.6250    69.0470     9.2210     7.7350    10.2700     2.1470   -43.2080 
   69.7500    72.0890     9.7290     8.0280    10.2780     2.1450   -43.0710 
   69.8750    70.8160    10.7190     8.7650    10.6510     2.1520   -42.9290 
   70.0000    66.6270    12.0870     9.7530    11.1740     2.1770   -42.7890 
   70.1250    61.9700    13.4280    10.6740    11.5230     2.2180   -42.6540 
   70.2500    59.2820    13.6220    11.0360    11.3520     2.2570   -42.5260 
   70.3750    60.5780    12.2000    10.3750    10.9860     2.2540   -42.4110 
   70.5000    60.5520    10.8630     9.3160    11.1650     2.2040   -42.3030 
   70.6250    62.1240     9.8300     8.3300    11.5560     2.1430   -42.2000 
   70.7500    63.8320     9.2690     7.6660    12.1410     2.0990   -42.0990 
   70.8750    64.0220     9.1760     7.4110    12.6660     2.0860   -41.9990 
   71.0000    63.9900     9.2910     7.5250    12.2550     2.0980   -41.8950 
   71.1250    62.0470     9.6410     7.7910    11.0400     2.1010   -41.7860 
   71.2500    62.5500    10.1620     8.0410    10.1710     2.1050   -41.6720 
   71.3750    64.7500    10.6890     8.2370     9.8130     2.1130   -41.5540 
