~V
VERS. 2.00: Ver 2.00
~W
STRT.M 20.0000:
STOP.M 297.0000:
STEP.M 0.1250:
NULL. -999.2500:
UWI. F10080:
~C
DEPT.M :
GR.API :
RML.OHMM :
RI. :
RXO.OHMM :
DEN.GM/CC :
SP.MV :
~A
# ...
  251.7500    55.0030    39.0350    39.4540    37.3410     2.2020   -37.1760 
  251.8750    57.8370    39.4890    39.8540    46.1500     2.2360   -37.1850 
  252.0000    55.6450    40.3140    40.6630    77.6510     2.2580   -37.1930 
  252.1250    55.7870    41.2610    41.6750    81.0900     2.2600   -37.1990 
  252.2500    57.2910    42.3460    42.7870    59.9710     2.2470   -37.2000 
  252.3750    59.1120    43.4300    43.8150    35.4680     2.2270   -37.1940 
  252.5000    61.8370    44.1060    44.4320    33.1040     2.2130   -37.1820 
  252.6250    61.1890    43.4920    43.7530    73.8830     2.2040   -37.1600 
  252.7500    61.9570    41.2740    41.6420   115.5350     2.1910   -37.1330 
  252.8750    62.4370    38.1650    38.6760    97.5230     2.1780   -37.1020 
  253.0000    62.1040    34.8160    35.4580    59.1360     2.1710   -37.0710 
  253.1250    61.7550    31.8700    32.6000    36.9300     2.1740   -37.0440 
  253.2500    62.7720    29.8590    30.6120    32.8720     2.1760   -37.0230 
  253.3750    60.3430    29.1480    29.8830    31.3360     2.1820   -37.0130 
  253.5000    60.0390    29.6150    30.2530    29.7290     2.1980   -37.0170 
  253.6250    60.4760    30.5390    31.0580    30.4240     2.2180   -37.0370 
  253.7500    61.2770    31.5660    31.9580    35.1560     2.2320   -37.0730 
  253.8750    62.1600    32.4120    32.7080    40.9870     2.2320   -37.1250 
  254.0000    62.4200    32.8800    33.1730    40.7150     2.2210   -37.1950 
  254.1250    57.8860    33.3100    33.6660    34.6290     2.2000   -37.2830 
  254.2500    56.6810    34.0510    34.4770    45.9290     2.1870   -37.3880 
  254.3750    56.6630    35.4650    35.8500    72.3640     2.1730   -37.5070 
  254.5000    57.7560    37.7200    37.9160   106.2130     2.1610   -37.6370 
  254.6250    59.3200    40.6140    40.4730   142.8220     2.1510   -37.7760 
  254.7500    59.8450    43.5580    42.9630   173.6270     2.1430   -37.9230 
  254.8750    59.8450    45.6360    44.6120    90.7610     2.1430   -38.0750 
  255.0000    58.7110    46.4750    45.0240    61.5960     2.1490   -38.2290 
  255.1250    58.9460    46.9260    45.1150    84.8740     2.1610   -38.3830 
  255.2500    59.6100    47.5250    45.4370    93.3330     2.1750   -38.5370 
  255.3750    59.3990    48.5630    46.3070    65.3060     2.1870   -38.6870 
  255.5000    57.8530    50.0300    47.7580    48.7420     2.1990   -38.8320 
  255.6250    57.2050    51.4530    49.3160    54.5920     2.2050   -38.9700 
  255.7500    59.3920    52.8340    50.7430    57.6390     2.2110   -39.0980 
  255.8750    61.5460    53.8020    51.6140    52.6580     2.2090   -39.2140 
  256.0000    63.0270    52.4130    50.1970    51.5420     2.2000   -39.3160 
  256.1250    62.7490    46.1240    44.4530    65.2440     2.1950   -39.4030 
  256.2500    59.4930    33.3300    33.3090    95.1850     2.2120   -39.4720 
  256.3750    59.9780    21.8820    23.1910   114.4110     2.2630   -39.5180 
  256.5000    59.4720    15.5830    16.7280    81.8580     2.3240   -39.5410 
  256.6250    63.6380    12.2850    12.9750    39.1340     2.3650   -39.5450 
  256.7500    68.5360    11.0910    11.5270    14.1210     2.3750   -39.5290 
  256.8750    71.3580    11.4710    11.9570    12.6970     2.3550   -39.4970 
  257.0000    72.6880    13.2020    13.8080    18.1380     2.3210   -39.4520 
  257.1250    66.5340    16.7790    17.0670    24.5550     2.2920   -39.3980 
  257.2500    62.3670    21.1040    21.0680    28.1530     2.2710   -39.3430 
  257.3750    60.4510    24.3440    24.3360    28.1450     2.2580   -39.2940 
  257.5000    61.1750    26.1120    26.2980    29.1630     2.2490   -39.2570 
  257.6250    62.8490    26.6000    26.9390    31.9470     2.2430   -39.2360 
  257.7500    62.2130    26.3270    26.7230    31.8450     2.2390   -39.2350 
  257.8750    62.6990    26.0420    26.3980    30.3440     2.2370   -39.2620 
  258.0000    61.9080    26.2910    26.5690    30.6980     2.2330   -39.3160 
  258.1250    62.6880    27.1470    27.2340    30.5430     2.2240   -39.3940 
  258.2500    61.6090    28.7450    28.4390    32.0840     2.2130   -39.4970 
  258.3750    58.0520    31.0500    30.1480    36.8540     2.2030   -39.6230 
  258.5000    55.7610    33.7870    32.1950    43.7060     2.1990   -39.7690 
  258.6250    53.1700    36.3330    34.1160    45.3910     2.1990   -39.9350 
  258.7500    53.9850    37.7770    35.3520    51.6220     2.1980   -40.1140 
  258.8750    56.3760    38.2160    35.7980    51.2480     2.1940   -40.3020 
  259.0000    57.9020    38.1570    35.8100    44.4310     2.1890   -40.4930 
  259.1250    57.9240    38.0320    35.7340    37.2030     2.1870   -40.6830 
  259.2500    57.8500    38.0000    35.7200    37.4540     2.1870   -40.8690 
  259.3750    55.9070    37.9780    35.7220    37.7050     2.1920   -41.0430 
  259.5000    57.0870    37.8730    35.6400    36.2610     2.1940   -41.2020 
  259.6250    58.2670    37.6940    35.5410    36.2220     2.1950   -41.3440 
  259.7500    59.3930    37.5000    35.4500    37.9580     2.1930   -41.4670 
  259.8750    60.1510    37.4390    35.4870    40.2450     2.1890   -41.5730 
  260.0000    59.4470    37.7400    35.8790    41.1480     2.1820   -41.6600 
  260.1250    58.0710    38.7430    36.8460    42.2830     2.1740   -41.7280 
  260.2500    57.4050    40.1410    38.1880    41.1790     2.1660   -41.7790 
  260.3750    57.8790    41.6490    39.5760    41.2550     2.1610   -41.8180 
  260.5000    60.2410    42.8850    40.6960    42.7310     2.1560   -41.8460 
  260.6250    62.6470    43.6100    41.3760    44.7380     2.1490   -41.8660 
  260.7500    61.3270    43.8440    41.6630    45.9270     2.1440   -41.8810 
  260.8750    61.6510    43.8940    41.8540    44.1840     2.1460   -41.8920 
  261.0000    60.2700    43.4160    41.5980    51.0180     2.1620   -41.9030 
  261.1250    59.1440    42.3010    40.8430    72.6230     2.1840   -41.9160 
  261.2500    59.6830    40.4140    39.4670    76.2140     2.2040   -41.9310 
  261.3750    61.2050    37.8930    37.5490    53.8720     2.2180   -41.9490 
  261.5000    61.4800    35.1660    35.3960    35.1670     2.2290   -41.9690 
  261.6250    65.0420    32.5460    33.2070    32.1310     2.2430   -41.9900 
  261.7500    64.2010    30.0600    31.0230    44.5920     2.2600   -42.0100 
  261.8750    63.2920    27.7560    28.9700    67.4780     2.2640   -42.0270 
  262.0000    63.0690    25.8910    27.2630    65.6710     2.2540   -42.0390 
  262.1250    62.8850    24.6690    26.0880    38.1040     2.2340   -42.0450 
  262.2500    61.6650    24.1850    25.5890    26.4030     2.2120   -42.0450 
  262.3750    61.3410    24.7710    26.2440    30.7770     2.2020   -42.0380 
  262.5000    55.9730    26.1830    27.7090    34.4030     2.2110   -42.0290 
  262.6250    55.5520    28.6890    30.1970    36.8970     2.2420   -42.0200 
  262.7500    57.8190    32.2670    33.7030    36.9100     2.2920   -42.0150 
  262.8750    61.8840    37.0360    38.2940    34.8090     2.3610   -42.0170 
  263.0000    69.9230    43.2670    44.1060    33.8970     2.4470   -42.0280 
  263.1250    69.5990    50.6070    50.7310    45.1540     2.5550   -42.0520 
  263.2500    68.2800    59.1330    58.1620    98.5580     2.6540   -42.0910 
  263.3750    67.3720    67.8130    65.5650   132.6340     2.7190   -42.1430 
  263.5000    66.1050    75.8470    72.4720   140.1860     2.7390   -42.2050 
  263.6250    65.1070    82.7030    78.6170   143.3380     2.7220   -42.2750 
  263.7500    66.4510    88.2630    83.9080   172.8800     2.6950   -42.3470 
  263.8750    66.4510    93.1590    88.2030   161.4170     2.6820   -42.4170 
  264.0000    71.2850    96.9710    90.7230   108.5490     2.6780   -42.4730 
  264.1250    70.6410    94.2100    87.0230   103.9850     2.6780   -42.5100 
  264.2500    65.4920    76.2450    70.9520   117.7930     2.6830   -42.5220 
  264.3750    58.0920    46.8500    46.0600   131.6700     2.6890   -42.5030 
  264.5000    50.1840    23.3490    26.0760   160.2220     2.6920   -42.4500 
