~V
VERS. 2.00: Ver 2.00
~W
STRT.M 50.0000:
STOP.M 254.0000:
STEP.M 0.1250:
NULL. -999.2500:
UWI. F10088:
~C
DEPT.M :
GR.API :
RML.OHMM :
RI. :
RXO.OHMM :
DEN.GM/CC :
SP.MV :
~A
# ...
  153.0000    51.9320    33.2170    28.7150    45.0440     2.1460     5.8300 
  153.1250    53.1810    30.5380    26.7440    33.2660     2.1500     5.6430 
  153.2500    54.7720    27.5260    24.3200    24.2230     2.1590     5.4800 
  153.3750    55.9280    25.0960    22.2100    20.7270     2.1690     5.3440 
  153.5000    58.5560    23.9230    21.0790    19.6020     2.1760     5.2350 
  153.6250    62.7400    23.9010    20.9600    19.0380     2.1760     5.1620 
  153.7500    62.0310    24.4460    21.3730    18.7020     2.1690     5.1160 
  153.8750    56.7230    25.2760    22.0760    18.5950     2.1590     5.0960 
  154.0000    50.9930    26.2320    22.9090    18.9030     2.1500     5.0960 
  154.1250    48.7290    27.2070    23.7490    19.9280     2.1450     5.1140 
  154.2500    50.7140    28.1240    24.5090    21.9730     2.1470     5.1450 
  154.3750    54.2550    28.7780    25.0470    23.3950     2.1550     5.1850 
  154.5000    54.9120    29.1100    25.3470    22.8150     2.1630     5.2290 
  154.6250    54.9410    29.1140    25.3830    22.7530     2.1670     5.2740 
  154.7500    54.2440    28.9860    25.2980    23.0650     2.1660     5.3180 
  154.8750    53.0670    28.9820    25.2890    23.1030     2.1640     5.3620 
  155.0000    53.2890    29.3030    25.5230    22.9790     2.1620     5.4050 
  155.1250    52.9670    29.6350    25.7390    24.8780     2.1710     5.4480 
  155.2500    55.8650    29.4960    25.6110    27.4280     2.1790     5.4930 
  155.3750    57.9270    28.8770    25.1840    26.6100     2.1830     5.5410 
  155.5000    59.7270    27.9420    24.5740    23.5610     2.1800     5.5940 
  155.6250    61.6250    26.9160    23.9100    20.9460     2.1740     5.6520 
  155.7500    61.2190    26.0030    23.2930    20.6540     2.1660     5.7170 
  155.8750    58.4030    25.4540    22.8890    20.6010     2.1550     5.7910 
  156.0000    55.2510    25.3800    22.8390    19.7950     2.1460     5.8730 
  156.1250    52.6440    25.5480    22.9920    19.4260     2.1440     5.9630 
  156.2500    50.4960    25.8420    23.2760    19.5810     2.1500     6.0580 
  156.3750    48.9550    26.3010    23.7380    20.2230     2.1600     6.1580 
  156.5000    48.9110    27.1680    24.5830    21.7390     2.1670     6.2600 
  156.6250    47.6230    29.1910    26.4190    25.2230     2.1700     6.3620 
  156.7500    48.5510    32.6920    29.3820    30.7250     2.1740     6.4600 
  156.8750    49.4600    37.4610    33.2470    40.6980     2.1800     6.5510 
  157.0000    49.8240    42.3970    37.1070    51.3790     2.1840     6.6340 
  157.1250    49.9560    46.1090    39.9410    56.2980     2.1860     6.7060 
  157.2500    50.4560    47.4090    41.0270    49.2830     2.1830     6.7650 
  157.3750    49.1680    45.8880    39.9260    39.7760     2.1760     6.8050 
  157.5000    49.7600    44.1090    38.5540    42.7340     2.1720     6.8280 
  157.6250    50.1650    42.9540    37.5440    48.0440     2.1740     6.8340 
  157.7500    49.9300    42.4460    37.0110    48.6220     2.1810     6.8230 
  157.8750    48.6830    42.1470    36.7060    43.4780     2.1900     6.7950 
  158.0000    45.5420    41.3980    36.1150    39.5480     2.1970     6.7520 
  158.1250    44.5760    39.7730    34.9020    38.2680     2.1910     6.6920 
  158.2500    45.8940    38.5790    34.0270    36.3260     2.1790     6.6190 
  158.3750    48.3790    38.3190    33.9170    34.0300     2.1720     6.5340 
  158.5000    50.0170    39.0330    34.6130    31.2890     2.1700     6.4390 
  158.6250    48.9970    40.5800    35.9810    28.4440     2.1720     6.3330 
  158.7500    44.8140    42.7500    37.8050    26.6820     2.1760     6.2180 
  158.8750    45.1360    44.3640    39.0470    26.9280     2.1780     6.0920 
  159.0000    47.8760    44.3590    38.8910    27.5670     2.1790     5.9580 
  159.1250    50.8910    42.6300    37.3400    26.8920     2.1770     5.8180 
  159.2500    52.1070    40.0080    35.0970    25.1970     2.1740     5.6730 
  159.3750    51.4440    37.5510    32.9990    23.2020     2.1730     5.5270 
  159.5000    51.8340    36.0550    31.6240    21.2700     2.1760     5.3810 
  159.6250    54.0870    36.0350    31.3160    22.1920     2.1870     5.2410 
  159.7500    55.5340    36.8700    31.6620    23.5270     2.1910     5.1080 
  159.8750    53.7040    37.9860    32.3370    23.7050     2.1840     4.9840 
  160.0000    50.6780    38.7940    32.9340    23.5410     2.1660     4.8700 
  160.1250    48.0460    39.0100    33.2130    24.3870     2.1430     4.7670 
  160.2500    44.4140    38.8600    33.2460    26.9730     2.1210     4.6730 
  160.3750    47.0690    38.2060    32.8040    30.0570     2.1170     4.5890 
  160.5000    47.2380    37.0020    31.8640    31.4410     2.1270     4.5100 
  160.6250    48.0400    35.0490    30.3130    31.0010     2.1420     4.4340 
  160.7500    47.7370    32.4990    28.3050    28.5670     2.1580     4.3590 
  160.8750    45.8440    29.8090    26.1960    24.9300     2.1710     4.2830 
  161.0000    46.2400    27.6740    24.4870    22.2260     2.1800     4.2060 
  161.1250    48.6540    26.8000    23.8090    20.6930     2.1800     4.1240 
  161.2500    51.2030    27.0260    24.0330    20.7750     2.1700     4.0400 
  161.3750    52.1410    28.1280    24.9340    23.1930     2.1570     3.9520 
  161.5000    52.5620    29.5990    26.1140    26.3770     2.1450     3.8620 
  161.6250    53.4520    30.9010    27.1500    28.0620     2.1390     3.7680 
  161.7500    54.0900    31.6560    27.7150    26.5060     2.1420     3.6710 
  161.8750    54.5720    31.5500    27.6210    24.3050     2.1510     3.5680 
  162.0000    50.3470    31.2030    27.3750    23.4870     2.1620     3.4610 
  162.1250    46.4250    31.1240    27.3910    22.7780     2.1810     3.3480 
  162.2500    44.8200    31.7450    28.0020    22.2670     2.2160     3.2300 
  162.3750    45.7970    33.2740    29.3400    22.2450     2.2650     3.1080 
  162.5000    48.2900    35.6120    31.2540    22.7020     2.3190     2.9830 
  162.6250    48.6120    38.9470    33.7220    26.2950     2.3510     2.8570 
  162.7500    47.2520    41.4110    35.3290    30.6680     2.3610     2.7330 
  162.8750    49.5040    41.1060    34.7640    31.1070     2.3690     2.6160 
  163.0000    52.8870    38.2670    32.4080    28.1120     2.3790     2.5070 
  163.1250    55.1410    34.1100    29.2870    23.8060     2.3850     2.4100 
  163.2500    58.2280    30.1660    26.4580    20.0570     2.3780     2.3260 
  163.3750    55.6530    28.8250    25.5970    21.7840     2.3600     2.2610 
  163.5000    54.0870    29.8590    26.6570    22.7810     2.3480     2.2140 
  163.6250    51.1320    33.1990    29.5410    23.4100     2.3470     2.1820 
  163.7500    48.8140    37.8430    33.4570    27.5580     2.3440     2.1640 
  163.8750    48.2070    41.3190    36.4530    34.5090     2.3290     2.1590 
  164.0000    46.8040    39.8370    35.5090    35.1020     2.2950     2.1660 
  164.1250    48.7360    34.7130    31.5930    30.8190     2.2510     2.1800 
  164.2500    48.5130    30.0750    27.9260    22.6070     2.2180     2.1990 
  164.3750    51.7110    27.0180    25.4140    21.1050     2.2070     2.2180 
  164.5000    54.3270    26.2760    24.8110    23.8940     2.2280     2.2360 
  164.6250    53.2850    28.0860    26.4140    27.1190     2.2800     2.2500 
  164.7500    51.7760    32.1590    29.9160    31.8950     2.3530     2.2590 
  164.8750    44.4530    39.8860    36.3180    42.5920     2.4200     2.2610 
  165.0000    41.7090    46.9940    42.4920    44.8120     2.4710     2.2560 
  165.1250    42.2670    52.3990    47.2720    44.8520     2.5120     2.2450 
  165.2500    43.9170    55.3420    49.9250    54.9200     2.5380     2.2280 
  165.3750    45.0330    55.4420    50.1200    72.2860     2.5440     2.2070 
  165.5000    45.4680    52.7770    47.9630    69.6850     2.5180     2.1820 
  165.6250    42.5710    47.9990    43.8420    51.9140     2.4730     2.1550 
  165.7500    41.0220    43.6660    39.9970    45.2130     2.4440     2.1280 
