~V
VERS. 2.00: Ver 2.00
~W
STRT.M 20.0000:
STOP.M 297.0000:
STEP.M 0.1250:
NULL. -999.2500:
UWI. F10080:
~C
DEPT.M :
GR.API :
RML.OHMM :
RI. :
RXO.OHMM :
DEN.GM/CC :
SP.MV :
~A
# ...
  200.2500    62.7880    17.8880    15.7900    16.3060     2.5440   -27.1220 
  200.3750    66.0920    17.4740    15.5040    15.4070     2.5190   -27.0870 
  200.5000    69.6450    16.8930    15.0790    15.2410     2.4930   -27.0590 
  200.6250    72.4890    16.2700    14.6030    15.1930     2.4700   -27.0420 
  200.7500    74.5070    15.6660    14.1750    15.6150     2.4480   -27.0420 
  200.8750    77.7460    15.2950    13.9650    16.6300     2.4310   -27.0650 
  201.0000    76.7470    15.1650    13.9990    14.7970     2.4240   -27.1160 
  201.1250    76.1660    15.2630    14.2680    13.9990     2.4230   -27.1940 
  201.2500    73.0510    15.5570    14.7350    14.6160     2.4230   -27.3030 
  201.3750    69.1330    16.0010    15.3490    15.5780     2.4200   -27.4440 
  201.5000    73.1380    16.5220    16.0530    15.4090     2.4170   -27.6180 
  201.6250    71.1950    16.8680    16.7110    15.5710     2.4170   -27.8330 
  201.7500    72.8650    17.2040    17.2410    15.4960     2.4230   -28.0880 
  201.8750    70.1230    17.5500    17.7200    15.1890     2.4300   -28.3790 
  202.0000    68.7120    18.1690    18.3630    14.8480     2.4340   -28.7050 
  202.1250    71.1140    19.0250    19.1570    15.4720     2.4330   -29.0670 
  202.2500    71.2650    19.6340    19.7550    18.7210     2.4230   -29.4620 
  202.3750    73.8560    19.8390    20.0410    23.1810     2.4060   -29.8940 
  202.5000    74.3620    20.7820    21.1860    22.9940     2.3850   -30.3530 
  202.6250    75.6960    23.1290    23.7660    20.9230     2.3570   -30.8340 
  202.7500    75.7090    28.0420    28.6810    33.1010     2.3200   -31.3310 
  202.8750    72.9820    37.2450    37.3680    74.3360     2.2750   -31.8390 
  203.0000    68.9480    53.3850    52.2800   146.1100     2.2260   -32.3510 
  203.1250    65.1430    86.8010    83.9560   176.4990     2.1890   -32.8590 
  203.2500    63.4930   146.0270   141.6130   191.1100     2.1700   -33.3550 
  203.3750    62.0370   198.5590   194.9320   214.4490     2.1610   -33.8340 
  203.5000    61.7620   228.4490   226.0610   247.9700     2.1540   -34.2920 
  203.6250    61.9920   237.0210   234.9350   283.2910     2.1430   -34.7260 
  203.7500    59.4530   241.9470   239.9850   306.7100     2.1320   -35.1340 
  203.8750    57.7530   247.7130   245.1470   290.4270     2.1240   -35.5110 
  204.0000    56.4000   256.3430   253.1150   247.2590     2.1230   -35.8610 
  204.1250    55.3180   265.5190   260.9350   273.2500     2.1230   -36.1870 
  204.2500    53.6040   263.9170   257.8870   351.2610     2.1160   -36.4910 
  204.3750    50.8240   241.6130   234.7570   417.7670     2.1020   -36.7750 
  204.5000    47.7770   196.4320   189.8320   396.4300     2.0910   -37.0410 
  204.6250    49.0730   149.3740   145.9640   248.4800     2.0980   -37.2880 
  204.7500    52.3150   117.8650   117.4670   135.0640     2.1200   -37.5210 
  204.8750    55.2910    98.4690   100.0190    83.3240     2.1420   -37.7420 
  205.0000    56.8840    87.7290    90.1280    90.2270     2.1570   -37.9510 
  205.1250    57.0400    82.3460    85.0420   124.8750     2.1640   -38.1510 
  205.2500    56.6210    79.8360    83.1760   135.5470     2.1700   -38.3400 
  205.3750    54.6770    78.1740    82.6390    92.5280     2.2030   -38.5180 
  205.5000    56.0740    74.8370    80.6820    80.7610     2.2160   -38.6860 
  205.6250    55.6680    71.4120    78.2930    78.5310     2.2130   -38.8460 
  205.7500    56.4290    67.9270    75.5020    76.7670     2.2030   -38.9970 
  205.8750    59.3820    64.3680    72.4980    77.1700     2.1940   -39.1420 
  206.0000    60.8720    61.1310    69.8820    90.6990     2.1950   -39.2810 
  206.1250    66.7010    58.0380    67.1190   117.5210     2.2040   -39.4160 
  206.2500    69.7460    55.4780    64.5440    78.7040     2.2140   -39.5490 
  206.3750    71.2690    53.6310    62.5520    83.5890     2.2160   -39.6820 
  206.5000    72.0920    52.7520    61.3220   111.1690     2.2120   -39.8170 
  206.6250    72.5500    53.0140    61.0870   112.4210     2.2070   -39.9550 
  206.7500    72.6140    54.5130    62.2430    60.9030     2.2050   -40.0970 
  206.8750    74.9620    58.3990    65.9500    75.5120     2.2110   -40.2460 
  207.0000    75.5700    64.2160    71.8470    86.4500     2.2140   -40.4010 
  207.1250    73.5970    72.6800    80.5990   102.7950     2.2130   -40.5610 
  207.2500    67.5720    84.7710    92.7520   136.8990     2.2040   -40.7260 
  207.3750    58.9800   100.7060   108.4060   180.7050     2.1870   -40.8920 
  207.5000    52.8300   119.5010   126.9860   201.5780     2.1700   -41.0600 
  207.6250    49.2680   138.7770   145.9940   198.3840     2.1610   -41.2250 
  207.7500    50.1620   154.6250   161.3750   197.8630     2.1590   -41.3850 
  207.8750    51.5140   166.2650   172.4690   202.8820     2.1570   -41.5390 
  208.0000    52.4680   175.9890   181.3280   214.5380     2.1540   -41.6850 
  208.1250    52.4620   186.2780   190.2650   234.2390     2.1490   -41.8250 
  208.2500    50.7470   198.3000   200.5420   262.4360     2.1430   -41.9590 
  208.3750    51.3130   210.2620   211.0550   274.8760     2.1480   -42.0870 
  208.5000    48.6760   217.6250   217.8140   279.4340     2.1600   -42.2130 
  208.6250    47.9780   218.1810   218.5660   281.7120     2.1740   -42.3400 
  208.7500    45.8980   209.4410   210.6830   279.5840     2.1820   -42.4700 
  208.8750    42.4670   191.2550   193.7880   269.2650     2.1810   -42.6050 
  209.0000    43.9660   166.8110   170.7870   247.5750     2.1740   -42.7450 
  209.1250    44.8560   142.3830   147.6330   209.4190     2.1730   -42.8930 
  209.2500    47.2100   120.5500   126.6040   159.0330     2.1840   -43.0470 
  209.3750    48.7310   101.5080   107.7000   140.8220     2.1920   -43.2050 
  209.5000    50.2620    85.4330    91.3730   163.3030     2.1970   -43.3670 
  209.6250    52.0470    72.0750    77.7140   188.0050     2.2010   -43.5290 
  209.7500    52.7140    60.8370    66.3360   141.7560     2.2050   -43.6910 
  209.8750    53.6860    52.8930    58.5160    89.3270     2.2190   -43.8480 
  210.0000    55.9120    47.8000    53.7040    60.8530     2.2340   -43.9980 
  210.1250    59.3040    45.9060    52.0850    51.3020     2.2450   -44.1410 
  210.2500    63.6000    46.8630    53.3980    49.1990     2.2540   -44.2760 
  210.3750    66.3700    49.9000    56.8990    47.7050     2.2640   -44.4030 
  210.5000    63.6730    53.8520    61.2710    50.5150     2.2760   -44.5220 
  210.6250    64.3210    54.8410    62.2840    79.0410     2.2860   -44.6320 
  210.7500    61.2740    53.4300    60.7340    87.2540     2.2820   -44.7330 
  210.8750    61.3230    51.8240    58.8280    84.9490     2.2690   -44.8270 
  211.0000    60.8770    51.4760    58.0940    69.4500     2.2480   -44.9130 
  211.1250    58.1040    53.5120    59.6770    63.6190     2.2220   -44.9920 
  211.2500    56.6560    58.7000    64.2730   116.2690     2.1960   -45.0650 
  211.3750    55.3610    67.4770    72.4840   165.3630     2.1770   -45.1300 
  211.5000    55.7390    78.1920    82.8240   149.6530     2.1780   -45.1920 
  211.6250    56.1190    86.8650    91.3900   131.9030     2.1920   -45.2510 
  211.7500    56.1010    92.9000    97.3970   133.2830     2.2070   -45.3120 
  211.8750    56.5390    97.0970   101.3290   145.8550     2.2090   -45.3760 
  212.0000    59.1190   100.4070   103.8780   140.7080     2.1940   -45.4440 
  212.1250    61.5480    97.2960   100.5760   128.9420     2.1700   -45.5210 
  212.2500    61.6060    87.6760    90.5480   123.3060     2.1650   -45.6060 
  212.3750    63.2100    76.5870    79.1470   128.5800     2.1810   -45.6990 
  212.5000    65.7630    66.8290    69.0190   114.0600     2.2070   -45.7980 
  212.6250    68.9510    59.7630    61.5010    75.4340     2.2310   -45.9030 
  212.7500    73.4370    55.4060    56.8560    51.8880     2.2430   -46.0120 
  212.8750    68.5800    54.0810    55.1290    47.0600     2.2440   -46.1220 
  213.0000    67.6290    54.2490    55.0900    48.4060     2.2480   -46.2310 
