~V
VERS. 2.00: Ver 2.00
~W
STRT.M 50.0000:
STOP.M 219.0000:
STEP.M 0.1250:
NULL. -999.2500:
UWI. F10086:
~C
DEPT.M :
GR.API :
RML.OHMM :
RI. :
RXO.OHMM :
DEN.GM/CC :
SP.MV :
~A
# ...
   88.6250    74.8110     9.1600     8.1770     6.8190     2.2050    -5.3220 
   88.7500    76.8050     9.2450     8.2200     7.4900     2.2210    -5.3320 
   88.8750    79.1170     8.9700     7.9720     7.9570     2.2540    -5.3240 
   89.0000    82.5720     8.4120     7.4970     6.9640     2.2900    -5.2980 
   89.1250    83.2370     7.6990     6.9660     5.6130     2.3040    -5.2520 
   89.2500    80.9310     7.1850     6.5630     5.2780     2.3010    -5.1950 
   89.3750    77.0230     7.0810     6.5460     5.2970     2.2920    -5.1300 
   89.5000    72.0560     7.5960     7.1460     5.6810     2.2770    -5.0650 
   89.6250    66.3340     8.9130     8.5010     6.7860     2.2560    -5.0030 
   89.7500    60.3890    11.1740    10.6010     9.0480     2.2260    -4.9490 
   89.8750    57.3980    14.5220    13.4270    11.2950     2.1940    -4.9130 
   90.0000    56.8380    18.3640    16.6170    12.2060     2.1690    -4.8930 
   90.1250    58.2630    22.2810    19.9140    12.8280     2.1490    -4.8890 
   90.2500    60.6590    25.3250    22.5040    14.2360     2.1340    -4.9010 
   90.3750    63.4700    26.2340    23.3020    16.4730     2.1250    -4.9290 
   90.5000    67.4810    23.6700    21.2460    17.6530     2.1220    -4.9710 
   90.6250    73.1310    18.6820    17.3160    15.2580     2.1340    -5.0250 
   90.7500    73.1070    14.3630    13.6460    11.4480     2.1600    -5.0870 
   90.8750    68.9250    11.1170    10.6630     8.5560     2.1970    -5.1510 
   91.0000    63.3530     9.0350     8.5880     6.9920     2.2320    -5.2120 
   91.1250    60.4580     7.9340     7.4040     6.2660     2.2520    -5.2670 
   91.2500    65.2840     7.4040     6.8370     5.7890     2.2570    -5.3090 
   91.3750    70.6020     7.1540     6.6120     5.6140     2.2460    -5.3290 
   91.5000    74.5690     6.8680     6.3930     5.4460     2.2380    -5.3250 
   91.6250    75.9830     6.4820     6.0990     5.0480     2.2370    -5.2950 
   91.7500    77.2880     5.9840     5.7130     4.6920     2.2480    -5.2400 
   91.8750    80.5880     5.4270     5.2670     4.5840     2.2710    -5.1620 
   92.0000    84.3790     4.9370     4.8320     4.4000     2.3040    -5.0630 
   92.1250    85.8750     4.6460     4.5550     3.8240     2.3270    -4.9460 
   92.2500    85.7480     4.6520     4.5830     3.6670     2.3400    -4.8230 
   92.3750    83.4140     4.9150     4.8650     3.9280     2.3450    -4.7000 
   92.5000    78.0680     5.4260     5.3710     4.5280     2.3460    -4.5820 
   92.6250    71.2270     6.1840     6.0770     5.3550     2.3410    -4.4730 
   92.7500    68.5950     7.1840     6.9620     6.2850     2.3260    -4.3790 
   92.8750    67.9300     8.1840     7.7640     6.4450     2.2910    -4.3060 
   93.0000    68.6180     8.9040     8.2960     6.5780     2.2520    -4.2540 
   93.1250    68.7990     9.2100     8.5060     6.9830     2.2270    -4.2230 
   93.2500    67.2280     9.3420     8.6100     7.2790     2.2160    -4.2150 
   93.3750    64.9710     9.6190     8.8670     7.1490     2.2160    -4.2270 
   93.5000    66.5960    10.2110     9.3860     6.9530     2.2160    -4.2580 
   93.6250    65.5990    11.4680    10.3670     8.4380     2.2010    -4.3080 
   93.7500    64.6010    12.8250    11.2820     8.9990     2.1830    -4.3660 
   93.8750    65.3390    13.1670    11.4900     8.4370     2.1770    -4.4260 
   94.0000    68.4750    12.3080    10.8300     7.5730     2.1870    -4.4820 
   94.1250    74.3150    10.6740     9.5190     6.9380     2.2100    -4.5280 
   94.2500    83.1690     9.0510     8.0670     5.7450     2.2400    -4.5580 
   94.3750    83.6680     8.1440     7.2320     5.6490     2.2550    -4.5650 
   94.5000    83.4900     7.9070     6.9610     6.0930     2.2560    -4.5500 
   94.6250    79.0740     8.0780     7.0470     6.4050     2.2450    -4.5180 
   94.7500    74.1590     8.5460     7.3920     6.5370     2.2340    -4.4730 
   94.8750    72.3430     9.1350     7.8680     6.5480     2.2310    -4.4180 
   95.0000    71.2540     9.4550     8.2270     6.2240     2.2350    -4.3600 
   95.1250    75.2430     9.7040     8.5400     6.5240     2.2460    -4.3040 
   95.2500    77.8780     9.9710     8.8480     6.8430     2.2480    -4.2550 
   95.3750    77.2430    10.1980     9.1180     6.9720     2.2430    -4.2140 
   95.5000    74.1300    10.3420     9.3220     7.0130     2.2340    -4.1820 
   95.6250    70.0700    10.3470     9.4170     7.0600     2.2240    -4.1580 
   95.7500    65.8480    10.1180     9.3380     6.9540     2.2220    -4.1400 
   95.8750    68.3410     9.4880     8.9060     6.9860     2.2370    -4.1280 
   96.0000    75.3030     8.5650     8.1930     6.9000     2.2590    -4.1180 
   96.1250    81.0320     7.6260     7.4140     6.2830     2.2800    -4.1070 
   96.2500    85.0090     6.8710     6.7570     5.3400     2.2920    -4.0950 
   96.3750    86.9990     6.4140     6.3510     4.6860     2.2950    -4.0780 
   96.5000    83.5270     6.2590     6.2250     5.1440     2.2950    -4.0540 
   96.6250    81.2000     6.4280     6.3800     6.0000     2.3010    -4.0190 
   96.7500    76.3000     6.7300     6.6610     6.3390     2.3100    -3.9690 
   96.8750    71.0200     7.0060     6.9410     6.2060     2.3090    -3.9040 
   97.0000    67.5920     7.1990     7.1780     6.1800     2.3010    -3.8220 
   97.1250    67.2380     7.4000     7.4630     6.6270     2.2920    -3.7230 
   97.2500    69.2270     7.8810     8.0560     7.1190     2.2810    -3.6090 
   97.3750    70.8890     9.0200     9.3360     7.7770     2.2670    -3.4790 
   97.5000    69.0290    11.1310    11.3990     9.4120     2.2460    -3.3420 
   97.6250    63.4050    14.0730    14.0780    11.8030     2.2300    -3.2020 
   97.7500    58.4100    17.3160    16.9020    13.8960     2.2310    -3.0620 
   97.8750    57.2720    19.8960    19.0780    14.8280     2.2560    -2.9250 
   98.0000    57.4670    20.4310    19.5300    14.7460     2.3040    -2.7930 
   98.1250    59.4610    18.4130    17.7980    12.8680     2.3310    -2.6700 
   98.2500    59.0160    16.5420    16.0890    10.6510     2.3130    -2.5540 
   98.3750    60.1670    15.4350    15.0560     9.5960     2.2660    -2.4440 
   98.5000    61.6240    15.3140    14.9760     9.7410     2.2150    -2.3400 
   98.6250    60.9430    16.2380    15.9170    11.1260     2.1840    -2.2420 
   98.7500    57.7410    18.2850    17.8570    14.8310     2.1810    -2.1480 
   98.8750    51.7580    21.4770    20.7130    17.9490     2.1870    -2.0580 
   99.0000    49.4350    24.8370    23.7070    18.2660     2.1890    -1.9690 
   99.1250    48.9630    27.5880    26.2540    17.6690     2.1840    -1.8790 
   99.2500    49.8890    29.2940    27.9500    16.9430     2.1720    -1.7830 
   99.3750    51.6680    29.9270    28.6910    16.4410     2.1580    -1.6810 
   99.5000    52.6570    29.9330    28.7680    16.5050     2.1480    -1.5690 
   99.6250    53.1560    29.7340    28.5890    16.1750     2.1530    -1.4450 
   99.7500    53.2480    29.3730    28.2090    15.4760     2.1580    -1.3120 
   99.8750    52.9410    28.9690    27.7710    15.1420     2.1600    -1.1750 
  100.0000    52.8570    28.5980    27.3490    15.1030     2.1590    -1.0400 
  100.1250    53.5710    28.2730    26.9720    15.0400     2.1580    -0.9120 
  100.2500    55.0830    27.9290    26.6410    14.8170     2.1620    -0.7980 
  100.3750    57.5760    27.4720    26.3190    15.1930     2.1640    -0.7110 
  100.5000    58.0340    26.8790    25.9010    16.0500     2.1650    -0.6510 
  100.6250    57.7270    26.3530    25.5560    17.0620     2.1610    -0.6180 
  100.7500    55.5680    26.0130    25.3740    17.1240     2.1530    -0.6130 
  100.8750    51.9430    25.8570    25.3480    16.1430     2.1440    -0.6340 
  101.0000    51.4530    25.7280    25.3590    16.3480     2.1390    -0.6780 
  101.1250    51.4530    25.5410    25.2820    16.1730     2.1450    -0.7450 
  101.2500    53.4880    25.0210    24.8800    14.5980     2.1620    -0.8250 
  101.3750    55.3660    24.3970    24.3400    13.4090     2.1800    -0.9150 
