~V
VERS. 2.00: Ver 2.00
~W
STRT.M 50.0000:
STOP.M 219.0000:
STEP.M 0.1250:
NULL. -999.2500:
UWI. F10086:
~C
DEPT.M :
GR.API :
RML.OHMM :
RI. :
RXO.OHMM :
DEN.GM/CC :
SP.MV :
~A
# ...
  191.6250    28.4870     5.1740     3.2490     3.0390     2.3880    -6.6130 
  191.7500    29.8920     5.2000     3.2400     3.0510     2.3890    -6.6350 
  191.8750    29.3930     5.2170     3.2330     3.1750     2.3940    -6.6790 
  192.0000    28.4730     5.2100     3.2170     3.3050     2.3890    -6.7410 
  192.1250    28.3340     5.1840     3.1940     3.3760     2.3740    -6.8200 
  192.2500    28.7410     5.1360     3.1620     3.3750     2.3590    -6.9140 
  192.3750    28.3820     5.0800     3.1260     3.3130     2.3540    -7.0220 
  192.5000    25.4890     5.0420     3.0990     3.2240     2.3630    -7.1420 
  192.6250    24.6580     5.0430     3.0950     3.3240     2.3700    -7.2730 
  192.7500    24.5300     5.0790     3.1100     3.5560     2.3720    -7.4120 
  192.8750    26.4620     5.1220     3.1330     3.6440     2.3690    -7.5550 
  193.0000    28.1200     5.1690     3.1640     3.5630     2.3630    -7.6970 
  193.1250    28.7320     5.2220     3.2000     3.4430     2.3590    -7.8350 
  193.2500    31.1420     5.2740     3.2380     3.5010     2.3550    -7.9640 
  193.3750    31.8060     5.3380     3.2780     3.6790     2.3540    -8.0750 
  193.5000    34.4390     5.3780     3.3050     3.6890     2.3560    -8.1670 
  193.6250    34.5320     5.3920     3.3170     3.5460     2.3610    -8.2390 
  193.7500    33.0740     5.3640     3.3110     3.3910     2.3630    -8.2920 
  193.8750    30.6590     5.2740     3.2860     3.3140     2.3580    -8.3260 
  194.0000    25.4500     5.1170     3.2520     3.2670     2.3480    -8.3450 
  194.1250    25.9490     4.8990     3.2300     3.3130     2.3460    -8.3510 
  194.2500    27.5020     4.6800     3.2250     3.3330     2.3490    -8.3500 
  194.3750    30.2680     4.4940     3.2360     3.3330     2.3580    -8.3460 
  194.5000    31.4410     4.3590     3.2580     3.3060     2.3690    -8.3420 
  194.6250    29.6990     4.2710     3.2840     3.2690     2.3800    -8.3390 
  194.7500    27.3070     4.2090     3.3080     3.2760     2.3940    -8.3390 
  194.8750    26.9740     4.1470     3.3190     3.3080     2.4150    -8.3430 
  195.0000    28.6110     4.0850     3.3210     3.3900     2.4450    -8.3520 
  195.1250    31.5720     4.0230     3.3190     3.4700     2.4670    -8.3670 
  195.2500    32.3910     3.9760     3.3250     3.5180     2.4710    -8.3880 
  195.3750    29.3660     3.9520     3.3410     3.5500     2.4530    -8.4160 
  195.5000    24.9130     3.9380     3.3570     3.6240     2.4200    -8.4490 
  195.6250    24.5810     3.9330     3.3710     3.6060     2.4010    -8.4860 
  195.7500    25.7960     3.9090     3.3650     3.5410     2.4050    -8.5220 
  195.8750    28.0440     3.8740     3.3480     3.6420     2.4180    -8.5520 
  196.0000    27.6600     3.8330     3.3230     3.7680     2.4270    -8.5720 
  196.1250    24.4480     3.7910     3.2940     3.7280     2.4280    -8.5800 
  196.2500    24.0840     3.7510     3.2650     3.4510     2.4320    -8.5730 
  196.3750    23.0870     3.7040     3.2310     3.3450     2.4430    -8.5490 
  196.5000    25.0460     3.6730     3.2100     3.2580     2.4620    -8.5120 
  196.6250    26.7860     3.6620     3.2040     3.4250     2.4710    -8.4660 
  196.7500    27.7440     3.6740     3.2180     3.7720     2.4680    -8.4160 
  196.8750    27.8730     3.7060     3.2490     4.1060     2.4550    -8.3660 
  197.0000    26.9000     3.7400     3.2840     4.2070     2.4390    -8.3180 
  197.1250    26.4010     3.7580     3.3130     3.7010     2.4340    -8.2770 
  197.2500    26.7470     3.7510     3.3200     3.4190     2.4340    -8.2430 
  197.3750    27.8910     3.7290     3.3170     3.3230     2.4430    -8.2140 
  197.5000    28.7180     3.7070     3.3120     3.3550     2.4530    -8.1900 
  197.6250    27.9780     3.6970     3.3110     3.4340     2.4590    -8.1680 
  197.7500    24.9790     3.7010     3.3200     3.4650     2.4590    -8.1480 
  197.8750    21.8210     3.7160     3.3360     3.3260     2.4460    -8.1300 
  198.0000    20.9170     3.7260     3.3500     3.1610     2.4270    -8.1140 
  198.1250    22.0320     3.7250     3.3540     3.1660     2.4030    -8.1000 
  198.2500    24.1750     3.7080     3.3430     3.2830     2.3760    -8.0890 
  198.3750    25.4320     3.6690     3.3130     3.3680     2.3500    -8.0800 
  198.5000    23.5560     3.6020     3.2620     3.2870     2.3340    -8.0740 
  198.6250    24.0550     3.5210     3.1990     3.1940     2.3290    -8.0690 
  198.7500    24.4130     3.4490     3.1440     3.2480     2.3300    -8.0670 
  198.8750    26.4670     3.4080     3.1160     3.3600     2.3360    -8.0650 
  199.0000    27.8960     3.4230     3.1420     3.4350     2.3470    -8.0650 
  199.1250    28.0150     3.5170     3.2450     3.5090     2.3660    -8.0680 
  199.2500    30.1680     3.7020     3.4330     3.7930     2.3890    -8.0760 
  199.3750    35.4870     3.9790     3.6990     4.3030     2.4080    -8.0930 
  199.5000    39.2550     4.3020     4.0020     4.7070     2.4100    -8.1210 
  199.6250    39.8380     4.6030     4.2890     5.1110     2.4030    -8.1630 
  199.7500    38.4690     4.8570     4.5390     5.2820     2.3910    -8.2190 
  199.8750    38.2070     5.0500     4.7370     5.2170     2.3740    -8.2900 
  200.0000    42.6940     5.1800     4.8710     5.3670     2.3580    -8.3780 
  200.1250    47.1810     5.2990     4.9790     5.9700     2.3390    -8.4860 
  200.2500    50.4000     5.3920     5.0480     6.2830     2.3270    -8.6110 
  200.3750    49.9450     5.4360     5.0750     6.1200     2.3270    -8.7520 
  200.5000    49.3310     5.4110     5.0420     5.6930     2.3380    -8.9090 
  200.6250    49.8370     5.3200     4.9490     5.2670     2.3580    -9.0780 
  200.7500    47.5290     5.2010     4.8270     4.9920     2.3740    -9.2590 
  200.8750    48.8580     5.1140     4.7300     5.0610     2.3780    -9.4490 
  201.0000    46.2400     5.0900     4.6970     4.9590     2.3730    -9.6420 
  201.1250    43.7780     5.1150     4.7140     5.0510     2.3750    -9.8330 
  201.2500    42.0070     5.2060     4.8000     5.3600     2.3870   -10.0170 
  201.3750    42.2040     5.3930     4.9820     5.6400     2.4030   -10.1930 
  201.5000    47.4100     5.7140     5.2910     5.5170     2.4180   -10.3590 
  201.6250    50.4020     6.2290     5.7700     6.2260     2.4170   -10.5100 
  201.7500    52.1240     6.7540     6.2260     8.0270     2.4100   -10.6510 
  201.8750    50.7090     7.0670     6.5050     9.3330     2.3940   -10.7850 
  202.0000    48.6120     7.0480     6.5100     9.2980     2.3700   -10.9140 
  202.1250    47.3670     6.6690     6.2090     7.9610     2.3430   -11.0400 
  202.2500    45.2270     6.0040     5.6450     6.3340     2.3210   -11.1670 
  202.3750    40.2410     5.2900     4.9790     5.6830     2.3190   -11.2960 
  202.5000    38.0770     4.7430     4.4270     4.6430     2.3330   -11.4280 
  202.6250    35.5520     4.3340     4.0100     3.9960     2.3510   -11.5620 
  202.7500    34.5750     4.0740     3.7430     3.7630     2.3640   -11.6970 
  202.8750    34.9950     3.9480     3.6050     3.7120     2.3680   -11.8340 
  203.0000    32.2430     3.8970     3.5420     3.6150     2.3700   -11.9700 
  203.1250    30.9130     3.9320     3.5660     3.5460     2.3690   -12.1050 
  203.2500    29.8660     3.9730     3.6050     3.5980     2.3620   -12.2360 
  203.3750    30.1630     4.0230     3.6640     3.7160     2.3470   -12.3640 
  203.5000    33.9960     4.1050     3.7520     3.8590     2.3310   -12.4870 
  203.6250    40.1080     4.2370     3.8820     4.0890     2.3230   -12.6030 
  203.7500    42.7480     4.4240     4.0570     4.5690     2.3240   -12.7110 
  203.8750    48.2330     4.6480     4.2530     4.8970     2.3290   -12.8080 
  204.0000    46.5190     4.8620     4.4410     4.9480     2.3220   -12.8930 
  204.1250    46.4410     5.0570     4.6170     5.0220     2.3100   -12.9680 
  204.2500    49.9530     5.2420     4.7830     5.2410     2.2960   -13.0320 
  204.3750    56.0190     5.4030     4.9220     5.6360     2.2850   -13.0860 
