~V
VERS. 2.00: Ver 2.00
~W
STRT.M 50.0000:
STOP.M 219.0000:
STEP.M 0.1250:
NULL. -999.2500:
UWI. F10086:
~C
DEPT.M :
GR.API :
RML.OHMM :
RI. :
RXO.OHMM :
DEN.GM/CC :
SP.MV :
~A
# ...
  165.8750    57.7540    26.0120    24.3800    21.7050     2.1970   -10.9840 
  166.0000    57.5260    26.0190    24.3140    21.9560     2.1980   -11.0740 
  166.1250    55.5740    26.1140    24.3620    21.8570     2.1970   -11.1700 
  166.2500    51.1980    26.3450    24.5570    21.4400     2.1880   -11.2700 
  166.3750    49.7020    26.6860    24.8940    22.1180     2.1730   -11.3720 
  166.5000    50.4330    27.0570    25.2610    23.1750     2.1610   -11.4730 
  166.6250    51.8080    27.3430    25.5670    23.4110     2.1580   -11.5690 
  166.7500    52.2130    27.4930    25.7570    23.6710     2.1640   -11.6570 
  166.8750    51.0980    27.4770    25.8040    24.5830     2.1750   -11.7340 
  167.0000    49.6390    27.2790    25.7020    25.3530     2.1860   -11.7970 
  167.1250    49.1410    27.0520    25.5530    25.2540     2.1840   -11.8410 
  167.2500    51.1480    26.8950    25.4490    25.4070     2.1900   -11.8690 
  167.3750    53.0050    26.7510    25.3460    25.6080     2.2000   -11.8850 
  167.5000    55.0100    26.5740    25.2070    25.4520     2.2100   -11.8920 
  167.6250    57.2740    26.3690    25.0370    25.1210     2.2150   -11.8950 
  167.7500    58.2340    26.2220    24.9130    25.6670     2.2030   -11.8980 
  167.8750    58.2340    26.2110    24.9190    25.3910     2.1880   -11.9080 
  168.0000    56.4240    26.3600    25.0690    25.3210     2.1820   -11.9300 
  168.1250    56.5950    26.6910    25.4050    25.8590     2.1920   -11.9630 
  168.2500    58.0910    27.2260    25.9340    26.9550     2.2130   -12.0110 
  168.3750    59.5870    27.9680    26.6440    28.1740     2.2320   -12.0730 
  168.5000    60.8550    28.8900    27.5160    28.7410     2.2320   -12.1480 
  168.6250    56.3680    29.7720    28.3570    27.5550     2.2150   -12.2380 
  168.7500    51.0450    30.3480    28.9520    28.1480     2.2040   -12.3400 
  168.8750    46.7270    30.5840    29.2720    27.8900     2.2050   -12.4490 
  169.0000    44.0170    30.4730    29.2850    27.0460     2.2110   -12.5640 
  169.1250    43.3520    30.1020    29.0420    26.6730     2.2180   -12.6840 
  169.2500    45.3720    29.6640    28.7110    27.3620     2.2240   -12.8030 
  169.3750    48.0310    29.1870    28.1960    26.2470     2.2330   -12.9190 
  169.5000    50.6900    28.6560    27.5250    25.5870     2.2490   -13.0270 
  169.6250    52.6070    28.1770    26.8740    24.5750     2.2620   -13.1240 
  169.7500    53.4470    27.8580    26.3740    22.8690     2.2680   -13.2100 
  169.8750    53.0510    27.8060    26.1390    21.4370     2.2660   -13.2830 
  170.0000    51.4020    28.1110    26.2570    22.7430     2.2610   -13.3450 
  170.1250    50.0720    28.7080    26.6940    25.2400     2.2610   -13.3980 
  170.2500    50.2760    29.5020    27.3510    25.3460     2.2640   -13.4450 
  170.3750    50.7740    30.4250    28.1560    25.1250     2.2690   -13.4920 
  170.5000    51.2000    31.3320    28.9730    25.4230     2.2750   -13.5410 
  170.6250    51.3340    32.1010    29.6850    26.9060     2.2800   -13.5960 
  170.7500    51.0670    32.7090    30.2540    30.2210     2.2860   -13.6570 
  170.8750    56.5510    33.2480    30.7450    30.1820     2.2920   -13.7270 
  171.0000    58.6900    33.8050    31.2020    28.7880     2.2930   -13.8070 
  171.1250    57.9570    34.3120    31.5750    28.0810     2.2880   -13.8940 
  171.2500    53.6290    34.4450    31.5920    32.8540     2.2820   -13.9880 
  171.3750    48.1820    33.9310    31.0460    42.4570     2.2820   -14.0880 
  171.5000    48.8740    32.7570    29.9600    46.4990     2.2910   -14.1940 
  171.6250    54.3590    31.4070    28.7440    30.8830     2.3100   -14.3030 
  171.7500    59.2860    30.7640    28.1420    24.9790     2.3060   -14.4110 
  171.8750    60.8130    30.8430    28.0970    25.0730     2.2780   -14.5160 
  172.0000    59.3130    31.4910    28.4980    28.0480     2.2410   -14.6150 
  172.1250    57.1560    32.4540    29.1820    31.0070     2.2140   -14.7020 
  172.2500    57.6350    33.4200    29.9300    31.4990     2.2100   -14.7750 
  172.3750    57.6350    33.5550    30.1220    26.8330     2.2280   -14.8270 
  172.5000    55.9620    33.1650    29.8830    26.1240     2.2490   -14.8580 
  172.6250    53.9670    32.8030    29.6440    27.8640     2.2890   -14.8700 
  172.7500    52.9950    33.0420    29.8620    29.1940     2.3500   -14.8640 
  172.8750    53.9240    34.2790    30.8390    29.6210     2.4320   -14.8450 
  173.0000    56.6580    36.6330    32.6280    32.8220     2.5270   -14.8150 
  173.1250    57.1560    41.0770    35.7520    38.7730     2.5990   -14.7780 
  173.2500    60.5850    46.8610    39.3980    36.6990     2.6340   -14.7390 
  173.3750    62.4480    46.9190    38.5820    39.0060     2.6180   -14.6990 
  173.5000    63.9160    37.5020    31.2790    49.2610     2.5600   -14.6590 
  173.6250    64.9760    22.0470    19.9910    56.2590     2.4800   -14.6200 
  173.7500    61.6240    12.3520    12.0420    34.2330     2.4060   -14.5800 
  173.8750    61.6240     7.9800     7.6910    12.1730     2.3660   -14.5370 
  174.0000    58.5540     5.8290     5.3700     5.2820     2.3420   -14.4920 
  174.1250    56.2800     4.8510     4.2190     3.8410     2.3230   -14.4440 
  174.2500    55.2220     4.5670     3.8170     3.9260     2.3090   -14.3950 
  174.3750    54.2850     4.7040     3.8730     4.0920     2.3040   -14.3450 
  174.5000    51.9980     5.0590     4.1340     4.1530     2.3100   -14.2960 
  174.6250    50.6690     5.2840     4.3600     3.8970     2.3240   -14.2500 
  174.7500    46.2680     5.3680     4.4820     3.7940     2.3350   -14.2110 
  174.8750    44.1540     5.3380     4.5030     3.8690     2.3400   -14.1780 
  175.0000    43.5820     5.1740     4.4160     4.0790     2.3390   -14.1550 
  175.1250    43.8350     4.8830     4.2280     4.3020     2.3370   -14.1440 
  175.2500    46.9660     4.5380     3.9790     4.3500     2.3440   -14.1460 
  175.3750    49.4590     4.4230     3.8910     3.9760     2.3560   -14.1680 
  175.5000    53.6270     4.5830     4.0140     4.0830     2.3690   -14.2110 
  175.6250    58.0080     5.0200     4.3190     4.8800     2.3770   -14.2750 
  175.7500    63.5000     5.6680     4.7450     5.8390     2.3830   -14.3610 
  175.8750    70.2410     6.3800     5.1980     6.2500     2.3910   -14.4680 
  176.0000    76.3450     6.9320     5.5490     5.6350     2.3980   -14.5940 
  176.1250    85.3190     7.0550     5.6380     5.3110     2.4000   -14.7390 
  176.2500    86.4730     6.9120     5.5440     5.3840     2.3950   -14.8930 
  176.3750    80.9250     6.7650     5.4340     5.6550     2.3850   -15.0520 
  176.5000    72.8880     6.7330     5.3960     5.8760     2.3730   -15.2110 
  176.6250    67.7680     6.8100     5.4320     5.8990     2.3640   -15.3650 
  176.7500    70.2830     6.8790     5.4500     5.7730     2.3650   -15.5100 
  176.8750    77.2630     6.8150     5.3700     5.8480     2.3720   -15.6390 
  177.0000    76.2800     6.6780     5.2460     5.9140     2.3850   -15.7500 
  177.1250    75.0650     6.4850     5.1100     5.7640     2.3990   -15.8420 
  177.2500    76.1050     6.3980     5.0900     5.6490     2.4070   -15.9170 
  177.3750    79.3360     6.6080     5.3460     5.7810     2.4050   -15.9730 
  177.5000    82.9180     7.2640     6.0240     6.1400     2.3920   -16.0120 
  177.6250    76.9350     8.7140     7.2910     8.1420     2.3800   -16.0320 
  177.7500    68.8560    11.1520     9.2400    13.3610     2.3750   -16.0380 
  177.8750    64.2140    14.3000    11.6740    17.0630     2.3760   -16.0340 
  178.0000    62.8940    17.6330    14.2020    18.4500     2.3680   -16.0230 
  178.1250    63.7410    20.3030    16.2670    18.5490     2.3450   -16.0080 
  178.2500    66.5280    21.2420    17.2370    19.0250     2.3160   -15.9910 
  178.3750    64.5330    20.4580    16.9550    18.4150     2.3050   -15.9760 
  178.5000    63.9370    19.5800    16.5990    18.2430     2.3080   -15.9640 
  178.6250    64.7770    18.9110    16.4360    17.9270     2.3160   -15.9560 
