~V
VERS. 2.00: Ver 2.00
~W
STRT.M 50.0000:
STOP.M 254.0000:
STEP.M 0.1250:
NULL. -999.2500:
UWI. F10088:
~C
DEPT.M :
GR.API :
RML.OHMM :
RI. :
RXO.OHMM :
DEN.GM/CC :
SP.MV :
~A
   50.0000    25.7810     0.2000     0.2000     0.2000     2.3890   110.2810 
   50.1250    24.8150     0.2000     0.2000     0.2000     2.3790   109.9450 
   50.2500    24.1720     0.2000     0.2000     0.2000     2.3670   109.6950 
   50.3750    25.1050     0.2000     0.2000     0.2000     2.3490   109.5340 
   50.5000    27.0360     0.2000     0.2000     0.2000     2.3270   109.4650 
   50.6250    29.7410     0.2000     0.2000     0.2000     2.3080   109.4860 
   50.7500    35.5340     0.2000     0.2000     0.2000     2.2990   109.5980 
   50.8750    40.3630     0.2000     0.2000     0.2000     2.3020   109.8100 
   51.0000    45.7060     0.2280     0.2140     0.2000     2.3110   110.0880 
   51.1250    48.8110     0.2840     0.2110     0.2060     2.3160   110.4160 
   51.2500    49.0830     0.8530     0.2000     0.2280     2.3190   110.7740 
   51.3750    47.3450     1.8910     0.2000     0.2610     2.3240   111.1450 
   51.5000    45.0930     1.8170     0.2000     0.2560     2.3310   111.5080 
   51.6250    45.1730     1.7520     0.2000     0.2200     2.3430   111.8330 
   51.7500    47.7660     0.7120     0.2000     0.2040     2.3510   112.1130 
   51.8750    50.4050     0.2000     0.2000     0.2000     2.3470   112.3420 
   52.0000    52.2710     0.2000     0.2000     0.2000     2.3290   112.5170 
   52.1250    52.6540     0.2000     0.2000     0.2000     2.3050   112.6390 
   52.2500    49.4360     0.2000     0.2000     0.2000     2.2840   112.7130 
   52.3750    47.1830     0.2000     0.2000     0.2000     2.3010   112.7370 
   52.5000    42.0950     0.2000     0.2000     0.2000     2.3440   112.7280 
   52.6250    37.8480     0.2000     0.2000     0.2000     2.3940   112.6910 
   52.7500    34.2420     0.2000     0.2000     0.2000     2.4270   112.6240 
   52.8750    30.8180     0.2000     0.2000     0.2000     2.4290   112.5250 
   53.0000    30.4140     0.2000     0.2000     0.2000     2.3970   112.3870 
   53.1250    28.8050     0.2000     0.2000     0.2000     2.3510   112.1770 
   53.2500    27.4530     0.2000     0.2000     0.2000     2.3150   111.8860 
   53.3750    26.6010     0.2000     0.2000     0.2000     2.2940   111.4940 
   53.5000    27.1670     0.2000     0.2000     0.2000     2.2860   110.9840 
   53.6250    29.3560     0.2000     0.2000     0.2000     2.2760   110.3420 
   53.7500    31.2840     0.2000     0.2000     0.2000     2.2390   109.5550 
   53.8750    30.3180     0.2000     0.2000     0.2000     2.1900   108.5880 
   54.0000    29.8680     0.2000     0.2000     0.2000     2.1700   107.4880 
   54.1250    29.5460     0.2000     0.2000     0.2000     2.2070   106.2820 
   54.2500    30.5160     0.2000     0.2000     0.2000     2.2900   104.9960 
   54.3750    32.6350     0.2000     0.2000     0.2000     2.3750   103.6690 
   54.5000    31.6710     0.2000     0.2000     0.2000     2.4020   102.3420 
   54.6250    31.6710     0.2000     0.2000     0.2000     2.3690   101.0910 
   54.7500    28.0590     0.2000     0.2000     0.2000     2.3320    99.9580 
   54.8750    28.3940     0.2000     0.2000     0.2000     2.3020    98.9780 
   55.0000    31.4170     0.2000     0.2000     0.2000     2.2750    98.1760 
   55.1250    33.3460     0.2000     0.2000     0.2000     2.2480    97.5650 
   55.2500    33.9850     0.2000     0.2000     0.2000     2.2280    97.1510 
   55.3750    32.0540     0.2000     0.2000     0.2000     2.2300    96.9560 
   55.5000    29.0900     0.2000     0.2000     0.2000     2.2420    96.9000 
   55.6250    29.5520     0.2000     0.2000     0.2000     2.2610    96.9410 
   55.7500    31.5430     0.2000     0.2000     0.2000     2.2820    97.0350 
   55.8750    31.9920     0.2000     0.2000     0.2000     2.3020    97.1360 
   56.0000    31.6690     0.2000     0.2000     0.2000     2.3160    97.1940 
   56.1250    30.7030     0.2000     0.2000     0.2000     2.3310    97.1180 
   56.2500    30.5120     0.2000     0.2000     0.2000     2.3490    96.8730 
   56.3750    32.4500     0.2000     0.2000     0.2000     2.3670    96.4100 
   56.5000    34.9890     0.2000     0.2000     0.2000     2.3850    95.6870 
   56.6250    35.5590     0.2000     0.2000     0.2000     2.4000    94.6590 
   56.7500    32.3430     0.2000     0.2000     0.2000     2.4160    93.2840 
   56.8750    30.4110     0.2000     0.2000     0.2000     2.4320    91.4150 
   57.0000    30.0940     0.2000     0.2000     0.2000     2.4380    89.1050 
   57.1250    31.4830     0.2000     0.2000     0.2000     2.4360    86.3250 
   57.2500    33.2180     0.2000     0.2000     0.2010     2.4340    83.0540 
   57.3750    34.1840     0.2000     0.2000     0.2090     2.4430    79.2720 
   57.5000    35.1540     0.2000     0.2000     0.2420     2.4730    74.9640 
   57.6250    38.0510     0.2000     0.2000     0.2870     2.5090    69.9950 
   57.7500    41.2060     0.2000     0.2000     0.3090     2.5270    64.5100 
   57.8750    44.6190     0.2000     0.2000     0.3340     2.5250    58.5440 
   58.0000    47.9000     0.2000     0.2000     0.3610     2.5120    52.1460 
   58.1250    50.7320     0.2000     0.2000     0.3740     2.4950    45.3880 
   58.2500    53.3030     0.2000     0.2000     0.3380     2.4860    38.3590 
   58.3750    54.5910     0.2120     0.3750     0.3800     2.4620    31.1860 
   58.5000    54.8450     0.4060     0.7040     1.4280     2.4170    24.0820 
   58.6250    55.4270     0.8520     1.1810     3.6800     2.3690    17.1910 
   58.7500    56.3920     1.6870     1.7560     5.3050     2.3200    10.6490 
   58.8750    58.9250     2.7820     2.3420     5.0780     2.2770     4.5800 
   59.0000    67.6060     3.4170     2.8190     4.9160     2.2690    -0.9130 
   59.1250    73.0780     3.3270     3.1510     5.4190     2.2740    -5.5820 
   59.2500    74.6730     3.5680     3.7490     6.4200     2.2570    -9.5610 
   59.3750    68.5240     4.1670     4.5230    11.1940     2.2180   -12.8690 
   59.5000    58.2590     4.9420     5.2190    24.3960     2.1730   -15.5460 
   59.6250    49.8460     5.6740     5.6450    38.1320     2.1450   -17.6410 
   59.7500    46.6420     6.2750     5.8940    18.9890     2.1480   -19.2140 
   59.8750    48.2520     5.5970     5.6440    10.7550     2.1760   -20.2440 
   60.0000    51.9940     5.2880     5.4740     9.5680     2.1940   -20.9100 
   60.1250    53.2980     5.2310     5.4110    10.0490     2.1950   -21.2630 
   60.2500    52.5240     5.3830     5.4770    10.2720     2.1860   -21.3440 
   60.3750    51.1660     5.6950     5.6510    10.1430     2.1830   -21.1900 
   60.5000    48.2780     6.0340     5.8350     9.9040     2.1980   -20.8360 
   60.6250    47.9560     5.8480     5.6370     9.8850     2.2180   -20.2780 
   60.7500    47.1170     5.6610     5.4370     8.8380     2.2310   -19.5900 
   60.8750    46.7340     5.4970     5.2300     7.1940     2.2390   -18.7990 
   61.0000    47.3510     5.4180     5.1080     6.6150     2.2450   -17.9290 
   61.1250    48.5690     5.4430     5.1220     7.9940     2.2480   -17.0060 
   61.2500    48.5840     5.4650     5.1360     9.5500     2.2400   -16.0520 
   61.3750    52.7680     5.3860     5.0720     9.9370     2.2210   -15.0950 
   61.5000    58.0520     5.3050     4.9760     8.6510     2.2240   -14.1600 
   61.6250    67.8300     5.0880     4.7630     6.7880     2.2520   -13.2650 
   61.7500    78.0440     4.7390     4.4470     5.4580     2.2910   -12.4250 
   61.8750    83.8200     4.3610     4.1150     5.1110     2.3160   -11.6540 
   62.0000    85.7270     4.1170     3.8920     4.9100     2.3150   -10.9630 
   62.1250    81.5430     4.0110     3.7960     4.6480     2.3130   -10.3850 
   62.2500    76.8410     3.9660     3.7370     4.5120     2.3270    -9.9030 
   62.3750    75.7060     3.9560     3.6840     4.4780     2.3520    -9.5160 
   62.5000    78.1640     3.9470     3.6040     4.4940     2.3760    -9.2180 
   62.6250    82.3490     3.8970     3.4750     4.5140     2.3910    -9.0040 
   62.7500    86.5240     3.7610     3.2870     4.5280     2.3930    -8.8650 
