~V
VERS. 2.00: Ver 2.00
~W
STRT.M 20.0000:
STOP.M 297.0000:
STEP.M 0.1250:
NULL. -999.2500:
UWI. F10080:
~C
DEPT.M :
GR.API :
RML.OHMM :
RI. :
RXO.OHMM :
DEN.GM/CC :
SP.MV :
~A
# ...
  148.7500    78.1320     7.6440     6.3750     8.8910     2.1750   -27.9910 
  148.8750    75.9310     7.3380     6.2050     8.7100     2.1530   -28.0640 
  149.0000    74.8130     6.6890     5.7140     8.5570     2.1460   -28.1060 
  149.1250    70.2790     5.9680     5.2000     7.0630     2.1620   -28.1270 
  149.2500    78.5510     5.5570     4.8390     6.2610     2.1970   -28.1490 
  149.3750    84.8760     5.4040     4.6440     5.9430     2.2340   -28.1910 
  149.5000    87.7610     5.4740     4.6270     5.9670     2.2610   -28.2650 
  149.6250    87.3470     5.7090     4.7770     6.2110     2.2700   -28.3820 
  149.7500    80.5060     6.0180     5.0570     6.5720     2.2600   -28.5510 
  149.8750    72.7340     6.1540     5.3660     7.1840     2.2420   -28.7820 
  150.0000    70.1400     6.1740     5.7060     7.7920     2.2300   -29.0620 
  150.1250    68.9360     6.3910     6.0850     8.1500     2.2210   -29.3760 
  150.2500    69.9670     6.8390     6.5110     8.4530     2.2120   -29.7120 
  150.3750    73.7640     7.5810     6.9810     8.9260     2.2030   -30.0590 
  150.5000    78.0550     8.7980     7.4760     9.6060     2.1990   -30.4020 
  150.6250    76.7590     9.6130     7.9090    10.2700     2.1990   -30.7250 
  150.7500    78.3950    10.0990     8.2090    10.6340     2.2000   -31.0180 
  150.8750    77.3070     9.9600     8.2930    10.5970     2.2020   -31.2780 
  151.0000    74.1060     9.6350     8.2380    10.6250     2.2040   -31.5040 
  151.1250    70.5630     9.5910     8.1890    10.9680     2.2060   -31.6940 
  151.2500    67.2080     9.9040     8.2990    11.2680     2.2060   -31.8520 
  151.3750    66.7220     9.8510     8.7920    11.4940     2.2020   -31.9770 
  151.5000    65.8270    10.2520     9.5410    12.2140     2.2010   -32.0810 
  151.6250    64.4400    10.8560    10.3330    14.0980     2.2180   -32.1720 
  151.7500    62.3190    11.8570    10.9130    15.1710     2.2570   -32.2560 
  151.8750    60.5470    12.7350    11.0330    14.0510     2.3100   -32.3370 
  152.0000    61.8590    11.8880    10.5210    11.7150     2.3490   -32.4210 
  152.1250    63.5600    10.5300     9.5310    11.2910     2.3430   -32.5140 
  152.2500    64.1000     9.1510     8.5390    11.0500     2.3040   -32.6170 
  152.3750    67.3370     8.4970     7.8250    10.7680     2.2600   -32.7310 
  152.5000    70.8690     8.5120     7.4050    10.5480     2.2280   -32.8550 
  152.6250    72.2800     8.7160     7.2170    10.4590     2.2110   -32.9890 
  152.7500    72.2450     8.4770     7.2120    10.3870     2.2010   -33.1300 
  152.8750    71.4360     8.3620     7.2870    10.7450     2.1910   -33.2760 
  153.0000    71.0350     8.1470     7.4420    10.3960     2.1850   -33.4240 
  153.1250    72.1680     8.1630     7.5820     9.4880     2.1830   -33.5680 
  153.2500    72.6060     8.1450     7.6930     9.0050     2.1820   -33.7040 
  153.3750    71.0700     7.9890     7.7700     9.3340     2.1790   -33.8280 
  153.5000    69.2960     8.0850     7.7960     9.5960     2.1720   -33.9330 
  153.6250    67.6770     8.1970     7.8180     9.7350     2.1620   -34.0060 
  153.7500    63.8740     8.4850     7.8150     9.6750     2.1540   -34.0440 
  153.8750    60.8090     8.5080     7.8170     9.7400     2.1440   -34.0410 
  154.0000    59.9580     8.5200     7.8660     9.8930     2.1300   -33.9960 
  154.1250    61.1310     8.6110     7.9710    10.0510     2.1160   -33.9040 
  154.2500    62.4820     8.3510     8.0920    10.2150     2.1090   -33.7650 
  154.3750    65.0730     8.3490     8.1980     9.9930     2.1190   -33.5700 
  154.5000    63.7050     8.5150     8.2740     9.8690     2.1350   -33.3260 
  154.6250    64.3590     8.7840     8.3540    10.0690     2.1480   -33.0410 
  154.7500    65.5760     9.0690     8.4330    10.3840     2.1530   -32.7160 
  154.8750    66.6000     9.2550     8.4880    10.6130     2.1500   -32.3560 
  155.0000    70.6460     9.2320     8.4800    10.7830     2.1400   -31.9620 
  155.1250    71.0510     9.3140     8.4080    10.8290     2.1320   -31.5310 
  155.2500    69.5440     8.9680     8.2600    10.7480     2.1360   -31.0710 
  155.3750    65.7550     8.6090     8.0750    10.7360     2.1490   -30.5850 
  155.5000    62.3330     8.7200     8.0150    10.7370     2.1620   -30.0750 
  155.6250    61.1670     9.4100     8.2900    10.6330     2.1670   -29.5440 
  155.7500    61.4690    10.2330     9.0720    10.3870     2.1590   -28.9960 
  155.8750    63.0890    11.5080    10.0340    10.7800     2.1600   -28.4370 
  156.0000    63.1370    10.8640    10.5150    19.1410     2.1980   -27.8810 
  156.1250    64.7180     9.8900    10.2310    24.8130     2.2680   -27.3400 
  156.2500    70.0380     8.7280     9.2320    20.6110     2.3520   -26.8260 
  156.3750    78.6830     7.4130     7.7890     9.9560     2.4250   -26.3500 
  156.5000    86.9800     6.4220     6.3160     8.7470     2.4640   -25.9230 
  156.6250    94.3470     5.5770     5.2890     8.1090     2.4500   -25.5690 
  156.7500    94.6790     4.9950     4.7110     6.5200     2.4100   -25.2840 
  156.8750    92.8740     4.8260     4.4940     5.6020     2.3590   -25.0650 
  157.0000    92.6550     4.9980     4.5350     5.3310     2.3090   -24.9080 
  157.1250    94.7060     5.3590     4.7430     5.3950     2.2710   -24.8060 
  157.2500    95.6760     5.7700     5.0650     5.8150     2.2580   -24.7520 
  157.3750    93.0860     6.1850     5.3780     6.3830     2.2750   -24.7400 
  157.5000    86.6680     6.3210     5.4920     6.9500     2.2990   -24.7530 
  157.6250    81.5250     6.2830     5.4520     6.6220     2.3250   -24.7790 
  157.7500    81.9350     6.1100     5.3120     6.0560     2.3310   -24.8130 
  157.8750    86.9380     5.8440     5.1300     5.9570     2.3140   -24.8470 
  158.0000    88.8240     5.5680     4.9590     6.2850     2.2980   -24.8780 
  158.1250    89.4720     5.7210     4.9190     6.1240     2.2930   -24.9010 
  158.2500    87.7950     5.7130     4.9000     6.0620     2.2850   -24.9160 
  158.3750    88.0900     5.6760     4.8690     6.1130     2.2730   -24.9230 
  158.5000    90.2850     5.4780     4.8030     6.0310     2.2620   -24.9250 
  158.6250    92.2500     5.1650     4.7100     5.7710     2.2610   -24.9240 
  158.7500    91.2350     5.1260     4.6400     5.6860     2.2780   -24.9210 
  158.8750    89.2920     5.3400     4.6700     5.7300     2.2950   -24.9190 
  159.0000    87.9640     5.6090     4.7260     5.6520     2.3010   -24.9230 
  159.1250    89.6200     5.8500     4.7870     5.8730     2.3050   -24.9320 
  159.2500    90.9870     5.8800     4.8060     6.1840     2.3090   -24.9470 
  159.3750    89.8370     5.6900     4.7530     6.2180     2.3150   -24.9700 
  159.5000    88.2050     5.5480     4.6430     5.7540     2.3150   -25.0000 
  159.6250    88.0430     5.3650     4.4960     5.8150     2.3020   -25.0350 
  159.7500    90.4800     5.2350     4.3730     5.7060     2.2940   -25.0750 
  159.8750    92.9770     5.2040     4.2830     5.5200     2.2970   -25.1140 
  160.0000    92.7230     5.2430     4.2160     5.4320     2.3050   -25.1520 
  160.1250    90.7900     5.3070     4.1610     5.4510     2.3090   -25.1840 
  160.2500    93.2930     5.3520     4.1060     5.3220     2.3050   -25.2070 
  160.3750    93.9410     5.0580     4.0860     5.1520     2.3030   -25.2160 
  160.5000    98.6930     4.9430     4.1460     5.1310     2.3020   -25.2060 
  160.6250    97.9320     5.1410     4.3050     5.3780     2.2990   -25.1760 
  160.7500    94.9470     5.6380     4.6040     5.7860     2.2870   -25.1230 
  160.8750    91.8630     6.3210     5.0270     6.2810     2.2610   -25.0440 
  161.0000    84.0300     6.9870     5.4670     6.9350     2.2270   -24.9370 
  161.1250    81.7630     6.9940     5.7010     7.4610     2.2070   -24.7990 
  161.2500    82.0960     6.7790     5.6150     7.5370     2.2040   -24.6360 
  161.3750    85.4650     6.1190     5.2870     6.6460     2.2170   -24.4550 
  161.5000    88.8360     5.3130     4.8270     5.6510     2.2400   -24.2600 
