~V
VERS. 2.00: Ver 2.00
~W
STRT.M 50.0000:
STOP.M 254.0000:
STEP.M 0.1250:
NULL. -999.2500:
UWI. F10088:
~C
DEPT.M :
GR.API :
RML.OHMM :
RI. :
RXO.OHMM :
DEN.GM/CC :
SP.MV :
~A
# ...
  114.3750    74.1680     9.7740     7.9350     9.3890     2.2080     3.5050 
  114.5000    71.5890    10.1910     8.2330    10.1710     2.2000     3.6010 
  114.6250    68.8540     9.9040     8.0430    10.8580     2.2000     3.7050 
  114.7500    67.8350     9.0480     7.4440     9.7220     2.2110     3.8160 
  114.8750    66.9910     7.8110     6.5530     8.3060     2.2330     3.9290 
  115.0000    68.7340     6.5470     5.5690     7.1630     2.2620     4.0410 
  115.1250    73.8510     5.5620     4.7000     6.2550     2.2940     4.1490 
  115.2500    77.7200     4.9420     4.0970     5.2120     2.3320     4.2470 
  115.3750    81.9040     4.7590     3.9120     4.8620     2.3370     4.3280 
  115.5000    83.9750     4.8460     3.9830     5.3740     2.3320     4.3880 
  115.6250    84.4350     5.2460     4.3640     6.3000     2.3220     4.4250 
  115.7500    82.3980     6.1020     5.1870     7.2980     2.3210     4.4390 
  115.8750    77.2510     7.5330     6.4790     8.4280     2.3440     4.4290 
  116.0000    69.8670     9.5280     8.0130    10.5350     2.4020     4.3950 
  116.1250    63.3490    11.5020     9.1940    22.2800     2.4620     4.3360 
  116.2500    61.3900    11.6690     9.2550    25.3640     2.4760     4.2590 
  116.3750    62.4240    10.3800     8.4310    17.4390     2.4360     4.1680 
  116.5000    65.7620     8.5790     7.2190     8.6730     2.3650     4.0680 
  116.6250    69.9490     7.1720     6.1310     7.1160     2.2940     3.9610 
  116.7500    71.8560     6.5210     5.4810     8.0960     2.2530     3.8490 
  116.8750    72.6610     6.6910     5.5910     8.7890     2.2370     3.7380 
  117.0000    69.6320     7.5020     6.1570     8.6250     2.2220     3.6310 
  117.1250    65.5690     8.5240     6.7990     8.9470     2.2080     3.5320 
  117.2500    61.5890     9.3700     7.2820     9.9050     2.1990     3.4440 
  117.3750    59.7060     9.7070     7.4460    10.5560     2.2000     3.3700 
  117.5000    64.1720     9.3190     7.1990     9.0470     2.2160     3.3130 
  117.6250    66.8270     8.5980     6.7570     7.7450     2.2410     3.2810 
  117.7500    70.7390     8.0890     6.4120     7.8220     2.2540     3.2700 
  117.8750    71.1210     7.9650     6.3320     7.9730     2.2540     3.2810 
  118.0000    68.7490     8.2650     6.5490     8.1960     2.2510     3.3120 
  118.1250    65.6470     8.9370     7.0230     8.6790     2.2590     3.3590 
  118.2500    62.2180     9.8640     7.6820     9.0600     2.2970     3.4210 
  118.3750    63.8280    10.5310     8.1430     9.3770     2.3660     3.4940 
  118.5000    65.9660    10.8690     8.3840    12.3320     2.4070     3.5720 
  118.6250    69.8210    10.8850     8.3910    13.8850     2.3990     3.6490 
  118.7500    71.7970    10.6300     8.2080    12.5330     2.3490     3.7240 
  118.8750    70.5080    10.1100     7.8520     9.6510     2.2860     3.7920 
  119.0000    71.4600     9.2280     7.2590     9.5840     2.2540     3.8530 
  119.1250    71.7820     8.3680     6.6240     9.0210     2.2680     3.9010 
  119.2500    75.5440     7.7080     6.1420     7.8270     2.2830     3.9370 
  119.3750    77.6470     7.4550     5.9820     7.3940     2.2830     3.9630 
  119.5000    77.8830     7.6380     6.1420     7.9430     2.2710     3.9790 
  119.6250    77.2750     8.1550     6.5240     8.8830     2.2550     3.9890 
  119.7500    75.7160     8.8140     6.9790     9.1030     2.2450     3.9920 
  119.8750    76.3590     9.1120     7.2290     9.4670     2.2420     3.9940 
  120.0000    74.6210     8.8840     7.1370     9.5110     2.2400     3.9960 
  120.1250    72.5680     8.4200     6.8640     9.1100     2.2430     4.0030 
  120.2500    71.9970     7.9260     6.5450     8.7070     2.2480     4.0160 
  120.3750    73.3200     7.5470     6.2970     8.5790     2.2520     4.0360 
  120.5000    74.7580     7.3680     6.2110     8.3460     2.2510     4.0650 
  120.6250    75.7230     7.5880     6.4730     8.5520     2.2420     4.1060 
  120.7500    74.3060     8.0370     6.9150     8.4950     2.2340     4.1570 
  120.8750    74.0780     8.7540     7.5360     8.7820     2.2280     4.2160 
  121.0000    73.9980     9.5290     8.1620     9.6600     2.2230     4.2820 
  121.1250    72.9980     9.9720     8.5250    10.6760     2.2210     4.3560 
  121.2500    72.9610     9.5870     8.3350    10.5340     2.2270     4.4340 
  121.3750    71.3520     8.4600     7.5250    11.1360     2.2450     4.5190 
  121.5000    75.0390     7.4140     6.6600     9.1860     2.2650     4.6070 
  121.6250    79.4660     6.6100     5.9760     7.2820     2.2810     4.6990 
  121.7500    82.6980     6.1860     5.6150     6.9330     2.2950     4.7940 
  121.8750    83.1220     6.2350     5.6840     8.0150     2.3060     4.8940 
  122.0000    78.3460     6.7880     6.2820     8.3990     2.3160     4.9970 
  122.1250    75.7710     8.2150     7.5260     8.8080     2.3140     5.1060 
  122.2500    72.6660    10.4020     9.3240    11.4690     2.2960     5.2170 
  122.3750    70.8510    12.7190    11.1930    14.4320     2.2690     5.3280 
  122.5000    67.2970    15.2060    13.2240    15.5010     2.2400     5.4380 
  122.6250    61.3660    17.8080    15.4370    14.1910     2.2160     5.5430 
  122.7500    59.3620    19.8880    17.3690    13.1700     2.1990     5.6390 
  122.8750    54.2920    21.1970    18.7910    16.4610     2.1900     5.7180 
  123.0000    53.1310    22.6980    20.1980    20.1250     2.1870     5.7770 
  123.1250    53.2110    24.0040    21.2290    21.4180     2.1860     5.8140 
  123.2500    53.7710    24.4730    21.4600    21.1720     2.1840     5.8260 
  123.3750    54.6020    23.6990    20.6480    20.2990     2.1810     5.8110 
  123.5000    55.2160    21.9060    18.9610    17.5430     2.1760     5.7700 
  123.6250    54.5720    20.6290    17.7730    15.6290     2.1740     5.6970 
  123.7500    55.2540    20.6100    17.7450    16.1290     2.1860     5.5990 
  123.8750    58.2270    22.1030    19.0640    20.4870     2.2250     5.4810 
  124.0000    60.0250    25.5280    21.8560    27.4180     2.3040     5.3460 
  124.1250    58.2520    31.0520    26.1100    39.1370     2.4200     5.1980 
  124.2500    55.3020    38.2570    31.6130    64.4170     2.5550     5.0420 
  124.3750    50.1520    44.5420    36.8160    72.7100     2.6550     4.8810 
  124.5000    48.8470    47.4580    39.2060    65.0090     2.6990     4.7230 
  124.6250    49.8700    43.7070    36.2910    58.1730     2.6950     4.5700 
  124.7500    51.3920    34.5400    29.1920    60.2060     2.6570     4.4270 
  124.8750    52.3570    23.8070    20.8390    63.6980     2.5940     4.2950 
  125.0000    53.3620    16.3560    14.5450    42.4770     2.5100     4.1790 
  125.1250    55.9370    12.1850    10.7590    14.3260     2.4240     4.0840 
  125.2500    60.5010     9.6480     8.3780     9.0950     2.3620     4.0070 
  125.3750    65.7910     8.3640     7.0590     9.6880     2.3280     3.9480 
  125.5000    70.3070     7.8990     6.5010    10.2150     2.3160     3.9040 
  125.6250    73.3460     7.9000     6.4550     9.7520     2.3180     3.8730 
  125.7500    75.7640     8.2200     6.7500     8.8230     2.3230     3.8510 
  125.8750    78.3390     8.3060     6.9950     8.7660     2.3200     3.8330 
  126.0000    78.2610     8.5340     7.3190     9.0390     2.3080     3.8110 
  126.1250    75.4060     8.9710     7.7010     9.4090     2.2910     3.7820 
  126.2500    71.4950     9.3220     7.9380     9.6780     2.2710     3.7410 
  126.3750    68.7490     9.1750     7.7960     9.7450     2.2510     3.6870 
  126.5000    68.7810     8.2080     7.1290     9.6380     2.2410     3.6180 
  126.6250    70.0680     7.0560     6.1980     8.7660     2.2500     3.5330 
  126.7500    72.4170     6.3890     5.5820     7.0610     2.2670     3.4360 
  126.8750    74.5900     6.1930     5.3410     6.3570     2.2850     3.3310 
  127.0000    75.4280     6.5050     5.5140     7.4190     2.2930     3.2220 
  127.1250    73.9890     7.3360     6.0820     9.8110     2.2910     3.1130 
