~V
VERS. 2.00: Ver 2.00
~W
STRT.M 50.0000:
STOP.M 254.0000:
STEP.M 0.1250:
NULL. -999.2500:
UWI. F10088:
~C
DEPT.M :
GR.API :
RML.OHMM :
RI. :
RXO.OHMM :
DEN.GM/CC :
SP.MV :
~A
# ...
   62.8750    88.4550     3.5790     3.0780     4.4110     2.3830    -8.8030 
   63.0000    86.2450     3.4770     2.9820     4.3910     2.3750    -8.7910 
   63.1250    85.1650     3.5750     3.1290     4.5350     2.3720    -8.8160 
   63.2500    83.8610     4.0080     3.6950     5.1320     2.3830    -8.8720 
   63.3750    79.5350     4.9820     4.8340     6.4910     2.4130    -8.9500 
   63.5000    72.7800     6.8110     6.6230     8.7970     2.4610    -9.0430 
   63.6250    66.9860    10.8000     9.6160    19.8050     2.5260    -9.1430 
   63.7500    59.5090    15.4870    12.9670    32.2130     2.5840    -9.2420 
   63.8750    56.5840    16.0470    13.6440    30.3880     2.6090    -9.3340 
   64.0000    56.6460    12.5370    11.4890    19.3670     2.5840    -9.4150 
   64.1250    58.3650     7.7970     8.0680    10.2890     2.5120    -9.4810 
   64.2500    68.0000     5.4800     5.6010     6.8150     2.4200    -9.5270 
   64.3750    73.1500     4.8580     4.7900     5.4560     2.3690    -9.5470 
   64.5000    77.5230     4.9920     4.9610     5.6400     2.3630    -9.5440 
   64.6250    75.6740     5.9940     5.9690     9.1180     2.3820    -9.5170 
   64.7500    69.7500     7.8830     7.5860    13.4980     2.3810    -9.4660 
   64.8750    62.8440    10.2600     9.3720    14.9080     2.3340    -9.3910 
   65.0000    52.8920    12.0020    10.5600    10.5410     2.2770    -9.2920 
   65.1250    48.3860    10.5420     9.8450     9.5610     2.2510    -9.1660 
   65.2500    44.9160     9.0880     8.6240     8.6600     2.2750    -9.0190 
   65.3750    44.4230     8.3350     7.9570     7.8810     2.3430    -8.8540 
   65.5000    46.1010     8.5680     8.2970     9.5110     2.4420    -8.6730 
   65.6250    48.9480     9.8940     9.7710    16.5000     2.5530    -8.4820 
   65.7500    54.0840    12.4660    12.4440    30.8980     2.6560    -8.2840 
   65.8750    56.3370    17.8490    17.1370    40.3810     2.7250    -8.0840 
   66.0000    54.7030    26.7560    24.0900    41.6980     2.7690    -7.8900 
   66.1250    52.5170    37.3890    32.4150    38.3630     2.7920    -7.7050 
   66.2500    51.2380    45.4150    38.6610    36.9610     2.7980    -7.5310 
   66.3750    50.9160    46.9710    39.6220    41.0070     2.7860    -7.3700 
   66.5000    50.5810    41.5030    34.9870    45.1760     2.7370    -7.2230 
   66.6250    47.6840    32.0990    27.7720    39.8390     2.6380    -7.0910 
   66.7500    47.3790    24.6130    21.7290    27.2710     2.5230    -6.9690 
   66.8750    46.7270    19.3670    17.1460    17.2530     2.4120    -6.8540 
   67.0000    46.7440    16.2070    14.1350    12.7660     2.3270    -6.7430 
   67.1250    47.0880    14.6410    12.5420    12.3570     2.2830    -6.6320 
   67.2500    41.3290    13.9890    11.8530    12.2420     2.2730    -6.5180 
   67.3750    41.6500    13.7910    11.6810    11.6980     2.2730    -6.3940 
   67.5000    40.7410    13.5700    11.5670    11.6410     2.2680    -6.2580 
   67.6250    41.8240    13.2790    11.4260    11.5570     2.2580    -6.1060 
   67.7500    44.3990    12.9560    11.2580    11.5250     2.2460    -5.9380 
   67.8750    46.4940    12.6660    11.0980    11.6490     2.2370    -5.7510 
   68.0000    46.7360    12.4520    10.9710    11.5520     2.2330    -5.5470 
   68.1250    47.0580    12.3550    10.9070    11.1210     2.2320    -5.3220 
   68.2500    44.6560    12.4270    10.9420    11.1460     2.2290    -5.0830 
   68.3750    41.8910    12.6500    11.0620    11.3260     2.2300    -4.8340 
   68.5000    40.1000    12.9890    11.2460    11.3650     2.2370    -4.5800 
   68.6250    38.8260    13.3860    11.4620    11.1270     2.2500    -4.3240 
   68.7500    35.1640    13.7470    11.6660    10.7720     2.2600    -4.0730 
   68.8750    38.0610    14.0060    11.8570    10.1450     2.2620    -3.8350 
   69.0000    36.6120    14.2550    12.0720     9.5840     2.2630    -3.6140 
   69.1250    37.3860    14.5280    12.3120     9.7030     2.2700    -3.4160 
   69.2500    37.7990    14.8010    12.5270    10.4830     2.2770    -3.2420 
   69.3750    35.3600    14.9190    12.5860    11.2630     2.2740    -3.0970 
   69.5000    35.9200    14.5350    12.2310    10.7550     2.2560    -2.9820 
   69.6250    35.9200    12.6480    10.8420     9.7170     2.2270    -2.9050 
   69.7500    37.7360    10.2180     8.9480     8.8890     2.2160    -2.8560 
   69.8750    42.7220     7.9100     7.0310     7.9870     2.2310    -2.8350 
   70.0000    49.1210     6.0800     5.4370     6.7530     2.2700    -2.8360 
   70.1250    55.1780     4.8790     4.3520     5.3170     2.3200    -2.8560 
   70.2500    61.9120     4.3290     3.7780     4.5170     2.3590    -2.8900 
   70.3750    64.8090     4.3530     3.7880     4.5220     2.3540    -2.9320 
   70.5000    69.4580     4.8550     4.2250     5.3790     2.3160    -2.9750 
   70.6250    69.8910     5.8800     5.0900     7.5090     2.2740    -3.0140 
   70.7500    66.9230     7.3460     6.2390     8.9730     2.2500    -3.0430 
   70.8750    62.9840     9.0140     7.4360     8.6520     2.2540    -3.0600 
   71.0000    57.5460    10.4470     8.4020     9.0920     2.2750    -3.0610 
   71.1250    57.1430    10.8080     8.7500    10.1260     2.2880    -3.0380 
   71.2500    56.0270    10.8290     8.8440    10.1560     2.2800    -2.9960 
   71.3750    56.3020    11.0110     9.0350    10.4890     2.2620    -2.9340 
   71.5000    55.9200    11.5030     9.4300    11.3160     2.2470    -2.8530 
   71.6250    53.4200    12.2820     9.9990    12.1820     2.2400    -2.7530 
   71.7500    52.1050    13.3090    10.6790    12.4080     2.2390    -2.6370 
   71.8750    46.9550    14.3460    11.3100    12.4120     2.2410    -2.5050 
   72.0000    43.7540    14.9890    11.7000    12.3390     2.2450    -2.3620 
   72.1250    41.7020    15.3740    11.9360    12.0450     2.2560    -2.2130 
   72.2500    40.6160    15.5990    12.0700    11.5110     2.2830    -2.0590 
   72.3750    40.3950    15.6970    12.1180    10.8730     2.3260    -1.9040 
   72.5000    40.5430    15.6030    12.0390    10.4420     2.3700    -1.7510 
   72.6250    38.9330    15.2730    11.7860    10.0840     2.3780    -1.6040 
   72.7500    37.8440    14.4510    11.2250     9.0500     2.3480    -1.4680 
   72.8750    36.1940    12.9190    10.2220     8.0680     2.3050    -1.3430 
   73.0000    35.2160    10.9310     8.8640     7.3550     2.2730    -1.2330 
   73.1250    35.8600     8.9410     7.3840     6.7760     2.2650    -1.1410 
   73.2500    36.5500     7.3370     6.0860     5.9790     2.2740    -1.0680 
   73.3750    43.4710     6.2330     5.1740     5.5470     2.2810    -1.0220 
   73.5000    50.5210     5.5870     4.5940     5.6680     2.2910    -0.9990 
   73.6250    56.6240     5.3690     4.3620     5.7570     2.3050    -0.9990 
   73.7500    61.3090     5.5110     4.4310     5.7580     2.3150    -1.0200 
   73.8750    64.1810     5.9340     4.7430     5.9860     2.3140    -1.0590 
   74.0000    64.4860     6.5750     5.2880     6.9600     2.2980    -1.1140 
   74.1250    62.5550     7.5720     6.2800     7.7730     2.2900    -1.1780 
   74.2500    61.9230     9.0080     7.5190     8.6540     2.3090    -1.2400 
   74.3750    58.0800    11.0040     8.9990    13.8780     2.3290    -1.2930 
   74.5000    55.1150    13.1630    10.4990    17.8250     2.3260    -1.3300 
   74.6250    55.5200    14.7650    11.6060    15.4420     2.2880    -1.3450 
   74.7500    51.3940    14.9410    11.7580    11.4820     2.2230    -1.3340 
   74.8750    54.6130    13.3260    10.7810    10.3820     2.2000    -1.2850 
   75.0000    52.8910    11.5990     9.4460     9.5270     2.2190    -1.2080 
   75.1250    52.9290    10.5790     8.6240     8.6880     2.2490    -1.1040 
   75.2500    55.3860    10.4650     8.5400     8.8460     2.2640    -0.9780 
   75.3750    58.3370    11.2260     9.1610    10.5810     2.2510    -0.8350 
   75.5000    60.2340    12.9380    10.5220    12.6450     2.2150    -0.6810 
   75.6250    57.9810    15.8520    12.4630    12.3050     2.1810    -0.5240 
