~V
VERS. 2.00: Ver 2.00
~W
STRT.M 50.0000:
STOP.M 219.0000:
STEP.M 0.1250:
NULL. -999.2500:
UWI. F10086:
~C
DEPT.M :
GR.API :
RML.OHMM :
RI. :
RXO.OHMM :
DEN.GM/CC :
SP.MV :
~A
# ...
  127.2500    52.6990    27.5950    25.2520    21.9660     2.1520    -6.6390 
  127.3750    54.6930    26.0010    23.7120    21.3340     2.1550    -6.5870 
  127.5000    57.5100    25.6490    23.2980    19.6440     2.1790    -6.5470 
  127.6250    58.0090    26.5280    24.0650    19.8600     2.2300    -6.5220 
  127.7500    56.1650    28.6930    25.9080    23.7050     2.3080    -6.5140 
  127.8750    52.9120    32.1000    28.6490    30.3930     2.4070    -6.5230 
  128.0000    48.9600    36.4380    32.0800    35.8440     2.5150    -6.5510 
  128.1250    52.9490    38.9560    34.2230    38.3060     2.5900    -6.5990 
  128.2500    52.0010    38.4620    34.0630    37.7590     2.5960    -6.6610 
  128.3750    51.9810    35.5870    32.0010    30.8290     2.5310    -6.7330 
  128.5000    50.3180    31.8040    29.1170    21.5900     2.4200    -6.8130 
  128.6250    46.2180    28.3760    26.3740    15.4460     2.3070    -6.8970 
  128.7500    46.8790    25.5520    24.0230    14.8430     2.2440    -6.9800 
  128.8750    47.3770    23.4170    22.1500    20.9980     2.2720    -7.0560 
  129.0000    49.5220    21.5770    20.5820    21.8340     2.3130    -7.1180 
  129.1250    52.8460    20.1400    19.4260    18.4440     2.3280    -7.1620 
  129.2500    55.8910    19.0450    18.5880    15.5650     2.3050    -7.1850 
  129.3750    58.6720    18.2710    18.0190    15.8030     2.2550    -7.1840 
  129.5000    63.9660    17.9580    17.8770    15.7310     2.2100    -7.1580 
  129.6250    61.9720    17.9690    18.0870    14.6350     2.1940    -7.1040 
  129.7500    59.9780    17.7930    18.1400    13.9190     2.1890    -7.0300 
  129.8750    58.2950    16.7660    17.3570    13.6290     2.1900    -6.9440 
  130.0000    58.6380    14.8730    15.6590    12.8210     2.1970    -6.8500 
  130.1250    61.5010    12.4360    13.3170    10.7300     2.2130    -6.7550 
  130.2500    64.5440     9.9180    10.7910     7.6510     2.2460    -6.6640 
  130.3750    69.5300     7.9790     8.7650     6.5610     2.2820    -6.5850 
  130.5000    70.9480     6.7700     7.3710     5.7590     2.3080    -6.5220 
  130.6250    67.1400     6.3270     6.8440     5.3100     2.3170    -6.4750 
  130.7500    59.3850     6.6630     7.2700     5.5340     2.3130    -6.4470 
  130.8750    51.3760     7.8410     8.6170     8.2480     2.3030    -6.4370 
  131.0000    48.5390    10.0300    10.7680    17.0980     2.2930    -6.4470 
  131.1250    51.5310    13.5970    13.9630    22.8100     2.2890    -6.4780 
  131.2500    53.2870    17.7460    17.6480    19.2360     2.2790    -6.5260 
  131.3750    53.8460    21.6510    21.0620    17.3820     2.2610    -6.5870 
  131.5000    54.2710    23.7350    22.7980    19.2760     2.2330    -6.6560 
  131.6250    55.3810    23.0930    22.0920    23.3610     2.2040    -6.7290 
  131.7500    56.8250    20.5100    19.7350    27.5120     2.1910    -6.8000 
  131.8750    56.3260    18.0260    17.3730    21.7280     2.1950    -6.8590 
  132.0000    57.4750    16.7900    16.0900    15.3570     2.1980    -6.9010 
  132.1250    58.9710    16.8690    16.0630    13.7550     2.1920    -6.9250 
  132.2500    59.3330    18.6090    17.3880    19.3050     2.1810    -6.9270 
  132.3750    57.5300    22.1380    19.9480    28.8250     2.1760    -6.9100 
  132.5000    53.5280    26.9860    23.2990    32.0150     2.1950    -6.8750 
  132.6250    49.0410    30.0520    25.4980    19.4970     2.2690    -6.8240 
  132.7500    50.4600    28.8540    24.7800    16.6470     2.3670    -6.7670 
  132.8750    52.7020    26.0900    22.7000    17.4000     2.4580    -6.7090 
  133.0000    52.7830    23.6070    20.5940    18.0580     2.5180    -6.6560 
  133.1250    50.1020    22.1570    19.1440    17.5480     2.5380    -6.6100 
  133.2500    46.8930    21.0880    17.9980    17.7470     2.5170    -6.5750 
  133.3750    47.8900    19.4110    16.5170    16.1270     2.4840    -6.5580 
  133.5000    53.4210    17.7330    14.8810    11.2660     2.4450    -6.5580 
  133.6250    57.6110    17.0070    14.0210    12.3230     2.4230    -6.5750 
  133.7500    60.5080    16.4380    13.3550    16.6730     2.4320    -6.6090 
  133.8750    62.8210    14.9720    12.0860    17.7960     2.4760    -6.6600 
  134.0000    62.9550    12.3070    10.0750    10.9050     2.5390    -6.7260 
  134.1250    67.9400     9.4080     7.9870     6.7910     2.5600    -6.8070 
  134.2500    74.9880     7.4780     6.3220     5.7700     2.5270    -6.8950 
  134.3750    78.7160     6.3740     5.2710     5.1410     2.4540    -6.9860 
  134.5000    80.4240     5.8710     4.7660     4.6920     2.3730    -7.0760 
  134.6250    80.9470     5.7620     4.6540     4.7310     2.3160    -7.1590 
  134.7500    76.7300     5.9370     4.8060     4.9090     2.2900    -7.2340 
  134.8750    82.2140     6.0400     4.9580     4.7900     2.2920    -7.2960 
  135.0000    82.7500     6.1210     5.0960     4.7350     2.3030    -7.3460 
  135.1250    81.9390     6.1010     5.1400     4.7720     2.3110    -7.3860 
  135.2500    79.6630     6.0060     5.0950     4.7430     2.3140    -7.4190 
  135.3750    76.8080     5.8940     5.0100     4.5630     2.3120    -7.4470 
  135.5000    77.7910     5.8180     4.9460     4.3870     2.3030    -7.4720 
  135.6250    78.2900     5.7880     4.9170     4.4510     2.2890    -7.4950 
  135.7500    78.7890     5.8260     4.9460     4.4610     2.2760    -7.5200 
  135.8750    76.1590     5.9630     5.0520     4.4770     2.2720    -7.5450 
  136.0000    73.3770     6.2350     5.2570     4.5820     2.2750    -7.5700 
  136.1250    71.9700     6.6320     5.5280     4.8400     2.2760    -7.5950 
  136.2500    67.5660     7.0540     5.7570     5.2670     2.2700    -7.6190 
  136.3750    66.0700     7.2500     5.7930     5.7460     2.2490    -7.6390 
  136.5000    67.4630     7.0290     5.5830     5.5210     2.2350    -7.6550 
  136.6250    69.7700     6.5410     5.2300     4.9960     2.2390    -7.6640 
  136.7500    73.3290     6.0870     4.9170     4.7470     2.2580    -7.6640 
  136.8750    76.4980     5.9710     4.8750     4.9720     2.2830    -7.6510 
  137.0000    73.4370     6.4000     5.3350     5.1660     2.2930    -7.6230 
  137.1250    67.9530     7.6910     6.3320     5.9570     2.2900    -7.5710 
  137.2500    60.8170     9.4080     7.3820    10.0710     2.2890    -7.4970 
  137.3750    56.7820    10.8760     8.3830    12.1000     2.2910    -7.4000 
  137.5000    57.7750    11.8420     9.2330    10.6520     2.2950    -7.2840 
  137.6250    60.8280    12.5370    10.0240     8.3300     2.3010    -7.1500 
  137.7500    57.2540    13.7010    11.1530    11.4130     2.3190    -7.0040 
  137.8750    50.7720    15.4620    12.7970    16.6840     2.3590    -6.8540 
  138.0000    43.8780    18.3880    15.1850    19.5320     2.3950    -6.7110 
  138.1250    44.7270    21.8350    17.6540    21.1120     2.4180    -6.5820 
  138.2500    49.5710    23.6640    19.0020    20.6990     2.4260    -6.4720 
  138.3750    53.4460    22.5310    18.4480    18.3180     2.4230    -6.3860 
  138.5000    56.8660    19.4720    16.3580    16.1950     2.4170    -6.3270 
  138.6250    57.8630    17.4540    14.8830    12.8120     2.4120    -6.3020 
  138.7500    59.2730    16.8400    14.6190    11.8320     2.4170    -6.3030 
  138.8750    59.8290    17.6690    15.6470    13.7910     2.4220    -6.3280 
  139.0000    58.6180    20.2140    18.0180    19.9440     2.4260    -6.3750 
  139.1250    55.5270    24.3760    21.4990    30.1280     2.4350    -6.4390 
  139.2500    51.5810    29.1480    25.3250    40.9640     2.4520    -6.5180 
  139.3750    49.0880    27.4280    24.4660    32.3170     2.4720    -6.6110 
  139.5000    47.5590    20.9290    19.9260    21.0020     2.4650    -6.7070 
  139.6250    48.9460    14.5080    14.8170    13.0680     2.4290    -6.8050 
  139.7500    52.5080     9.9930    10.6430     8.4380     2.3730    -6.8980 
  139.8750    57.1330     7.5900     7.9830     5.7580     2.3160    -6.9830 
  140.0000    62.7170     6.6000     6.7760     5.2550     2.2810    -7.0560 
