~V
VERS. 2.00: Ver 2.00
~W
STRT.M 20.0000:
STOP.M 297.0000:
STEP.M 0.1250:
NULL. -999.2500:
UWI. F10080:
~C
DEPT.M :
GR.API :
RML.OHMM :
RI. :
RXO.OHMM :
DEN.GM/CC :
SP.MV :
~A
# ...
  290.3750     8.5300    11.5910    10.0450     5.1980     2.3600   -45.5570 
  290.5000     8.5300    12.0500    10.4350     5.1970     2.3590   -45.9210 
  290.6250     8.5300    12.5350    10.8450     5.1960     2.3500   -46.2580 
  290.7500     8.5300    12.9840    11.2660     5.1970     2.3370   -46.5660 
  290.8750     8.5300    13.2540    11.6030     5.1960     2.3330   -46.8300 
  291.0000     8.5300    13.4360    11.8630     5.1950     2.3440   -47.0620 
  291.1250     8.5300    13.6600    12.2040     5.1960     2.3600   -47.2280 
  291.2500     8.5300    14.0820    12.7270    30.3250     2.3760   -47.3220 
  291.3750     8.5300    14.7910    13.4270   109.8290     2.3900   -47.3450 
  291.5000     8.5300    15.7130    14.1610   249.9280     2.4030   -47.2970 
  291.6250     8.5300    16.1470    14.5830   298.1950     2.4110   -47.1700 
  291.7500     8.5300    15.9920    14.5200   303.6530     2.4070   -46.9780 
  291.8750     8.5300    15.1560    14.0310   303.6530     2.3840   -46.7430 
  292.0000     8.5300    13.9770    13.2210   303.6530     2.3560   -46.4820 
  292.1250     8.5300    12.8550    12.3030   303.6530     2.3320   -46.2120 
  292.2500     8.5300    12.1150    11.5700   303.6530     2.3180   -45.9510 
  292.3750     8.5300    12.0240    11.4030   303.6530     2.3090   -45.7190 
  292.5000     8.5300    12.1880    11.5150   303.6530     2.3050   -45.5300 
  292.6250     8.5300    12.3790    11.6380   303.6530     2.3100   -45.3850 
  292.7500     8.5300    12.5060    11.6870   303.6530     2.3160   -45.2800 
  292.8750     8.5300    12.5610    11.6610   303.6530     2.3150   -45.2130 
  293.0000     8.5300    12.6040    11.6080   303.6530     2.3030   -45.1770 
  293.1250     8.5300    12.6100    11.5990   303.6530     2.2850   -45.1660 
  293.2500     8.5300    12.6150    11.5990   303.6530     2.2770   -45.1680 
  293.3750     8.5300    12.6160    11.6000   303.6530     2.2870   -45.1780 
  293.5000     8.5300    12.6110    11.6000   303.6530     2.3090   -45.1900 
  293.6250     8.5300    12.6040    11.6000   303.6530     2.3330   -45.2040 
  293.7500     8.5300    12.6000    11.6000   303.6530     2.3540   -45.2170 
  293.8750     8.5300    12.6000    11.6000   303.6530     2.3720   -45.2280 
  294.0000     8.5300    12.6010    11.6000   303.6530     2.3930   -45.2360 
  294.1250     8.5300    12.5970    11.6000   303.6530     2.3980   -45.2410 
  294.2500     8.5300    12.5970    11.5990   303.6530     2.3770   -45.2410 
  294.3750     8.5300    12.6010    11.5970   303.6530     2.3280   -45.2370 
  294.5000     8.5300    12.5990    11.5970   303.6530     2.2610   -45.2260 
  294.6250     8.5300    12.6030    11.5970   303.6530     2.2100   -45.2090 
  294.7500     8.5300    12.6010    11.5990   303.6530     2.1830   -45.1850 
  294.8750     8.5300    12.6020    11.5980   303.6530     2.1680   -45.1550 
  295.0000     8.5300    12.6030    11.5970   303.6530     2.1570   -45.1200 
  295.1250     8.5300    12.6030    11.5970   303.6530     2.1460   -45.0810 
  295.2500     8.5300    12.5980    11.5980   303.6530     2.1410   -45.0380 
  295.3750     8.5300    12.5970    11.6000   303.6530     2.1460   -44.9920 
  295.5000     8.5300    12.6020    11.6010   303.6530     2.1570   -44.9430 
  295.6250     8.5300    12.6040    11.6000   303.6530     2.1600   -44.8920 
  295.7500     8.5300    12.6060    11.6000   303.6530     2.1530   -44.8390 
  295.8750     8.5300    12.6070    11.6000   303.6530     2.1380   -44.7850 
  296.0000     8.5300    12.6040    11.6000   303.6530     2.1200   -44.7320 
  296.1250     8.5300    12.6070    11.6000   303.6530     2.0960   -44.6780 
  296.2500     8.5300    12.6090    11.6010   303.6530     2.0620   -44.6170 
  296.3750     8.5300    12.6150    11.6010   303.6530     2.0230   -44.5400 
  296.5000     8.5300    12.6220    11.6020   303.6530     1.9850   -44.4350 
  296.6250     8.5300    12.6270    11.6020   303.6530     1.9570   -44.2850 
  296.7500     8.5300    12.6310    11.6020   303.6530     1.9450   -44.0730 
  296.8750     8.5300    12.6260    11.6020   303.6530     1.9430   -43.7670 
  297.0000     8.5300    12.6210    11.6040   244.3750     1.9480   -43.3510 
