~V
VERS. 2.00: Ver 2.00
~W
STRT.M 50.0000:
STOP.M 219.0000:
STEP.M 0.1250:
NULL. -999.2500:
UWI. F10086:
~C
DEPT.M :
GR.API :
RML.OHMM :
RI. :
RXO.OHMM :
DEN.GM/CC :
SP.MV :
~A
# ...
  101.5000    56.0320    23.8510    23.8510    13.0430     2.1940    -1.0130 
  101.6250    55.6410    23.5470    23.5890    13.3350     2.1990    -1.1140 
  101.7500    55.6490    23.6480    23.7060    14.0500     2.1870    -1.2150 
  101.8750    56.1480    24.2710    24.3410    15.6720     2.1700    -1.3130 
  102.0000    54.2040    25.2070    25.2830    16.5850     2.1500    -1.4030 
  102.1250    54.1700    26.2520    26.3120    17.0050     2.1380    -1.4840 
  102.2500    54.8350    27.0940    27.0930    17.5560     2.1350    -1.5520 
  102.3750    55.3090    27.3750    27.2790    18.4620     2.1360    -1.6080 
  102.5000    59.2420    26.7750    26.6090    18.8830     2.1360    -1.6520 
  102.6250    59.9070    25.6810    25.3780    16.5650     2.1350    -1.6830 
  102.7500    62.0650    24.4930    24.1200    14.8190     2.1390    -1.7110 
  102.8750    65.1730    23.9660    23.5840    14.3690     2.1530    -1.7400 
  103.0000    65.2680    24.7400    24.3220    15.3980     2.1770    -1.7760 
  103.1250    61.1910    27.4720    26.8310    19.1500     2.2120    -1.8240 
  103.2500    59.1710    32.9350    31.6650    29.3860     2.2780    -1.8890 
  103.3750    55.6810    43.8910    41.0940    66.3540     2.3880    -1.9800 
  103.5000    55.0430    57.6440    52.5610   110.9400     2.5040    -2.0960 
  103.6250    54.6320    57.2830    52.2190   126.0300     2.5890    -2.2350 
  103.7500    56.9490    42.4910    40.0410   106.4980     2.6230    -2.3960 
  103.8750    63.7560    23.1800    23.9170    63.9360     2.5990    -2.5780 
  104.0000    71.6840    14.3040    14.9380    15.9230     2.5250    -2.7770 
  104.1250    76.8370    10.9430    10.9250     7.0930     2.4280    -2.9930 
  104.2500    74.1100     9.4300     9.0870     7.7060     2.3420    -3.2170 
  104.3750    72.8040     9.1560     8.5900    10.3740     2.2870    -3.4430 
  104.5000    75.4800     9.6520     8.8310    11.1240     2.2620    -3.6660 
  104.6250    80.3140    10.3960     9.3050     9.1200     2.2590    -3.8800 
  104.7500    82.7080    10.7210     9.5600     6.7170     2.2670    -4.0810 
  104.8750    79.5500    10.0300     9.1230     7.2030     2.2860    -4.2540 
  105.0000    74.4900     9.5770     8.8110     7.3320     2.3050    -4.3990 
  105.1250    68.8010     9.7920     9.1190     7.5820     2.3320    -4.5150 
  105.2500    64.7880    10.8870    10.1740     8.4210     2.3730    -4.6010 
  105.3750    62.7500    12.7520    11.7230    10.9330     2.4300    -4.6570 
  105.5000    58.8290    14.8500    13.1080    17.1590     2.4970    -4.6860 
  105.6250    58.6630    15.0700    12.8820    24.7960     2.5320    -4.6910 
  105.7500    61.8950    13.3950    11.3420    16.2090     2.5260    -4.6810 
  105.8750    65.8830    11.0320     9.3670     8.9750     2.4800    -4.6620 
  106.0000    69.2470     8.9900     7.6430     6.3380     2.4130    -4.6410 
  106.1250    70.4360     7.8170     6.5580     6.0000     2.3470    -4.6210 
  106.2500    67.0260     7.3560     6.0720     6.2800     2.2930    -4.6060 
  106.3750    68.0240     7.6670     6.2620     6.1110     2.2750    -4.6020 
  106.5000    70.6520     8.2800     6.6860     6.1080     2.2770    -4.6090 
  106.6250    75.4930     8.8240     7.0780     6.4460     2.2830    -4.6290 
  106.7500    78.1400     9.1450     7.3120     6.7190     2.2840    -4.6590 
  106.8750    76.5090     9.1630     7.3230     6.5800     2.2780    -4.7010 
  107.0000    76.1190     8.7890     7.0690     6.2220     2.2650    -4.7510 
  107.1250    72.6290     8.0430     6.5560     5.7960     2.2600    -4.8070 
  107.2500    70.3620     7.2920     6.0040     5.2950     2.2580    -4.8610 
  107.3750    68.8820     6.7520     5.5850     4.9150     2.2610    -4.9080 
  107.5000    69.8740     6.5370     5.3980     4.8410     2.2650    -4.9430 
  107.6250    73.2460     6.6870     5.4740     5.0980     2.2710    -4.9620 
  107.7500    74.3870     7.1760     5.7770     5.4330     2.2840    -4.9630 
  107.8750    74.3870     7.7240     6.0780     6.1280     2.2960    -4.9390 
  108.0000    69.4900     7.9160     6.1960     6.2910     2.3050    -4.8970 
  108.1250    67.7220     7.7920     6.1410     5.9310     2.3090    -4.8430 
  108.2500    67.7180     7.5320     6.0110     5.2940     2.3080    -4.7820 
  108.3750    66.5910     7.3340     5.9180     4.9090     2.3050    -4.7190 
  108.5000    65.6310     7.3020     5.9380     5.5570     2.2940    -4.6600 
  108.6250    66.6280     7.4460     6.1120     6.2100     2.2760    -4.6150 
  108.7500    72.6600     7.6010     6.3500     5.9820     2.2690    -4.5850 
  108.8750    76.6190     7.6390     6.5160     5.6560     2.2730    -4.5710 
  109.0000    78.6830     7.5380     6.5480     5.5960     2.2800    -4.5750 
  109.1250    78.6600     7.3160     6.4270     5.7300     2.2790    -4.5950 
  109.2500    71.0350     6.9800     6.1670     5.5330     2.2650    -4.6300 
  109.3750    73.0290     6.5770     5.8790     5.4600     2.2540    -4.6810 
  109.5000    73.2540     6.3790     5.7710     5.5070     2.2540    -4.7440 
  109.6250    75.0430     6.5160     5.9930     5.7100     2.2590    -4.8160 
  109.7500    74.9000     7.2410     6.8130     6.9320     2.2610    -4.8940 
  109.8750    70.0480     8.8690     8.5080    10.3340     2.2490    -4.9770 
  110.0000    63.8610    11.7270    11.2820    16.8990     2.2230    -5.0630 
  110.1250    55.7170    17.1380    15.7440    25.6670     2.1920    -5.1460 
  110.2500    52.2030    24.7220    21.8540    30.4620     2.1630    -5.2250 
  110.3750    50.1210    31.3810    27.6520    33.2530     2.1360    -5.2970 
  110.5000    49.6870    35.4920    31.7060    34.2070     2.1130    -5.3630 
  110.6250    50.7820    36.7620    33.4720    32.6150     2.0970    -5.4210 
  110.7500    50.4750    36.1760    33.5860    27.6150     2.0850    -5.4740 
  110.8750    51.4720    33.0450    31.1680    23.7050     2.0840    -5.5220 
  111.0000    53.2870    29.3410    28.0790    21.2960     2.0930    -5.5710 
  111.1250    55.4870    25.8600    25.0760    17.7320     2.1110    -5.6220 
  111.2500    56.0710    23.1990    22.7050    14.0550     2.1360    -5.6760 
  111.3750    53.7680    21.5310    21.1450    12.4900     2.1610    -5.7360 
  111.5000    49.7890    20.4380    20.0800    14.4840     2.1800    -5.8000 
  111.6250    46.2990    19.9540    19.6290    15.4830     2.1770    -5.8680 
  111.7500    45.1250    19.9150    19.6750    15.6420     2.1680    -5.9380 
  111.8750    47.9620    20.3640    20.2740    15.1830     2.1680    -6.0070 
  112.0000    51.2730    21.2900    21.3790    15.8040     2.1790    -6.0740 
  112.1250    52.2710    22.7860    23.0220    18.7190     2.1910    -6.1370 
  112.2500    53.2480    25.1370    25.4290    23.1200     2.1850    -6.1940 
  112.3750    53.2480    27.6760    27.9960    25.1830     2.1600    -6.2440 
  112.5000    55.2920    29.1430    29.7080    25.0440     2.1440    -6.2830 
  112.6250    55.9300    29.4840    30.3870    21.6400     2.1460    -6.3130 
  112.7500    55.0130    29.3010    30.5040    17.8700     2.1600    -6.3290 
  112.8750    53.2970    29.4490    30.8180    16.8210     2.1730    -6.3320 
  113.0000    50.8710    30.7050    32.0880    18.9190     2.1740    -6.3180 
  113.1250    51.7020    33.5280    34.7650    23.2070     2.1660    -6.2840 
  113.2500    52.6700    37.0060    38.0620    24.4940     2.1590    -6.2340 
  113.3750    55.2130    39.4440    40.4720    24.9150     2.1560    -6.1720 
  113.5000    57.0970    39.4350    40.6590    24.6540     2.1610    -6.1000 
  113.6250    57.4600    36.5080    38.0980    23.3330     2.1750    -6.0240 
  113.7500    60.2140    31.6780    33.6150    21.0060     2.1950    -5.9460 
  113.8750    59.5500    27.7860    29.7220    20.1040     2.2120    -5.8750 
  114.0000    61.0660    25.7430    27.5070    17.7630     2.2230    -5.8140 
  114.1250    59.3480    24.9260    26.5370    17.1960     2.2270    -5.7650 
  114.2500    57.5960    24.5810    26.0830    18.8250     2.2260    -5.7290 
