~V
VERS. 2.00: Ver 2.00
~W
STRT.M 50.0000:
STOP.M 219.0000:
STEP.M 0.1250:
NULL. -999.2500:
UWI. F10086:
~C
DEPT.M :
GR.API :
RML.OHMM :
RI. :
RXO.OHMM :
DEN.GM/CC :
SP.MV :
~A
   50.0000    36.7950     0.2060     0.2000     0.2000     2.4020    59.2540 
   50.1250    37.1270     0.2060     0.2000     0.2000     2.4020    59.2540 
   50.2500    33.9360     0.2060     0.2000     0.2000     2.3910    59.2540 
   50.3750    31.8590     0.2060     0.2000     0.2000     2.3820    59.2540 
   50.5000    31.8090     0.2060     0.2000     0.2000     2.3820    59.2540 
   50.6250    32.6730     0.2060     0.2000     0.2010     2.3890    59.2540 
   50.7500    33.0060     0.2060     0.2000     0.2060     2.3920    59.2540 
   50.8750    33.4210     0.2060     0.2000     0.2330     2.3820    59.2540 
   51.0000    34.3020     0.2060     0.2000     0.2680     2.3630    59.2540 
   51.1250    35.6990     0.2060     0.2000     0.3090     2.3440    59.2540 
   51.2500    36.2960     0.2060     0.2000     0.3420     2.3330    59.2540 
   51.3750    35.0990     0.2060     0.2000     0.3520     2.3370    59.2540 
   51.5000    33.1040     0.2060     0.2000     0.3460     2.3490    59.2540 
   51.6250    30.7780     0.2060     0.2000     0.3520     2.3680    59.2540 
   51.7500    31.9100     0.2060     0.2000     0.3620     2.3810    59.2540 
   51.8750    33.1060     0.2060     0.2000     0.3620     2.3800    59.2540 
   52.0000    34.1700     0.2060     0.2000     0.3500     2.3700    59.2540 
   52.1250    35.5650     0.2060     0.2000     0.3370     2.3590    59.2540 
   52.2500    35.8970     0.2060     0.2000     0.3470     2.3550    59.2540 
   52.3750    35.8970     0.2060     0.2000     0.3630     2.3640    59.2540 
   52.5000    37.2280     0.2060     0.2000     0.3530     2.3730    59.2540 
   52.6250    37.6920     0.2060     0.2000     0.3050     2.3760    59.2540 
   52.7500    37.4930     0.2060     0.2000     0.2440     2.3750    59.2540 
   52.8750    37.2260     0.2060     0.2000     0.2040     2.3740    59.2540 
   53.0000    35.9000     0.2060     0.2000     0.2000     2.3740    59.2540 
   53.1250    38.2260     0.2060     0.2000     0.2000     2.3680    59.2540 
   53.2500    39.8880     0.2060     0.2000     0.2000     2.3610    59.2540 
   53.3750    41.8830     0.2060     0.2000     0.2000     2.3530    59.2540 
   53.5000    43.5430     0.2830     0.2000     0.2000     2.3430    59.2540 
   53.6250    44.1070     0.4510     0.2000     0.2000     2.3300    59.2540 
   53.7500    44.2720     0.5230     0.2000     0.2000     2.3150    59.2540 
   53.8750    43.2750     0.2590     0.2000     0.2000     2.3200    59.2540 
   54.0000    41.7450     0.2060     0.2000     0.2150     2.3410    59.2540 
   54.1250    41.2820     0.2060     0.2000     0.2650     2.3590    60.0900 
   54.2500    40.0140     0.2060     0.2000     0.3470     2.3660    61.6370 
   54.3750    37.4290     0.2060     0.2000     0.4370     2.3590    63.4730 
   54.5000    39.0840     0.2060     0.2000     0.4850     2.3430    65.5340 
   54.6250    36.4250     0.2060     0.2000     0.5070     2.3340    67.7640 
   54.7500    37.4960     0.2060     0.2000     0.6200     2.3360    70.0500 
   54.8750    38.3410     0.3860     0.2000     0.8090     2.3490    72.3370 
   55.0000    39.1910     0.5710     0.2000     1.0000     2.3750    74.5850 
   55.1250    41.1190     0.5480     0.2000     1.1250     2.4150    76.7590 
   55.2500    42.7760     0.3780     0.2000     1.1710     2.4610    78.8370 
   55.3750    41.7790     0.2340     0.2000     1.1520     2.4990    80.7740 
   55.5000    41.8480     0.2060     0.2000     1.1460     2.5330    82.5960 
   55.6250    42.7800     0.2060     0.2000     1.1520     2.5670    84.3050 
   55.7500    42.8740     0.2060     0.2000     1.1540     2.5960    85.9000 
   55.8750    41.6160     0.2060     0.2000     1.1460     2.6130    87.3810 
   56.0000    42.2750     0.2060     0.2000     1.1600     2.6140    88.7410 
   56.1250    40.0310     0.2060     0.2000     1.1920     2.5980    89.9220 
   56.2500    42.7860     0.2060     0.2000     1.1930     2.5740    90.9190 
   56.3750    43.5730     0.2060     0.2000     1.1890     2.5530    91.6910 
   56.5000    42.3970     0.2060     0.2000     1.2000     2.5420    92.1900 
   56.6250    40.7680     0.2060     0.2000     1.2280     2.5420    92.3660 
   56.7500    36.4530     0.2060     0.2000     1.2420     2.5510    92.1680 
   56.8750    35.1230     0.2060     0.2000     1.2350     2.5640    91.4260 
   57.0000    37.1540     0.2060     0.2000     1.1990     2.5700    90.2000 
   57.1250    38.6410     0.2060     0.2000     1.1020     2.5700    89.2000 
   57.2500    39.9250     0.2060     0.2000     0.9680     2.5730    89.2140 
   57.3750    41.4440     0.2060     0.2000     0.8350     2.5890    90.3490 
   57.5000    39.7840     0.2060     0.2000     0.7130     2.6250    91.3000 
   57.6250    38.7870     0.2060     0.2000     0.6460     2.6490    91.9520 
   57.7500    38.8560     0.2060     0.2000     0.7020     2.6410    92.2980 
   57.8750    39.1890     0.2060     0.2000     0.8050     2.6050    92.2870 
   58.0000    39.9560     0.2060     0.2000     0.8630     2.5640    91.8710 
   58.1250    40.3590     0.2060     0.2000     0.8070     2.5360    91.0070 
   58.2500    36.7970     0.2060     0.2000     0.6390     2.5200    89.6590 
   58.3750    37.4610     0.2060     0.2000     0.4590     2.4790    87.6760 
   58.5000    40.5280     0.2060     0.2650     0.8520     2.4150    85.1740 
   58.6250    44.3340     0.2700     0.5150     2.7780     2.3450    82.1620 
   58.7500    46.9340     0.5160     1.0230     4.9840     2.2850    78.6520 
   58.8750    47.5320     1.0870     1.8360     5.8020     2.2430    74.6600 
   59.0000    47.8720     2.1240     3.0100     4.8850     2.2210    70.2020 
   59.1250    50.8630     4.1900     4.7280     5.0290     2.2240    65.1980 
   59.2500    52.5210     5.6330     6.1820     7.3280     2.2450    59.7870 
   59.3750    52.2470     6.5220     7.4090     9.0130     2.2690    54.0120 
   59.5000    49.7110     7.3360     8.7130     8.8250     2.2790    47.9290 
   59.6250    46.8080     8.4770    10.2580     7.3320     2.2690    41.6120 
   59.7500    49.4540     9.7960    11.6730     7.2270     2.2420    35.1560 
   59.8750    47.8750    10.5080    12.2150     7.3020     2.2020    28.7280 
   60.0000    49.7000    10.6970    12.2380     7.0430     2.1610    22.5120 
   60.1250    45.7420    11.0070    12.5920     6.9190     2.1300    16.6480 
   60.2500    40.3810    11.8020    13.5470     7.4030     2.1240    11.2650 
   60.3750    39.1810    13.2070    14.9900     9.9710     2.1580     6.4690 
   60.5000    37.2160    15.1520    16.6140    17.9750     2.2440     2.3390 
   60.6250    43.8640    16.5510    17.4050    18.4350     2.3520    -0.9160 
   60.7500    46.1720    16.3110    16.8340    13.4740     2.4110    -3.4980 
   60.8750    47.5690    15.0480    15.4080    10.1120     2.4040    -5.4770 
   61.0000    48.0590    13.7050    13.8480     8.7740     2.3450    -6.9340 
   61.1250    47.1630    13.0530    12.8250     7.5670     2.2700    -7.9600 
   61.2500    46.6670    13.2030    12.7010     6.3000     2.2270    -8.6500 
   61.3750    46.8330    13.1220    12.4090     8.8200     2.2580    -9.0590 
   61.5000    51.6740    12.1540    11.4420    10.3550     2.3150    -9.3280 
   61.6250    60.9690    10.2600     9.7310     8.1970     2.3640    -9.5020 
   61.7500    73.3090     8.0070     7.7420     5.2740     2.3820    -9.6100 
   61.8750    85.7850     6.1410     6.0210     4.6140     2.3660    -9.6700 
   62.0000    93.7420     5.1660     4.7700     4.1450     2.3300    -9.6910 
   62.1250    96.2350     4.7410     4.1890     3.8510     2.3180    -9.6720 
   62.2500    98.0600     4.6040     3.9650     3.7170     2.3150    -9.6280 
   62.3750    97.2120     4.6360     3.9370     3.6170     2.3110    -9.5700 
   62.5000    96.3310     4.8140     4.0580     3.6850     2.3030    -9.5100 
   62.6250    95.0800     5.1880     4.3390     4.1820     2.2880    -9.4660 
   62.7500    83.1200     5.8560     4.8060     5.3690     2.2630    -9.4540 
