~V
VERS. 2.00: Ver 2.00
~W
STRT.M 20.0000:
STOP.M 297.0000:
STEP.M 0.1250:
NULL. -999.2500:
UWI. F10080:
~C
DEPT.M :
GR.API :
RML.OHMM :
RI. :
RXO.OHMM :
DEN.GM/CC :
SP.MV :
~A
# ...
   32.8750    42.8240     0.2000     0.2000     0.2000     2.3550    23.7820 
   33.0000    41.6470     0.2000     0.2000     0.2000     2.3550    23.7820 
   33.1250    40.9430     0.2000     0.2000     0.2000     2.3550    23.7820 
   33.2500    41.1390     0.2000     0.2000     0.2000     2.3550    23.7820 
   33.3750    41.9210     0.2000     0.2000     0.2000     2.3550    23.7820 
   33.5000    43.8470     0.2000     0.2000     0.2000     2.3550    23.7820 
   33.6250    42.3920     0.2000     0.2000     0.2000     2.3550    23.7820 
   33.7500    38.9850     0.2000     0.2000     0.2000     2.3550    23.7820 
   33.8750    36.4730     0.2000     0.2000     0.2000     2.3550    23.7820 
   34.0000    36.4910     0.2000     0.2000     0.2000     2.3550    23.7820 
   34.1250    38.9820     0.2000     0.2000     0.2000     2.3550    23.7820 
   34.2500    41.7500     0.2000     0.2000     0.2000     2.3550    23.7820 
   34.3750    48.5420     0.2000     0.2000     0.2000     2.3550    23.7820 
   34.5000    46.7460     0.2000     0.2000     0.2000     2.3550    23.7820 
   34.6250    44.1360     0.2000     0.2000     0.2000     2.3550    23.7820 
   34.7500    41.5070     0.2000     0.2000     0.2000     2.3550    23.7820 
   34.8750    39.2150     0.2000     0.2000     0.2000     2.3550    23.7820 
   35.0000    43.0860     0.2000     0.2000     0.2000     2.3550    23.7820 
   35.1250    45.0270     0.2000     0.2000     0.2000     2.3550    23.7820 
   35.2500    46.9670     0.2000     0.2000     0.2000     2.3550    23.7820 
   35.3750    46.2670     0.2000     0.2000     0.2000     2.3550    23.7820 
   35.5000    43.4480     0.2000     0.2000     0.2000     2.3550    23.7820 
   35.6250    40.6820     0.2000     0.2000     0.2000     2.3550    23.7820 
   35.7500    40.3650     0.2000     0.2000     0.2000     2.3550    23.7820 
   35.8750    41.3360     0.2000     0.2000     0.2000     2.3550    23.7820 
   36.0000    42.6970     0.2000     0.2000     0.2000     2.3550    23.7820 
   36.1250    42.4880     0.2000     0.2000     0.2000     2.3550    23.7820 
   36.2500    41.7190     0.2000     0.2000     0.2000     2.3550    23.7820 
   36.3750    42.2170     0.2000     0.2000     0.2000     2.3550    23.7820 
   36.5000    44.6120     0.2000     0.2000     0.2000     2.3550    23.7820 
   36.6250    41.3780     0.2000     0.2000     0.2000     2.3550    23.7820 
   36.7500    39.5770     0.2000     0.2000     0.2000     2.3550    23.7820 
   36.8750    38.0230     0.2000     0.2000     0.2000     2.3550    23.7820 
   37.0000    37.8490     0.2000     0.2000     0.2000     2.3550    23.7820 
   37.1250    39.3900     0.2000     0.2000     0.2000     2.3550    23.7820 
   37.2500    39.4050     0.2000     0.2000     0.2000     2.3550    23.7820 
   37.3750    41.9920     0.2000     0.2000     0.2000     2.3550    23.7820 
   37.5000    45.6210     0.2000     0.2000     0.2000     2.3550    23.7820 
   37.6250    48.0330     0.2000     0.2000     0.2000     2.3550    23.7820 
   37.7500    48.5050     0.2000     0.2000     0.2000     2.3550    23.7820 
   37.8750    46.8690     0.2000     0.2000     0.2000     2.3550    23.7820 
   38.0000    42.6920     0.2000     0.2000     0.2000     2.3550    23.7820 
   38.1250    43.1770     0.2000     0.2000     0.2000     2.3550    23.7820 
   38.2500    42.4890     0.2000     0.2000     0.2000     2.3550    23.7820 
   38.3750    42.8910     0.2000     0.2000     0.2000     2.3550    23.7820 
   38.5000    44.4470     0.2000     0.2000     0.2000     2.3550    23.7820 
   38.6250    46.7870     0.2000     0.2000     0.2000     2.3550    23.7820 
   38.7500    50.6560     0.2000     0.2000     0.2000     2.3550    23.7820 
   38.8750    52.5970     0.2000     0.2000     0.2000     2.3550    23.7820 
   39.0000    54.1460     0.2000     0.2000     0.2000     2.3550    23.7820 
   39.1250    53.8380     0.2000     0.2000     0.2000     2.3550    23.7820 
   39.2500    53.1700     0.2000     0.2000     0.2000     2.3550    23.7820 
   39.3750    53.0890     0.2000     0.2000     0.2000     2.3550    23.7820 
   39.5000    50.8450     0.2000     0.2000     0.2000     2.3550    23.7820 
   39.6250    51.8150     0.2000     0.2000     0.2000     2.3550    23.7820 
   39.7500    50.0470     0.2000     0.2000     0.2000     2.3550    23.7820 
   39.8750    49.2890     0.2000     0.2000     0.2000     2.3550    23.7820 
   40.0000    49.4810     0.2000     0.2000     0.2000     2.3550    23.7820 
   40.1250    49.4810     0.2000     0.2000     0.2000     2.3550    23.7820 
   40.2500    49.4900     0.2000     0.2000     0.2000     2.3550    23.7820 
   40.3750    50.9450     0.2000     0.2000     0.2000     2.3550    23.7820 
   40.5000    51.6180     0.2000     0.2000     0.2000     2.3550    23.7820 
   40.6250    55.9290     0.2000     0.2000     0.2000     2.3550    23.7820 
   40.7500    60.5510     0.2000     0.2000     0.2000     2.3550    23.7820 
   40.8750    62.0390     0.2000     0.2000     0.2000     2.3550    23.7820 
   41.0000    63.6190     0.2000     0.2000     0.2000     2.3550    23.7820 
   41.1250    59.7380     0.2000     0.2000     0.2000     2.3550    23.7820 
   41.2500    57.8140     0.2000     0.2000     0.2000     2.3550    23.7820 
   41.3750    57.1440     0.2000     0.2000     0.2000     2.3550    23.7820 
   41.5000    56.3900     0.2000     0.2000     0.2000     2.3550    23.7820 
   41.6250    55.0070     0.2000     0.2000     0.2000     2.3550    23.7820 
   41.7500    54.5050     0.2000     0.2000     0.2000     2.3550    23.7820 
   41.8750    51.5950     0.2000     0.2000     0.2000     2.3550    23.7820 
   42.0000    52.0770     0.2000     0.2000     0.2000     2.3550    23.7820 
   42.1250    53.1740     0.2000     0.2000     0.2000     2.3550    23.7820 
   42.2500    53.5520     0.2000     0.2000     0.2000     2.3550    23.7820 
   42.3750    52.1290     0.2000     0.2000     0.2000     2.3550    23.7820 
   42.5000    47.1380     0.2000     0.2000     0.2000     2.3550    23.7820 
   42.6250    45.1980     0.2000     0.2000     0.2000     2.3550    23.7820 
   42.7500    44.8240     0.2000     0.2000     0.2000     2.3550    23.7820 
   42.8750    46.5910     0.2000     0.2000     0.2000     2.3550    23.7820 
   43.0000    48.7120     0.2000     0.2000     0.2000     2.3550    23.7820 
   43.1250    49.4810     0.2000     0.2000     0.2000     2.3550    23.7820 
   43.2500    49.4630     0.2000     0.2000     0.2000     2.3550    23.7820 
   43.3750    47.0890     0.2000     0.2000     0.2000     2.3550    23.7820 
   43.5000    46.6320     0.2000     0.2000     0.2000     2.3550    22.2580 
   43.6250    46.6320     0.2000     0.2000     0.2000     2.3550    18.4140 
   43.7500    46.6320     0.2000     0.2000     0.2000     2.3550    14.7950 
   43.8750    46.6320     0.2000     0.2000     0.2000     2.3550    13.3690 
   44.0000    46.6320     0.2000     0.2000     0.2000     2.3550    12.0580 
   44.1250    46.6320     0.2000     0.2000     0.2000     2.3550    10.8940 
   44.2500    46.6320     0.2000     0.2000     0.2000     2.3550     9.8500 
   44.3750    46.6320     0.2000     0.2000     0.2000     2.3550     8.9200 
   44.5000    46.6320     0.2000     0.2000     0.2000     2.3550     8.0980 
   44.6250    46.6320     0.2000     0.2000     0.2000     2.3550     7.3720 
   44.7500    46.6320     0.2000     0.2000     0.2000     2.3550     6.7300 
   44.8750    46.6320     0.2000     0.2000     0.2000     2.3550     6.1700 
   45.0000    47.2860     0.2000     0.2000     0.2000     2.3550     5.6610 
   45.1250    49.9660     0.2000     0.2000     0.2000     2.3550     5.1980 
   45.2500    53.9850     0.2000     0.2000     0.2000     2.3550     4.7780 
   45.3750    57.0830     0.2000     0.2000     0.2000     2.3550     4.4070 
   45.5000    55.9530     0.2000     0.2000     0.2000     2.3550     4.0930 
   45.6250    55.3060     0.2000     0.2000     0.2000     2.3550     3.8720 
