~V
VERS. 2.00: Ver 2.00
~W
STRT.M 50.0000:
STOP.M 254.0000:
STEP.M 0.1250:
NULL. -999.2500:
UWI. F10088:
~C
DEPT.M :
GR.API :
RML.OHMM :
RI. :
RXO.OHMM :
DEN.GM/CC :
SP.MV :
~A
# ...
  191.6250    65.3090     7.8970     5.9760     9.5720     2.4080    -3.3120 
  191.7500    71.9270     8.1870     6.1860     9.8310     2.4220    -3.2050 
  191.8750    73.8580     8.5420     6.4080    10.0550     2.4310    -3.0820 
  192.0000    72.5240     8.7400     6.5480    11.2280     2.4260    -2.9500 
  192.1250    71.4750     8.8280     6.6470    11.3190     2.4060    -2.8140 
  192.2500    72.4540     8.8210     6.6980    10.9170     2.3770    -2.6780 
  192.3750    74.7970     8.8170     6.7460    10.9520     2.3520    -2.5430 
  192.5000    75.2910     9.0200     6.9230    11.5210     2.3400    -2.4120 
  192.6250    72.6350     9.2020     7.0870    11.0220     2.3450    -2.2870 
  192.7500    68.1420     9.5740     7.3740    11.6610     2.3570    -2.1680 
  192.8750    66.6400     9.8040     7.5920    12.1340     2.3710    -2.0540 
  193.0000    66.2440     9.9340     7.7480    11.6990     2.3810    -1.9460 
  193.1250    65.4510    10.0500     7.8730    10.7760     2.3860    -1.8440 
  193.2500    65.9360    10.1240     7.9360    11.0330     2.3900    -1.7470 
  193.3750    61.4290    10.0280     7.8910    11.0160     2.3980    -1.6560 
  193.5000    64.8190     9.6770     7.6940    10.8510     2.4030    -1.5720 
  193.6250    65.4370     9.2820     7.4690    10.8000     2.4010    -1.4910 
  193.7500    67.3720     8.9710     7.2850    10.6750     2.3930    -1.4150 
  193.8750    70.9580     8.8320     7.1980    10.6060     2.3810    -1.3410 
  194.0000    66.0790     8.9210     7.2650    11.3270     2.3690    -1.2690 
  194.1250    66.8030     9.2450     7.5060    12.9570     2.3610    -1.1980 
  194.2500    63.9190     9.6770     7.8500    12.9900     2.3520    -1.1260 
  194.3750    62.4580    10.1670     8.2250    12.8260     2.3420    -1.0510 
  194.5000    62.5310    10.5830     8.5360    13.0760     2.3370    -0.9750 
  194.6250    62.4800    10.8180     8.7130    14.2050     2.3350    -0.8950 
  194.7500    60.7170    10.8540     8.7540    16.6790     2.3290    -0.8100 
  194.8750    62.4060    10.7650     8.7440    19.9600     2.3200    -0.7190 
  195.0000    62.6660    10.6690     8.7340    22.9820     2.3150    -0.6210 
  195.1250    62.4580    10.6530     8.7680    24.3640     2.3160    -0.5140 
  195.2500    61.5250    10.7110     8.8290    26.0050     2.3240    -0.3980 
  195.3750    60.7280    10.7960     8.8900    26.7460     2.3400    -0.2720 
  195.5000    62.6740    10.8340     8.9140    20.5760     2.3610    -0.1350 
  195.6250    64.9270    10.4920     8.6940    16.8370     2.3790     0.0150 
  195.7500    66.3630    10.0840     8.4070    15.8070     2.3840     0.1740 
  195.8750    64.5280     9.6980     8.1180    15.6760     2.3760     0.3410 
  196.0000    62.2820     9.4780     7.9480    15.3160     2.3590     0.5120 
  196.1250    61.6380     9.5120     7.9730    15.0500     2.3430     0.6860 
  196.2500    61.1450     9.7740     8.1580    16.7240     2.3440     0.8600 
  196.3750    63.7200    10.1920     8.4300    17.2730     2.3690     1.0280 
  196.5000    60.2980    10.4500     8.5580    17.4420     2.3960     1.1870 
  196.6250    57.3540    10.3840     8.4550    16.5120     2.4040     1.3350 
  196.7500    54.9020     9.9830     8.1270    13.9800     2.3960     1.4710 
  196.8750    53.3570     9.3530     7.6500    10.8050     2.3790     1.5910 
  197.0000    55.8480     8.6960     7.1610     9.6370     2.3630     1.6960 
  197.1250    56.6530     8.2570     6.8110     9.3730     2.3600     1.7810 
  197.2500    57.1170     8.0640     6.6420     9.4030     2.3630     1.8480 
  197.3750    57.8840     8.0140     6.5960     9.4950     2.3670     1.9000 
  197.5000    58.7050     8.0250     6.6110     9.6970     2.3700     1.9370 
  197.6250    58.7720     8.0390     6.6350     9.8870     2.3700     1.9610 
  197.7500    57.1930     8.0250     6.6410     9.6460     2.3660     1.9750 
  197.8750    57.8360     8.0060     6.6360     9.3590     2.3650     1.9680 
  198.0000    57.1170     7.9890     6.6190     9.6820     2.3650     1.9550 
  198.1250    57.4010     7.9650     6.5880     9.9610     2.3640     1.9380 
  198.2500    57.5030     7.9060     6.5320    10.0240     2.3610     1.9170 
  198.3750    56.6960     7.8050     6.4500     9.8730     2.3560     1.8920 
  198.5000    56.4510     7.6910     6.3610     9.5720     2.3480     1.8630 
  198.6250    57.7380     7.6520     6.3180     9.3910     2.3440     1.8290 
  198.7500    58.2080     7.7220     6.3550     9.6010     2.3450     1.7920 
  198.8750    58.9980     7.8580     6.4510    10.1780     2.3510     1.7510 
  199.0000    59.1440     8.0370     6.5930    10.7240     2.3650     1.7070 
  199.1250    58.1780     8.2260     6.7510    10.8550     2.3830     1.6590 
  199.2500    57.2400     8.3760     6.8780    10.4780     2.3960     1.6080 
  199.3750    56.8370     8.5460     7.0130    10.8750     2.3940     1.5540 
  199.5000    56.9120     8.7200     7.1550    11.4690     2.3850     1.4960 
  199.6250    59.6800     8.8640     7.2630    11.8180     2.3740     1.4360 
  199.7500    63.1430     8.9300     7.3120    12.0870     2.3650     1.3740 
  199.8750    65.2000     8.8930     7.2950    11.9880     2.3660     1.3110 
  200.0000    65.3850     8.7780     7.2280    10.5320     2.3730     1.2480 
  200.1250    59.6720     8.7460     7.2060     9.8150     2.3830     1.1880 
  200.2500    59.6230     8.7350     7.1860    10.5340     2.3870     1.1330 
  200.3750    61.6310     8.6900     7.1460    11.5170     2.3830     1.0870 
  200.5000    63.1600     8.6580     7.1350    11.6740     2.3710     1.0500 
  200.6250    63.5020     8.6990     7.1980    10.8620     2.3550     1.0240 
  200.7500    64.1300     8.8370     7.3490    10.3320     2.3380     1.0100 
  200.8750    64.4520     9.1920     7.6470    12.3020     2.3240     1.0110 
  201.0000    66.1390     9.7780     8.1140    13.9260     2.3180     1.0250 
  201.1250    64.7310    10.5050     8.7020    14.3820     2.3110     1.0510 
  201.2500    61.9820    11.2140     9.2970    14.2610     2.3020     1.0850 
  201.3750    60.5090    11.7690     9.7930    14.2880     2.2910     1.1280 
  201.5000    61.3710    12.1120    10.1300    14.6590     2.2800     1.1780 
  201.6250    66.5210    12.2460    10.2910    14.7430     2.2790     1.2320 
  201.7500    66.1400    12.3970    10.4310    14.9040     2.2840     1.2900 
  201.8750    66.0250    12.4520    10.4900    15.0860     2.2890     1.3500 
  202.0000    63.8800    12.4150    10.4720    15.1390     2.2930     1.4110 
  202.1250    59.6890    12.3450    10.4190    14.9780     2.2960     1.4750 
  202.2500    59.2770    12.3270    10.3960    14.6920     2.3000     1.5390 
  202.3750    57.1050    12.3740    10.4180    14.8250     2.3030     1.6040 
  202.5000    56.3660    12.5210    10.5110    15.6570     2.2960     1.6690 
  202.6250    55.5700    12.7640    10.6890    16.5240     2.2820     1.7320 
  202.7500    54.0270    13.1260    10.9710    16.5140     2.2700     1.7920 
  202.8750    52.0540    13.6140    11.3600    15.9380     2.2640     1.8480 
  203.0000    50.9710    14.2070    11.8370    16.8290     2.2670     1.8980 
  203.1250    50.7290    14.8490    12.3180    19.7290     2.2760     1.9370 
  203.2500    52.3320    15.1890    12.5590    20.1990     2.2890     1.9650 
  203.3750    52.8010    14.7910    12.2870    19.3570     2.3090     1.9820 
  203.5000    52.7320    13.5890    11.4350    18.1350     2.3340     1.9870 
  203.6250    52.9940    11.8270    10.1270    16.8520     2.3580     1.9800 
  203.7500    53.5020     9.9970     8.6670    14.9550     2.3780     1.9620 
  203.8750    57.6060     8.6330     7.5150    11.7030     2.3910     1.9310 
  204.0000    59.8640     7.7460     6.7160     9.9810     2.4020     1.8910 
  204.1250    60.3330     7.2350     6.2300     9.2280     2.4110     1.8470 
  204.2500    59.4690     7.0320     6.0270     9.0330     2.4190     1.8000 
  204.3750    58.2610     7.0850     6.0690     9.0840     2.4280     1.7520 
