~V
VERS. 2.00: Ver 2.00
~W
STRT.M 20.0000:
STOP.M 297.0000:
STEP.M 0.1250:
NULL. -999.2500:
UWI. F10080:
~C
DEPT.M :
GR.API :
RML.OHMM :
RI. :
RXO.OHMM :
DEN.GM/CC :
SP.MV :
~A
# ...
  161.6250    90.7730     4.6740     4.3510     5.2280     2.2680   -24.0600 
  161.7500    93.5560     4.2710     3.9590     5.0950     2.2970   -23.8630 
  161.8750    93.5560     4.0890     3.7850     4.7800     2.3220   -23.6810 
  162.0000    98.2100     4.5510     3.8240     4.6680     2.3480   -23.5230 
  162.1250    98.9080     4.9380     4.0350     4.9380     2.3670   -23.3930 
  162.2500    96.1350     5.3950     4.3590     5.5980     2.3750   -23.2940 
  162.3750    91.8730     6.0530     4.8020     6.4710     2.3700   -23.2270 
  162.5000    86.3600     6.6650     5.4550     7.2470     2.3570   -23.1910 
  162.6250    84.0930     7.4750     6.0590     8.1660     2.3540   -23.1890 
  162.7500    85.6610     7.9970     6.5010     9.0350     2.3670   -23.2100 
  162.8750    86.9860     8.1790     6.6440     9.6520     2.3790   -23.2480 
  163.0000    85.8110     7.9260     6.4900     8.9150     2.3730   -23.2980 
  163.1250    82.9040     7.3310     6.1270     7.1430     2.3400   -23.3550 
  163.2500    82.2120     6.7390     5.6890     6.8560     2.2890   -23.4170 
  163.3750    80.5930     6.1140     5.2660     6.6380     2.2530   -23.4790 
  163.5000    83.6300     5.8290     4.9920     6.4910     2.2520   -23.5400 
  163.6250    87.5170     5.7010     4.8670     6.2760     2.2620   -23.5990 
  163.7500    89.6700     5.6570     4.8420     5.9940     2.2680   -23.6550 
  163.8750    89.6900     5.6600     4.9000     5.7860     2.2650   -23.7080 
  164.0000    89.6030     5.7060     5.0890     5.9080     2.2500   -23.7570 
  164.1250    86.0400     6.2410     5.4180     6.2830     2.2320   -23.8010 
  164.2500    88.4380     7.0520     5.7620     6.7160     2.2170   -23.8370 
  164.3750    88.6230     8.0160     5.9990     7.0960     2.2120   -23.8650 
  164.5000    87.7270     8.4690     6.0460     7.1220     2.2200   -23.8830 
  164.6250    86.9490     7.9730     5.8820     6.7560     2.2420   -23.8910 
  164.7500    84.2080     6.7490     5.5640     6.4060     2.2720   -23.8900 
  164.8750    90.0370     5.9450     5.2350     6.2510     2.2910   -23.8760 
  165.0000    91.7550     5.7150     4.9960     6.1120     2.2890   -23.8560 
  165.1250    93.3540     5.9180     4.9010     6.0970     2.2750   -23.8310 
  165.2500    92.0810     6.3150     4.9230     6.1280     2.2550   -23.8040 
  165.3750    87.4770     6.6780     5.0120     6.1530     2.2390   -23.7770 
  165.5000    84.8560     6.8840     5.1360     6.2470     2.2330   -23.7540 
  165.6250    81.6170     7.0520     5.2120     6.4730     2.2390   -23.7380 
  165.7500    82.5600     7.0090     5.2420     6.3880     2.2400   -23.7300 
  165.8750    82.1140     6.4490     5.1940     6.3110     2.2360   -23.7310 
  166.0000    81.6520     5.7810     5.0540     6.2650     2.2320   -23.7420 
  166.1250    82.3830     5.3380     4.8390     6.1490     2.2350   -23.7650 
  166.2500    82.5880     5.0420     4.6110     5.8280     2.2490   -23.8000 
  166.3750    86.9600     5.4240     4.5220     5.4340     2.2630   -23.8520 
  166.5000    87.0810     5.6760     4.5040     5.2480     2.2640   -23.9160 
  166.6250    83.2910     6.0250     4.5680     5.8260     2.2590   -23.9930 
  166.7500    78.7260     6.1460     4.6750     6.5860     2.2530   -24.0790 
  166.8750    75.8060     5.9800     4.8100     6.8870     2.2510   -24.1710 
  167.0000    74.5850     6.0510     5.0360     6.6110     2.2580   -24.2650 
  167.1250    78.1470     6.2780     5.5230     6.5250     2.2840   -24.3550 
  167.2500    77.0460     7.4580     6.3100     6.9340     2.3370   -24.4330 
  167.3750    76.4650     9.2180     7.3520     9.1270     2.4030   -24.4960 
  167.5000    75.4680    10.6910     8.2260    13.7590     2.4630   -24.5430 
  167.6250    74.5210    10.8960     8.4430    18.0970     2.4950   -24.5720 
  167.7500    78.1440     9.1270     7.6720    15.6310     2.4830   -24.5850 
  167.8750    83.0020     6.6390     6.1750     9.0880     2.4330   -24.5840 
  168.0000    87.6540     5.2340     4.9670     5.7560     2.3830   -24.5800 
  168.1250    93.2640     4.5520     4.1770     4.7470     2.3500   -24.5800 
  168.2500    98.4030     4.3370     3.7880     4.7600     2.3330   -24.5930 
  168.3750   101.9090     4.3500     3.6990     4.8280     2.3270   -24.6240 
  168.5000   104.1220     4.3900     3.7570     4.7980     2.3220   -24.6800 
  168.6250   103.6360     4.4570     3.7920     4.7510     2.3230   -24.7730 
  168.7500    99.4450     4.5270     3.6990     4.7970     2.3400   -24.9010 
  168.8750    96.4750     4.2820     3.5530     4.8130     2.3600   -25.0640 
  169.0000    95.1840     4.0550     3.5250     4.7180     2.3750   -25.2610 
  169.1250    95.2200     4.1050     3.7590     4.5880     2.3820   -25.4920 
  169.2500    96.6530     4.3380     4.3030     4.7500     2.3900   -25.7550 
  169.3750    94.3860     5.6370     5.2240     6.3960     2.4160   -26.0520 
  169.5000    88.2760     7.1520     6.3560    12.4280     2.4300   -26.3760 
  169.6250    81.4220     8.4840     7.2310    13.4590     2.4100   -26.7190 
  169.7500    76.3180     8.9440     7.5290    10.7280     2.3500   -27.0780 
  169.8750    74.2060     8.3220     7.1540     7.9810     2.2710   -27.4490 
  170.0000    74.5490     7.2450     6.3080     7.4740     2.2170   -27.8270 
  170.1250    75.2780     6.6290     5.7830     6.8130     2.2160   -28.2060 
  170.2500    76.5560     6.4300     5.7520     6.9850     2.2370   -28.5830 
  170.3750    76.6200     6.7360     6.0410     7.8700     2.2440   -28.9510 
  170.5000    72.1630     7.6360     6.7530     8.8310     2.2240   -29.3080 
  170.6250    64.7630     8.7350     7.6450     9.2170     2.1800   -29.6500 
  170.7500    62.8530     9.0740     7.9520     8.7450     2.1310   -29.9730 
  170.8750    64.7960     9.2020     8.0550     8.6670     2.1160   -30.2670 
  171.0000    68.9370     8.9940     8.0700     9.8160     2.1250   -30.5300 
  171.1250    69.7960     8.9210     8.1080    10.2220     2.1420   -30.7580 
  171.2500    67.1020     9.0360     8.1710     9.9500     2.1520   -30.9480 
  171.3750    62.2660     9.3530     8.2340     9.6840     2.1500   -31.0980 
  171.5000    56.9800     9.9450     8.2860     9.9950     2.1400   -31.2020 
  171.6250    56.0090    10.0100     8.3350    10.0390     2.1210   -31.2450 
  171.7500    57.9220    10.1490     8.4640    10.2260     2.1070   -31.1940 
  171.8750    62.7670    10.3530     8.6590    10.4530     2.1020   -30.9700 
  172.0000    65.8690    10.5390     8.8510    10.7350     2.1070   -30.6910 
  172.1250    64.5370    10.6600     8.9840    11.0580     2.1160   -30.4380 
  172.2500    60.8920    10.7430     9.0410    11.3190     2.1180   -30.1410 
  172.3750    52.4720    10.5340     8.9650    11.3820     2.1120   -29.7950 
  172.5000    50.9230    10.7130     8.8410    11.0710     2.1040   -29.4110 
  172.6250    52.5430    10.6860     8.7320    10.7090     2.0990   -28.9970 
  172.7500    57.9400    10.6320     8.6840    10.3540     2.0990   -28.5580 
  172.8750    64.9910    10.6810     8.7140    10.0680     2.1060   -28.1010 
  173.0000    67.0140    10.6180     8.7820    10.0080     2.1230   -27.6350 
  173.1250    70.5760    10.9330     8.6760    10.1700     2.1330   -27.1710 
  173.2500    70.2890    10.2760     8.1780    10.0240     2.1340   -26.7210 
  173.3750    73.9420     9.0410     7.4360     9.6500     2.1360   -26.2940 
  173.5000    79.5130     7.6510     6.5890     8.5270     2.1500   -25.8970 
  173.6250    84.5320     6.4830     5.8020     6.8270     2.1800   -25.5370 
  173.7500    89.7590     5.7850     5.2520     5.8640     2.2240   -25.2180 
  173.8750    89.5970     5.8140     4.9560     5.8450     2.2640   -24.9540 
  174.0000    89.8480     5.8470     4.8710     5.8940     2.2900   -24.7400 
  174.1250    91.0120     5.9450     4.8720     5.8630     2.3110   -24.5730 
  174.2500    93.6500     5.9900     4.8960     5.8880     2.3180   -24.4480 
  174.3750    97.1330     5.9620     4.9470     6.0360     2.3100   -24.3630 
