~V
VERS. 2.00: Ver 2.00
~W
STRT.M 20.0000:
STOP.M 297.0000:
STEP.M 0.1250:
NULL. -999.2500:
UWI. F10080:
~C
DEPT.M :
GR.API :
RML.OHMM :
RI. :
RXO.OHMM :
DEN.GM/CC :
SP.MV :
~A
# ...
  213.1250    67.7870    55.3720    56.1830    51.3310     2.2480   -46.3370 
  213.2500    70.0620    56.7920    57.6240    51.8480     2.2400   -46.4380 
  213.3750    72.8400    58.2440    58.9770    50.1990     2.2260   -46.5330 
  213.5000    70.7960    59.8910    60.2810    51.4790     2.2160   -46.6210 
  213.6250    67.2340    59.5730    59.8090    54.7490     2.2110   -46.7020 
  213.7500    63.6020    53.7100    54.1140    54.0810     2.2150   -46.7750 
  213.8750    63.6570    45.9330    46.2360    49.1430     2.2210   -46.8420 
  214.0000    65.8990    38.1110    38.1660    38.5670     2.2310   -46.9020 
  214.1250    68.5750    31.5250    31.4380    27.6010     2.2460   -46.9570 
  214.2500    71.3890    27.0120    27.0370    27.7520     2.2600   -47.0090 
  214.3750    72.6840    25.0000    25.0470    25.3460     2.2650   -47.0900 
  214.5000    68.3950    25.1240    24.9020    30.0660     2.2600   -47.1280 
  214.6250    65.1970    26.3670    25.8810    36.0880     2.2520   -47.1570 
  214.7500    62.2250    28.0420    27.3800    38.2340     2.2410   -47.1810 
  214.8750    59.7840    29.4360    28.7580    35.4940     2.2300   -47.2030 
  215.0000    61.3020    29.9090    29.4460    32.1800     2.2260   -47.2210 
  215.1250    61.3020    30.0710    29.7580    32.2340     2.2350   -47.2380 
  215.2500    60.1850    30.1390    29.8100    37.8620     2.2510   -47.2570 
  215.3750    59.9620    30.1910    29.6710    38.0920     2.2660   -47.2780 
  215.5000    60.4730    30.0930    29.2390    36.7520     2.2740   -47.3070 
  215.6250    61.9030    29.7000    28.4830    36.4890     2.2740   -47.3440 
  215.7500    65.1110    28.9800    27.5330    33.8180     2.2700   -47.3940 
  215.8750    65.4350    28.3610    26.6220    29.7170     2.2610   -47.4640 
  216.0000    62.6860    27.1370    25.1150    34.6640     2.2580   -47.5560 
  216.1250    60.8420    25.7160    23.5170    36.1870     2.2590   -47.6720 
  216.2500    60.1580    24.3140    22.0980    31.3530     2.2640   -47.8140 
  216.3750    61.0600    23.2910    21.1720    24.1040     2.2670   -47.9810 
  216.5000    64.6000    23.1790    21.1080    23.2630     2.2610   -48.1740 
  216.6250    62.9810    24.2180    21.8750    30.5990     2.2450   -48.3920 
  216.7500    65.1340    25.9020    23.1770    35.4640     2.2290   -48.6250 
  216.8750    64.8280    27.3990    24.2160    35.7120     2.2200   -48.8660 
  217.0000    63.3780    27.5440    24.2510    33.3730     2.2190   -49.1060 
  217.1250    62.1510    25.9640    23.0210    30.2370     2.2230   -49.3390 
  217.2500    60.4990    23.4750    20.9370    26.3260     2.2300   -49.5600 
  217.3750    63.1710    21.2150    18.9510    22.9610     2.2350   -49.7610 
  217.5000    67.4500    19.6780    17.3530    21.6020     2.2390   -49.9430 
  217.6250    68.9770    18.6580    16.1980    20.9590     2.2440   -50.1080 
  217.7500    67.5140    17.9800    15.3890    20.3240     2.2530   -50.2610 
  217.8750    64.7610    17.4800    14.7950    19.6050     2.2650   -50.4050 
  218.0000    63.4290    17.0310    14.3140    19.2270     2.2760   -50.5470 
  218.1250    66.3440    16.6370    13.9230    18.0010     2.2660   -50.6910 
  218.2500    67.7910    16.4340    13.7430    14.9380     2.2460   -50.8440 
  218.3750    67.7700    16.4630    13.7610    16.1680     2.2260   -51.0060 
  218.5000    65.4710    16.6240    13.9590    19.1720     2.2150   -51.1780 
  218.6250    62.0500    16.8730    14.2580    20.8580     2.2110   -51.3580 
  218.7500    60.7690    17.2680    14.5150    20.6390     2.2070   -51.5420 
  218.8750    58.5020    17.5510    14.6460    20.3830     2.2030   -51.7260 
  219.0000    60.1510    17.6800    14.4610    20.3780     2.2010   -51.9010 
  219.1250    62.2570    17.3160    14.0530    22.4490     2.2060   -52.0640 
  219.2500    64.6940    16.5350    13.4080    23.2650     2.2150   -52.2110 
  219.3750    66.1770    15.4970    12.5550    20.6830     2.2260   -52.3380 
  219.5000    63.8070    14.3440    11.6160    16.1690     2.2370   -52.4440 
  219.6250    63.4830    13.4680    10.8120    14.2560     2.2450   -52.5250 
  219.7500    61.7610    12.8820    10.2850    13.3190     2.2390   -52.5830 
  219.8750    62.7740    12.5770    10.0050    13.1220     2.2310   -52.6230 
  220.0000    62.4290    12.5090     9.9150    13.0330     2.2260   -52.6460 
  220.1250    60.3460    12.5980     9.9390    12.7040     2.2270   -52.6550 
  220.2500    62.3430    12.7460    10.0010    12.3500     2.2340   -52.6520 
  220.3750    60.4000    12.7810    10.0330    12.5080     2.2420   -52.6360 
  220.5000    61.8150    12.7810    10.0460    12.9820     2.2430   -52.6080 
  220.6250    63.1130    12.7310    10.0620    12.9140     2.2460   -52.5710 
  220.7500    64.2350    12.7100    10.0940    12.4050     2.2530   -52.5260 
  220.8750    65.1240    12.7710    10.1510    12.1160     2.2620   -52.4730 
  221.0000    64.7920    12.9060    10.2440    12.8750     2.2650   -52.4130 
  221.1250    63.1730    13.1450    10.3680    13.3850     2.2630   -52.3490 
  221.2500    61.3440    13.4060    10.4820    13.9640     2.2570   -52.2810 
  221.3750    61.7950    13.4330    10.4790    14.1500     2.2500   -52.2110 
  221.5000    63.0000    13.3130    10.4020    13.8510     2.2450   -52.1410 
  221.6250    64.1360    13.1960    10.3140    13.2940     2.2420   -52.0700 
  221.7500    66.0680    13.1890    10.2480    12.9350     2.2420   -51.9980 
  221.8750    63.1540    13.3040    10.2250    12.8450     2.2420   -51.9230 
  222.0000    63.4590    13.4070    10.2370    12.8180     2.2390   -51.8460 
  222.1250    65.2370    13.4350    10.2550    12.7500     2.2340   -51.7640 
  222.2500    67.4670    13.4260    10.2540    12.7190     2.2290   -51.6780 
  222.3750    68.8170    13.3850    10.2180    12.7470     2.2270   -51.5890 
  222.5000    67.6770    13.2720    10.1440    12.7230     2.2280   -51.4960 
  222.6250    64.1150    13.2410    10.0640    12.5240     2.2320   -51.4010 
  222.7500    63.6330    13.1350    10.0320    12.3740     2.2430   -51.3050 
  222.8750    64.7100    13.2630    10.1060    12.7100     2.2560   -51.1490 
  223.0000    65.9150    13.4500    10.2400    13.5080     2.2680   -51.0080 
  223.1250    66.3010    13.6140    10.3850    14.3040     2.2820   -50.9200 
  223.2500    65.9390    13.9010    10.5160    14.3310     2.2970   -50.8340 
  223.3750    68.5300    13.9280    10.5620    13.6580     2.3080   -50.7510 
  223.5000    69.5100    13.8620    10.4830    13.8940     2.3100   -50.6680 
  223.6250    69.9690    13.5890    10.3080    14.4120     2.3000   -50.5850 
  223.7500    68.1840    13.2600    10.1100    14.2780     2.2780   -50.5000 
  223.8750    64.0600    13.0100     9.9450    13.4160     2.2510   -50.4140 
  224.0000    60.0890    12.8650     9.8320    12.8800     2.2260   -50.3270 
  224.1250    54.9080    12.8690     9.7550    12.9870     2.2180   -50.2420 
  224.2500    55.8210    12.7770     9.6260    12.9050     2.2330   -50.1630 
  224.3750    59.1380    12.6910     9.5160    12.3540     2.2600   -50.0970 
  224.5000    64.6180    12.4910     9.4140    11.6310     2.2870   -50.0520 
  224.6250    70.5600    12.2180     9.3190    11.0550     2.3010   -50.0330 
  224.7500    73.0360    12.1490     9.2720    10.7550     2.2970   -50.0470 
  224.8750    72.7120    12.2390     9.3060    10.8880     2.2820   -50.1070 
  225.0000    70.9870    12.5200     9.4270    11.9580     2.2680   -50.2090 
  225.1250    68.6120    12.7080     9.5440    12.6160     2.2600   -50.3470 
  225.2500    65.8710    12.8370     9.6220    12.9530     2.2520   -50.5160 
  225.3750    63.0850    12.9380     9.6390    13.1050     2.2440   -50.7080 
  225.5000    60.5610    12.9360     9.5800    12.8560     2.2330   -50.9150 
  225.6250    56.6740    12.7440     9.4730    12.3210     2.2170   -51.1250 
  225.7500    55.8720    12.5540     9.3530    11.9890     2.2030   -51.3270 
  225.8750    58.6750    12.3120     9.2610    11.8410     2.1950   -51.5140 
