~V
VERS. 2.00: Ver 2.00
~W
STRT.M 50.0000:
STOP.M 254.0000:
STEP.M 0.1250:
NULL. -999.2500:
UWI. F10088:
~C
DEPT.M :
GR.API :
RML.OHMM :
RI. :
RXO.OHMM :
DEN.GM/CC :
SP.MV :
~A
# ...
  127.2500    69.8200     8.6290     6.9580    11.7970     2.2840     3.0060 
  127.3750    66.2800    10.0300     7.8300    11.7980     2.2770     2.9100 
  127.5000    66.1900    10.8600     8.3990    10.6390     2.2650     2.8260 
  127.6250    66.6330    11.2020     8.6620    10.1160     2.2500     2.7570 
  127.7500    67.6040    11.4580     8.8370    10.3100     2.2340     2.7060 
  127.8750    69.1110    11.8490     9.0550    10.6970     2.2200     2.6720 
  128.0000    69.4170    12.0660     9.1350    10.8760     2.2100     2.6570 
  128.1250    69.0950    11.3280     8.6650    11.2640     2.2110     2.6620 
  128.2500    70.6990    10.2290     7.9040    11.3910     2.2250     2.6830 
  128.3750    72.8610     9.2460     7.1770    10.3340     2.2450     2.7150 
  128.5000    76.6190     8.6910     6.7530     8.9530     2.2630     2.7560 
  128.6250    81.4710     8.7790     6.8450     8.6380     2.2720     2.8030 
  128.7500    83.0400     9.6560     7.5800    10.3630     2.2740     2.8520 
  128.8750    83.0400    11.4070     8.7710    12.8760     2.2820     2.9010 
  129.0000    78.7900    13.6880    10.0310    14.7840     2.2980     2.9470 
  129.1250    76.2560    14.9640    10.7210    14.3950     2.3050     2.9890 
  129.2500    73.6480    14.7920    10.6400    12.7110     2.3010     3.0270 
  129.3750    70.7060    13.4980     9.9200    11.3460     2.2870     3.0600 
  129.5000    74.2140    11.9740     8.9470    11.0340     2.2710     3.0890 
  129.6250    76.4670    10.3880     7.7960    10.0670     2.2660     3.1120 
  129.7500    76.8600    10.0420     7.5300    10.3450     2.2630     3.1320 
  129.8750    75.6520    10.0000     7.4880    10.6510     2.2570     3.1470 
  130.0000    75.0560     9.9940     7.4800    10.7250     2.2490     3.1580 
  130.1250    76.0640     9.9820     7.4820    10.5470     2.2430     3.1650 
  130.2500    76.4190     9.9040     7.4650     9.9250     2.2460     3.1670 
  130.3750    78.0280     9.8880     7.5090     9.5000     2.2520     3.1650 
  130.5000    78.3750     9.9220     7.5910    10.3230     2.2660     3.1590 
  130.6250    76.5920    10.0140     7.7130    11.6720     2.3000     3.1490 
  130.7500    73.9690    10.1210     7.8440    12.4980     2.3480     3.1350 
  130.8750    72.6610    10.1700     7.9380    12.0950     2.3910     3.1180 
  131.0000    74.5430    10.0870     7.9500    10.6580     2.3980     3.0980 
  131.1250    74.5430     9.9840     7.9370    10.6220     2.3470     3.0760 
  131.2500    75.6730     9.9800     7.9900    10.2930     2.2910     3.0560 
  131.3750    74.1690     9.9740     8.0540    10.2450     2.2570     3.0390 
  131.5000    70.8130     9.8220     8.0350    10.7190     2.2510     3.0270 
  131.6250    68.1280     9.4460     7.8730    11.1600     2.2650     3.0230 
  131.7500    68.3800     8.9140     7.5880    10.0220     2.2890     3.0280 
  131.8750    69.0240     8.3310     7.2130     8.7820     2.3020     3.0450 
  132.0000    71.5290     7.8560     6.8640     8.6260     2.2990     3.0740 
  132.1250    71.7040     7.5180     6.5810     8.9200     2.2820     3.1090 
  132.2500    70.5990     7.2790     6.3750     9.0260     2.2620     3.1490 
  132.3750    71.0480     7.0970     6.2450     8.7780     2.2530     3.1900 
  132.5000    75.1600     6.9670     6.1940     8.8060     2.2640     3.2260 
  132.6250    76.6090     7.2260     6.5270     9.0750     2.2790     3.2520 
  132.7500    74.7320     8.0500     7.4000     9.2660     2.2860     3.2630 
  132.8750    68.7290     9.7080     8.9340    14.3530     2.2820     3.2580 
  133.0000    61.9180    12.3060    11.1960    21.7480     2.2670     3.2370 
  133.1250    58.2260    15.9630    14.2780    26.6820     2.2520     3.1980 
  133.2500    59.4970    20.8960    18.3370    26.0720     2.2520     3.1440 
  133.3750    60.1410    26.4310    23.1890    25.7270     2.3050     3.0750 
  133.5000    56.2610    29.8520    26.6330    35.9280     2.4010     2.9970 
  133.6250    51.7860    30.9610    27.9970    47.8860     2.4960     2.9120 
  133.7500    48.2420    30.0190    27.4800    47.4750     2.5440     2.8240 
  133.8750    46.8350    27.6820    25.7110    32.5090     2.5150     2.7360 
  134.0000    49.4380    24.9240    23.4390    23.5530     2.4080     2.6490 
  134.1250    53.0590    23.3350    21.9070    22.9490     2.2920     2.5660 
  134.2500    56.6140    23.3830    21.9400    21.9510     2.2170     2.4880 
  134.3750    59.2460    25.3730    23.7730    24.9490     2.1780     2.4170 
  134.5000    60.5830    29.3750    27.3270    31.7420     2.1630     2.3510 
  134.6250    60.4660    35.2720    32.3880    40.5460     2.1580     2.2930 
  134.7500    58.8440    42.7730    38.7410    50.0080     2.1550     2.2430 
  134.8750    56.7510    50.4250    45.7290    61.7460     2.1520     2.2030 
  135.0000    53.7270    56.3350    51.4700    70.1960     2.1500     2.1710 
  135.1250    51.7700    60.9510    56.0640    76.2160     2.1480     2.1470 
  135.2500    50.5290    64.3300    59.4030    80.7600     2.1450     2.1310 
  135.3750    49.0950    66.4650    61.4090    83.6480     2.1400     2.1220 
  135.5000    47.2230    67.4530    62.1720    82.8910     2.1300     2.1200 
  135.6250    47.4650    66.9350    61.4530    81.1680     2.1180     2.1250 
  135.7500    49.7040    65.2750    59.8920    73.1470     2.1120     2.1350 
  135.8750    51.2990    63.4520    58.4500    64.1220     2.1110     2.1500 
  136.0000    52.6770    62.3600    57.8270    57.6460     2.1110     2.1670 
  136.1250    54.2240    62.7480    58.4920    55.7820     2.1100     2.1880 
  136.2500    54.4320    65.0170    60.5790    59.0520     2.1040     2.2100 
  136.3750    53.4660    66.7850    62.0670    70.7500     2.0980     2.2330 
  136.5000    50.3030    63.8580    59.5750    74.1440     2.0990     2.2560 
  136.6250    48.9550    56.5440    53.3330    66.9220     2.1090     2.2770 
  136.7500    50.7450    47.8480    45.7930    52.1600     2.1250     2.2960 
  136.8750    54.1410    40.9370    39.5920    36.2430     2.1390     2.3100 
  137.0000    54.7820    37.2750    36.0500    27.0010     2.1470     2.3190 
  137.1250    52.5290    37.1500    35.7050    28.2800     2.1430     2.3190 
  137.2500    50.2760    39.6490    37.7680    35.8030     2.1400     2.2950 
  137.3750    48.9830    43.9150    41.5010    43.1990     2.1400     2.2670 
  137.5000    49.3950    48.1390    45.1750    47.4810     2.1390     2.2340 
  137.6250    50.5190    50.3850    46.9430    48.6830     2.1340     2.1960 
  137.7500    48.9570    49.3380    45.6070    49.5330     2.1280     2.1530 
  137.8750    49.0380    45.7770    42.0850    43.8310     2.1320     2.1060 
  138.0000    47.5190    42.0860    38.5660    37.9340     2.1480     2.0570 
  138.1250    47.0330    39.0470    35.6380    34.3990     2.1730     2.0080 
  138.2500    46.8030    36.9740    33.5590    33.4870     2.2000     1.9590 
  138.3750    46.4070    35.9270    32.3980    36.5160     2.2230     1.9120 
  138.5000    47.8840    35.8060    32.0890    47.0080     2.2410     1.8660 
  138.6250    47.5620    35.6400    31.8380    42.8070     2.2430     1.8210 
  138.7500    49.8390    34.0590    30.4410    35.6470     2.2300     1.7790 
  138.8750    48.6610    31.5710    28.3220    30.0900     2.2110     1.7380 
  139.0000    48.0170    28.6030    25.8310    25.1390     2.1940     1.6980 
  139.1250    50.1500    25.5530    23.2700    20.2670     2.1820     1.6580 
  139.2500    48.7160    22.7580    20.8670    18.9060     2.1760     1.6170 
  139.3750    50.4860    20.5250    18.8240    20.1930     2.1730     1.5750 
  139.5000    53.7230    19.1030    17.4970    17.9440     2.1750     1.5300 
  139.6250    57.2640    18.5610    16.9950    15.3460     2.1840     1.4810 
  139.7500    61.2870    18.9210    17.3100    14.4750     2.1970     1.4270 
  139.8750    63.2670    20.1760    18.3680    17.0540     2.2110     1.3690 
  140.0000    56.3620    22.3010    20.0660    24.3980     2.2210     1.3050 
