~V
VERS. 2.00: Ver 2.00
~W
STRT.M 20.0000:
STOP.M 297.0000:
STEP.M 0.1250:
NULL. -999.2500:
UWI. F10080:
~C
DEPT.M :
GR.API :
RML.OHMM :
RI. :
RXO.OHMM :
DEN.GM/CC :
SP.MV :
~A
# ...
  110.1250   114.3040     3.7820     3.8150     4.3600     2.3630   -27.9820 
  110.2500   113.0410     3.2890     3.7330     4.3050     2.3840   -27.8740 
  110.3750   109.2410     3.3130     3.5570     4.2750     2.3910   -27.8690 
  110.5000   106.8380     3.4900     3.3510     4.2800     2.3850   -27.9610 
  110.6250   108.0220     3.4330     3.2240     4.2860     2.3730   -28.1400 
  110.7500   108.7610     3.7240     3.3760     4.2700     2.3690   -28.3970 
  110.8750   107.1420     3.9920     4.1040     4.5810     2.3930   -28.7350 
  111.0000   103.2410     5.4000     5.7040     6.2010     2.4520   -29.1300 
  111.1250    95.9140     8.2480     8.3850    16.8760     2.5310   -29.5710 
  111.2500    88.0980    13.6670    12.9700    33.4950     2.6090   -30.0500 
  111.3750    81.6850    22.8090    19.8300    47.0040     2.6620   -30.5600 
  111.5000    74.5400    35.6380    27.8180    46.6120     2.6610   -31.0930 
  111.6250    72.1110    31.5130    23.3570    45.1620     2.5860   -31.6380 
  111.7500    71.1600    21.7530    17.0780    35.6130     2.4600   -32.1790 
  111.8750    69.9010    14.0130    12.1970    22.4830     2.3300   -32.7060 
  112.0000    68.9070     9.6090     9.0980    12.5230     2.2260   -33.2070 
  112.1250    68.4850     7.6410     7.2850     9.2060     2.1610   -33.6730 
  112.2500    67.3240     7.3200     6.5090     9.0340     2.1300   -34.0930 
  112.3750    70.5620     6.8340     6.3160     9.0440     2.1230   -34.4500 
  112.5000    73.2630     6.5620     6.4120     9.0920     2.1270   -34.7490 
  112.6250    73.2030     6.6070     6.5990     8.7960     2.1390   -34.9970 
  112.7500    72.7320     6.8130     6.7700     8.3580     2.1530   -35.1960 
  112.8750    73.5430     7.1230     6.9060     8.0670     2.1610   -35.3560 
  113.0000    73.6490     7.7610     7.0780     8.0020     2.1600   -35.4840 
  113.1250    77.2110     7.8680     7.1070     8.3210     2.1470   -35.5880 
  113.2500    74.5250     7.9850     7.1610     8.5530     2.1370   -35.6810 
  113.3750    73.0570     8.2380     7.1840     8.5770     2.1350   -35.7700 
  113.5000    73.9970     8.2690     7.1940     8.5360     2.1380   -35.8570 
  113.6250    75.7550     8.0080     7.2090     8.5670     2.1430   -35.9470 
  113.7500    75.8940     8.0950     7.1990     8.6260     2.1500   -36.0380 
  113.8750    70.0650     8.1590     7.0690     8.7530     2.1510   -36.1330 
  114.0000    69.9470     8.1760     6.9690     8.6500     2.1460   -36.2290 
  114.1250    70.6430     8.1500     6.8440     8.5810     2.1410   -36.3260 
  114.2500    71.1980     8.0890     6.7570     8.4720     2.1360   -36.4220 
  114.3750    70.8770     8.1260     6.7430     8.2980     2.1320   -36.5170 
  114.5000    67.3490     8.5210     6.7270     8.3060     2.1250   -36.6110 
  114.6250    64.9200     7.4600     6.7710     8.5090     2.1210   -36.7000 
  114.7500    64.7770     7.5780     6.8440     8.6070     2.1210   -36.7810 
  114.8750    63.2630     7.2070     6.8830     8.7740     2.1260   -36.8500 
  115.0000    61.0910     7.2410     6.8730     9.1580     2.1300   -36.9030 
  115.1250    60.2180     8.0080     6.8080     9.6270     2.1320   -36.9330 
  115.2500    61.7180     7.5480     6.6730     9.6450     2.1270   -36.9340 
  115.3750    59.4520     7.3000     6.6000     9.4130     2.1200   -36.8910 
  115.5000    59.0000     7.6500     6.6090     9.3420     2.1150   -36.8010 
  115.6250    56.3150     8.0310     6.6840     9.3290     2.1130   -36.6610 
  115.7500    54.8950     8.2220     6.7960     9.5370     2.1180   -36.4660 
  115.8750    56.8070     8.2800     6.9080    10.0420     2.1290   -36.2150 
  116.0000    57.6150     8.4860     6.9970    10.6160     2.1400   -35.9080 
  116.1250    60.9340     8.2870     7.1360    10.7800     2.1390   -35.5390 
  116.2500    60.9580     8.7770     7.1370    10.5140     2.1330   -35.1260 
  116.3750    60.9230     8.4590     6.8970    10.1920     2.1300   -34.6840 
  116.5000    61.4910     7.5770     6.3770     9.8490     2.1350   -34.2280 
  116.6250    62.9990     6.7060     5.6520     9.1600     2.1530   -33.7740 
  116.7500    66.6110     5.9030     4.9460     7.4850     2.1820   -33.3400 
  116.8750    71.7930     5.2170     4.3890     5.8720     2.2140   -32.9610 
  117.0000    75.8980     4.9900     4.0940     5.3110     2.2330   -32.6490 
  117.1250    81.0100     4.8310     4.0480     5.0960     2.2350   -32.4160 
  117.2500    84.7450     4.9670     4.2260     5.4650     2.2200   -32.2660 
  117.3750    85.6790     5.5340     4.5870     6.5510     2.1960   -32.2020 
  117.5000    86.3830     6.1790     5.0630     7.7620     2.1740   -32.2190 
  117.6250    83.7920     6.8790     5.5090     8.0100     2.1730   -32.3190 
  117.7500    82.5470     7.1130     5.9060     8.6380     2.1870   -32.4690 
  117.8750    78.2020     7.2510     6.2050     9.4910     2.1980   -32.6510 
  118.0000    73.4240     7.4060     6.4200     9.8120     2.2010   -32.8490 
  118.1250    70.5590     7.5720     6.5710     9.5950     2.2010   -33.0500 
  118.2500    67.4940     7.6860     6.6600    10.2590     2.2000   -33.2440 
  118.3750    69.7600     7.6500     6.6280     9.7750     2.2100   -33.4200 
  118.5000    74.0470     7.3900     6.4150     9.3490     2.2280   -33.5790 
  118.6250    78.3340     7.3710     6.2130     9.3500     2.2510   -33.7250 
  118.7500    81.4730     7.6710     6.0400     8.9430     2.2650   -33.8600 
  118.8750    82.7410     8.1220     5.9270     7.9940     2.2600   -33.9900 
  119.0000    81.8160     8.3900     6.0120     8.1540     2.2350   -34.1170 
  119.1250    82.3020     8.0160     6.2310     9.8620     2.2000   -34.2420 
  119.2500    80.4980     7.7640     6.5460    10.4840     2.1770   -34.3660 
  119.3750    75.3670     7.8570     6.9040    10.8180     2.1690   -34.4830 
  119.5000    69.4050     8.3460     7.2000    11.0340     2.1690   -34.5880 
  119.6250    64.6220     8.9130     7.3860    11.1580     2.1680   -34.6750 
  119.7500    60.2310     8.8370     7.5310    11.3110     2.1640   -34.7370 
  119.8750    60.1500     8.9220     7.5800    11.3180     2.1590   -34.7600 
  120.0000    62.8300     8.6250     7.5870    10.9910     2.1530   -34.7450 
  120.1250    65.7110     8.5490     7.5980    10.7130     2.1480   -34.6260 
  120.2500    66.8080     8.7640     7.5760    10.7600     2.1450   -34.4670 
  120.3750    66.0250     9.1910     7.4940    11.0390     2.1460   -34.3290 
  120.5000    65.7320     9.7730     7.3900    10.9560     2.1510   -34.1800 
  120.6250    61.5220     9.3310     7.2070    10.6300     2.1590   -34.0350 
  120.7500    62.1640     8.9220     7.0190    10.2410     2.1620   -33.9040 
  120.8750    63.8850     8.2150     6.8480    10.1310     2.1650   -33.7960 
  121.0000    65.6660     7.7530     6.8280    10.3740     2.1690   -33.7150 
  121.1250    67.7860     7.9720     7.1630    10.6880     2.1780   -33.6670 
  121.2500    70.8670     8.6120     8.0800    10.5790     2.1970   -33.6550 
  121.3750    69.2480     9.4430     9.4590    14.7180     2.2360   -33.6840 
  121.5000    68.3030    11.3620    10.9400    29.1070     2.2910   -33.7490 
  121.6250    65.5470    12.4480    11.8030    32.2310     2.3430   -33.8450 
  121.7500    63.3770    12.6630    11.6280    23.7660     2.3680   -33.9680 
  121.8750    64.1920    12.0040    10.4290    12.8800     2.3480   -34.1130 
  122.0000    67.4100     9.6100     8.7590    10.7120     2.2820   -34.2750 
  122.1250    70.0000     7.7820     7.5080    10.4700     2.2100   -34.4480 
  122.2500    71.4450     7.2950     6.9060     9.9330     2.1730   -34.6230 
  122.3750    70.5080     7.2770     6.7670     9.3050     2.1650   -34.7940 
  122.5000    67.4460     7.5310     6.8360     8.8410     2.1700   -34.9580 
  122.6250    64.7440     7.7410     6.9380     8.7250     2.1700   -35.1110 
  122.7500    66.9450     7.1640     7.0700     8.9650     2.1580   -35.2510 
  122.8750    67.1870     7.4840     7.1070     9.1070     2.1380   -35.3740 
