~V
VERS. 2.00: Ver 2.00
~W
STRT.M 50.0000:
STOP.M 219.0000:
STEP.M 0.1250:
NULL. -999.2500:
UWI. F10086:
~C
DEPT.M :
GR.API :
RML.OHMM :
RI. :
RXO.OHMM :
DEN.GM/CC :
SP.MV :
~A
# ...
  204.5000    62.2690     5.4920     4.9810     6.1270     2.2890   -13.1290 
  204.6250    67.2550     5.3460     4.8380     5.9410     2.3040   -13.1570 
  204.7500    62.9230     5.0300     4.5560     4.8370     2.3280   -13.1690 
  204.8750    55.6450     4.6520     4.2210     3.9370     2.3470   -13.1630 
  205.0000    48.3400     4.3230     3.9240     3.6370     2.3610   -13.1350 
  205.1250    42.4800     4.1240     3.7330     3.8380     2.3670   -13.0830 
  205.2500    38.7720     4.0790     3.6730     4.0530     2.3660   -13.0040 
  205.3750    40.4340     4.1770     3.7510     4.1350     2.3590   -12.8920 
  205.5000    41.2490     4.3190     3.8850     4.1930     2.3550   -12.7530 
  205.6250    38.8900     4.4410     4.0220     4.1830     2.3580   -12.5930 
  205.7500    35.4990     4.5530     4.1590     4.2530     2.3660   -12.4170 
  205.8750    33.6700     4.6890     4.3180     4.4940     2.3750   -12.2320 
  206.0000    34.7000     4.8800     4.5250     4.8270     2.3820   -12.0420 
  206.1250    42.6780     5.1420     4.7870     5.1240     2.3820   -11.8560 
  206.2500    48.2540     5.4650     5.0970     5.4360     2.3800   -11.6760 
  206.3750    49.8410     5.8090     5.4140     5.7710     2.3780   -11.5030 
  206.5000    48.4610     6.1490     5.7220     6.2630     2.3850   -11.3350 
  206.6250    46.8410     6.4620     6.0020     6.8950     2.4050   -11.1680 
  206.7500    48.3370     6.7230     6.2360     7.3940     2.4400   -10.9990 
  206.8750    49.8330     7.0070     6.5180     7.6710     2.4840   -10.8220 
  207.0000    52.6000     7.4340     6.9260     7.8650     2.5170   -10.6330 
  207.1250    51.0530     8.0130     7.5060     9.3220     2.5360   -10.4340 
  207.2500    48.8600     8.7810     8.2880    11.7280     2.5390   -10.2250 
  207.3750    48.9020     9.7240     9.2420    13.8190     2.5270   -10.0090 
  207.5000    49.1100    10.7420    10.2530    14.0510     2.5040    -9.7880 
  207.6250    50.1070    11.5410    11.0190    15.0240     2.4820    -9.5690 
  207.7500    49.4080    11.7660    11.3020    14.1860     2.4710    -9.3590 
  207.8750    50.6810    11.5150    11.1530    12.7170     2.4670    -9.1610 
  208.0000    52.2010    11.0640    10.7980    11.7210     2.4690    -8.9800 
  208.1250    52.7000    10.6550    10.4520    11.4530     2.4740    -8.8210 
  208.2500    53.3690    10.3800    10.2110    11.0220     2.4780    -8.6870 
  208.3750    47.8840    10.2860    10.1360    10.3860     2.4810    -8.5860 
  208.5000    51.0240    10.3070    10.1660    11.0120     2.4810    -8.5150 
  208.6250    52.9740    10.3330    10.2070    11.0180     2.4810    -8.4710 
  208.7500    53.4730    10.3350    10.2270    10.3730     2.4820    -8.4500 
  208.8750    52.9710    10.2910    10.2010     9.6360     2.4800    -8.4470 
  209.0000    49.5400    10.1710    10.0910     9.4120     2.4740    -8.4570 
  209.1250    47.2130     9.9720     9.8960    10.1610     2.4650    -8.4730 
  209.2500    48.9870     9.7530     9.6750     9.8810     2.4600    -8.4870 
  209.3750    49.8580     9.5390     9.4660     9.2590     2.4630    -8.4950 
  209.5000    49.1080     9.3870     9.3280     9.1200     2.4690    -8.4960 
  209.6250    46.8620     9.3610     9.3160     9.5210     2.4740    -8.4890 
  209.7500    43.0000     9.5160     9.4720     9.4840     2.4720    -8.4770 
  209.8750    41.5050     9.9410     9.8710     9.7330     2.4600    -8.4620 
  210.0000    42.4140    10.5060    10.3660    10.6210     2.4470    -8.4490 
  210.1250    46.1240    10.9920    10.7820    11.2500     2.4390    -8.4400 
  210.2500    50.4350    11.2410    10.9880    11.2330     2.4380    -8.4370 
  210.3750    53.4660    11.2390    10.9640    10.4100     2.4370    -8.4410 
  210.5000    54.9830    11.1340    10.8150     8.9020     2.4270    -8.4520 
  210.6250    53.8200    10.8630    10.4720     8.9830     2.4080    -8.4720 
  210.7500    54.0710    10.1180     9.7280     9.9220     2.3910    -8.4990 
  210.8750    56.4100     8.9850     8.6560     8.7870     2.3820    -8.5320 
  211.0000    57.1830     7.6760     7.4290     6.3430     2.3770    -8.5700 
  211.1250    54.6890     6.4560     6.2680     4.3820     2.3750    -8.6120 
  211.2500    51.6630     5.5710     5.3880     4.3020     2.3740    -8.6560 
  211.3750    48.0070     5.1840     4.9460     4.4880     2.3830    -8.6970 
  211.5000    46.6150     5.1680     4.8750     4.5980     2.3940    -8.7320 
  211.6250    44.7510     5.3850     5.0130     4.6290     2.4000    -8.7560 
  211.7500    43.6260     5.6370     5.2000     4.5590     2.4000    -8.7670 
  211.8750    44.6280     5.7600     5.3020     4.4240     2.3960    -8.7630 
  212.0000    47.5070     5.6860     5.2590     4.3440     2.3980    -8.7420 
  212.1250    48.3380     5.5270     5.1320     4.3310     2.4020    -8.7020 
  212.2500    44.4970     5.4550     5.0570     4.3290     2.4020    -8.6500 
  212.3750    42.4440     5.4600     5.0400     4.3290     2.3920    -8.5930 
  212.5000    41.8540     5.5310     5.0750     4.3280     2.3790    -8.5380 
  212.6250    41.8170     5.6340     5.1380     4.3280     2.3670    -8.4890 
  212.7500    43.1630     5.7190     5.1920     4.3270     2.3600    -8.4540 
  212.8750    44.8250     5.8410     5.2740     4.3270     2.3620    -8.4440 
  213.0000    47.6200     5.9890     5.3630     4.3270     2.3610    -8.4610 
  213.1250    48.2270     6.1360     5.4370     4.3260     2.3550    -8.5070 
  213.2500    47.3000     6.1950     5.4380     4.3260     2.3420    -8.5830 
  213.3750    46.1660     6.0860     5.3160     4.3260     2.3270    -8.6890 
  213.5000    45.5150     5.7850     5.0630     4.3250     2.3200    -8.8250 
  213.6250    47.5090     5.4030     4.7440     4.3240     2.3240    -8.9930 
  213.7500    47.2600     5.1030     4.4740     4.3220     2.3350    -9.1860 
  213.8750    46.5540     4.9380     4.3110     4.3210     2.3470    -9.3970 
  214.0000    45.8310     4.9120     4.2620    27.1490     2.3590    -9.6180 
  214.1250    44.9150     4.9900     4.3050   101.7920     2.3730    -9.8440 
  214.2500    43.3190     5.1170     4.4000   242.8570     2.3860   -10.0670 
  214.3750    41.1020     5.2710     4.5210   290.4610     2.3990   -10.2740 
  214.5000    41.2850     5.3940     4.6200   297.4780     2.4040   -10.4590 
  214.6250    41.3980     5.5080     4.7100   297.4780     2.4060   -10.6170 
  214.7500    41.9940     5.6130     4.7920   297.4780     2.4100   -10.7460 
  214.8750    43.3360     5.6980     4.8560   297.4780     2.4140   -10.8470 
  215.0000    44.1890     5.7480     4.8970   297.4780     2.4170   -10.9200 
  215.1250    44.2440     5.7520     4.9030   297.4780     2.4090   -10.9640 
  215.2500    42.5510     5.7620     4.9110   297.4780     2.3910   -10.9870 
  215.3750    41.9890     5.7810     4.9160   297.4780     2.3740   -10.9950 
  215.5000    41.4820     5.7810     4.9020   297.4780     2.3600   -10.9910 
  215.6250    40.4930     5.7250     4.8480   297.4780     2.3540   -10.9790 
  215.7500    40.4170     5.5800     4.7330   297.4780     2.3540   -10.9620 
  215.8750    37.0930     5.3280     4.5580   297.4780     2.3610   -10.9440 
  216.0000    35.2510     5.1230     4.4080   297.4780     2.3640   -10.9280 
  216.1250    38.9340     5.0060     4.3180   297.4780     2.3620   -10.9160 
  216.2500    26.4360     4.9940     4.2990   297.4780     2.3550   -10.9100 
  216.3750     0.0000     5.0530     4.3280   297.4780     2.3440   -10.9120 
  216.5000     0.0000     5.1020     4.3480   297.4780     2.3310   -10.9200 
  216.6250     0.0000     5.0610     4.3210   297.4780     2.3160   -10.9340 
  216.7500     0.0000     4.9880     4.2790   297.4780     2.3060   -10.9480 
  216.8750     0.0000     4.9590     4.2720   297.4780     2.3070   -10.9580 
  217.0000     0.0000     4.9700     4.2880   297.4780     2.3290   -10.9580 
  217.1250     0.0000     4.9890     4.3010   297.4780     2.3670   -10.9450 
  217.2500     0.0000     4.9690     4.2780   297.4780     2.4010   -10.9140 
