~V
VERS. 2.00: Ver 2.00
~W
STRT.M 50.0000:
STOP.M 254.0000:
STEP.M 0.1250:
NULL. -999.2500:
UWI. F10088:
~C
DEPT.M :
GR.API :
RML.OHMM :
RI. :
RXO.OHMM :
DEN.GM/CC :
SP.MV :
~A
# ...
   75.7500    52.2160    18.8390    14.2980    11.4400     2.1680    -0.3720 
   75.8750    49.0430    20.3140    15.2590    10.8730     2.1670    -0.2290 
   76.0000    47.6840    20.0660    15.1720    10.4750     2.1670    -0.0980 
   76.1250    46.3890    18.7160    14.3050     9.9810     2.1640     0.0180 
   76.2500    47.4900    17.2390    13.2310     9.6980     2.1540     0.1210 
   76.3750    45.5590    16.2540    12.4680    10.0080     2.1530     0.2080 
   76.5000    45.9700    15.7170    12.0650    10.2740     2.1640     0.2870 
   76.6250    45.7600    15.6360    12.0200    10.5490     2.1780     0.4070 
   76.7500    45.1890    15.9350    12.2500    11.0200     2.1920     0.5300 
   76.8750    45.0550    16.4920    12.6290    11.8610     2.2020     0.6170 
   77.0000    44.4250    17.1700    13.0330    13.0750     2.2080     0.7160 
   77.1250    45.3910    17.2300    13.0420    13.6070     2.2070     0.8290 
   77.2500    46.0960    15.7030    12.1770    13.0060     2.2070     0.9530 
   77.3750    46.3480    13.2130    10.6190    11.6880     2.2150     1.0890 
   77.5000    47.1370    10.6480     8.8230     9.8770     2.2380     1.2320 
   77.6250    49.4050     8.7350     7.2880     7.8290     2.2730     1.3820 
   77.7500    52.9650     7.6340     6.3460     6.0250     2.3030     1.5350 
   77.8750    58.7590     7.3680     6.0810     6.8390     2.2980     1.6890 
   78.0000    61.6880     7.4450     6.0950     8.1350     2.2760     1.8430 
   78.1250    63.1580     7.7550     6.3060     9.0890     2.2540     1.9950 
   78.2500    64.5510     8.1220     6.6040     8.8760     2.2430     2.1460 
   78.3750    67.0840     8.3840     6.8730     7.7920     2.2440     2.2950 
   78.5000    71.5640     8.4670     7.0270     8.2190     2.2480     2.4430 
   78.6250    73.1730     8.7510     7.3220    10.8610     2.2390     2.5890 
   78.7500    70.5500     9.4070     7.9300    10.7510     2.2230     2.7330 
   78.8750    66.7820    10.5510     8.8770    10.1440     2.2050     2.8740 
   79.0000    63.7100    12.1260    10.1190    10.7220     2.1810     3.0100 
   79.1250    61.9140    14.0080    11.5800    12.7140     2.1560     3.1410 
   79.2500    60.5870    16.0860    13.2000    14.0970     2.1480     3.2650 
   79.3750    55.1150    18.6950    15.0540    14.2400     2.1520     3.3760 
   79.5000    54.5930    21.1720    16.7220    13.8180     2.1590     3.4780 
   79.6250    53.6680    22.7640    17.7560    13.6360     2.1610     3.5670 
   79.7500    54.3730    23.3550    18.0990    13.7640     2.1570     3.6450 
   79.8750    58.1370    23.1720    17.9070    13.7980     2.1480     3.7110 
   80.0000    59.1030    22.5360    17.3980    13.0880     2.1410     3.7660 
   80.1250    60.0680    21.9320    16.8790    13.0770     2.1450     3.8060 
   80.2500    61.2940    21.5930    16.5140    14.1350     2.1470     3.8360 
   80.3750    57.0870    21.5210    16.3430    15.5340     2.1430     3.8550 
   80.5000    52.5270    21.5670    16.2900    16.6490     2.1380     3.8630 
   80.6250    51.9200    21.5540    16.2480    17.1500     2.1380     3.8610 
   80.7500    49.0800    21.4020    16.1560    17.1910     2.1440     3.8520 
   80.8750    51.9770    21.2530    16.0690    17.0960     2.1490     3.8320 
   81.0000    51.2240    21.2820    16.0710    16.7930     2.1490     3.8030 
   81.1250    50.2040    21.0650    15.9020    16.8980     2.1510     3.7680 
   81.2500    50.7480    20.0580    15.2600    16.7380     2.1610     3.7260 
   81.3750    53.4740    18.0110    13.9870    15.4950     2.1810     3.6790 
   81.5000    58.0290    15.3240    12.2350    13.1980     2.2080     3.6290 
   81.6250    67.3630    13.0070    10.5760    11.1910     2.2240     3.5760 
   81.7500    69.1350    11.3570     9.3470    10.0000     2.2400     3.5230 
   81.8750    72.0810    10.3300     8.5320     9.5470     2.2480     3.4720 
   82.0000    72.9480     9.6930     7.9890     9.4070     2.2520     3.4230 
   82.1250    70.3540     9.1950     7.5580     8.9010     2.2610     3.3770 
   82.2500    76.1040     8.7060     7.1560     7.2300     2.2840     3.3350 
   82.3750    77.7140     8.0190     6.6520     6.2750     2.3150     3.2980 
   82.5000    81.6700     7.3220     6.1690     6.4120     2.3320     3.2640 
   82.6250    84.2120     6.8820     5.8880     6.9550     2.3290     3.2310 
   82.7500    84.4420     6.8810     5.9970     7.4410     2.3080     3.1990 
   82.8750    82.8160     7.4990     6.7910     7.8630     2.2760     3.1650 
   83.0000    79.8720     8.9690     8.7310     8.8930     2.2410     3.1280 
   83.1250    72.4690    12.0890    11.5320    13.6890     2.2130     3.0820 
   83.2500    64.5440    16.2790    14.9020    17.1310     2.1980     3.0280 
   83.3750    58.0690    19.2310    16.1960    18.0120     2.1990     2.9630 
   83.5000    54.4480    19.5320    15.5320    16.8230     2.2150     2.8870 
   83.6250    54.3140    17.3540    14.0220    14.3540     2.2360     2.8000 
   83.7500    57.2760    15.0580    12.2910    10.5600     2.2480     2.7040 
   83.8750    58.8860    14.0260    11.4400    10.4510     2.2330     2.6010 
   84.0000    61.5390    14.0940    11.4120    11.6820     2.2020     2.4960 
   84.1250    61.2400    14.9990    11.9710    12.3020     2.1780     2.3950 
   84.2500    59.4690    16.3930    12.7940    12.4170     2.1690     2.2990 
   84.3750    59.0470    17.6750    13.4780    12.6600     2.1680     2.2150 
   84.5000    60.6630    17.8820    13.5760    12.9400     2.1630     2.1440 
   84.6250    62.9160    16.9370    12.9630    12.4690     2.1580     2.0940 
   84.7500    63.8640    16.0690    12.3770    11.8550     2.1580     2.0620 
   84.8750    62.3440    15.4660    11.9460    11.4560     2.1570     2.0480 
   85.0000    60.5060    15.2350    11.7510    11.4060     2.1520     2.0510 
   85.1250    60.7960    15.3950    11.8160    11.6590     2.1480     2.0700 
   85.2500    63.3530    15.8760    12.0960    12.0240     2.1510     2.1040 
   85.3750    64.3180    16.4850    12.4700    12.0990     2.1580     2.1520 
   85.5000    65.0230    16.9800    12.7760    12.1770     2.1610     2.2080 
   85.6250    63.8960    17.4520    13.0760    12.3120     2.1530     2.2680 
   85.7500    62.3050    17.9990    13.4330    12.3810     2.1450     2.3310 
   85.8750    61.7290    18.6510    13.8720    12.4200     2.1460     2.3940 
   86.0000    61.4260    19.3200    14.3350    12.8860     2.1480     2.4550 
   86.1250    62.7130    19.7660    14.6720    13.1130     2.1520     2.5110 
   86.2500    62.6940    19.8970    14.8170    12.9480     2.1540     2.5600 
   86.3750    62.3730    19.8270    14.8050    13.0290     2.1560     2.6040 
   86.5000    60.1960    19.6240    14.6690    13.3940     2.1600     2.6400 
   86.6250    55.7080    19.2190    14.3810    13.6440     2.1690     2.6690 
   86.7500    52.5240    18.3200    13.7960    13.1030     2.1810     2.6920 
   86.8750    52.2020    16.0860    12.4790    12.7180     2.1970     2.7070 
   87.0000    57.0410    14.1440    11.2080    11.8080     2.2050     2.7160 
   87.1250    62.7310    12.8750    10.3280    10.5410     2.2030     2.7200 
   87.2500    68.7330    12.4590    10.0140    10.2300     2.1910     2.7170 
   87.3750    73.7360    12.7860    10.1880    12.2600     2.1710     2.7080 
   87.5000    72.1900    13.3710    10.4460    17.0740     2.1580     2.6920 
   87.6250    69.2940    13.1270    10.2220    17.1950     2.1780     2.6660 
   87.7500    66.9200    11.6500     9.3250    12.8050     2.2170     2.6300 
   87.8750    69.9860     9.8450     8.1000     9.0280     2.2530     2.5850 
   88.0000    76.4230     8.1560     6.7480     7.7340     2.2790     2.5300 
   88.1250    81.9050     6.9730     5.6390     8.2310     2.2900     2.4650 
   88.2500    83.8670     6.9050     5.5230     7.7770     2.2940     2.3910 
   88.3750    88.3740     6.6200     5.3280     6.9770     2.3010     2.3070 
   88.5000    90.7880     6.2630     5.1040     6.7500     2.3050     2.2190 
