~V
VERS. 2.00: Ver 2.00
~W
STRT.M 20.0000:
STOP.M 297.0000:
STEP.M 0.1250:
NULL. -999.2500:
UWI. F10080:
~C
DEPT.M :
GR.API :
RML.OHMM :
RI. :
RXO.OHMM :
DEN.GM/CC :
SP.MV :
~A
   20.0000    43.6590     0.2000     0.2000     0.2000     2.3550    23.7820 
   20.1250    49.4810     0.2000     0.2000     0.2000     2.3550    23.7820 
   20.2500    50.2570     0.2000     0.2000     0.2000     2.3550    23.7820 
   20.3750    49.7720     0.2000     0.2000     0.2000     2.3550    23.7820 
   20.5000    46.6330     0.2000     0.2000     0.2000     2.3550    23.7820 
   20.6250    41.1370     0.2000     0.2000     0.2000     2.3550    23.7820 
   20.7500    42.1070     0.2000     0.2000     0.2000     2.3550    23.7820 
   20.8750    40.6510     0.2000     0.2000     0.2000     2.3550    23.7820 
   21.0000    41.3960     0.2000     0.2000     0.2000     2.3550    23.7820 
   21.1250    40.5540     0.2000     0.2000     0.2000     2.3550    23.7820 
   21.2500    37.6420     0.2000     0.2000     0.2000     2.3550    23.7820 
   21.3750    35.0260     0.2000     0.2000     0.2000     2.3550    23.7820 
   21.5000    37.4510     0.2000     0.2000     0.2000     2.3550    23.7820 
   21.6250    38.7440     0.2000     0.2000     0.2000     2.3550    23.7820 
   21.7500    42.8860     0.2000     0.2000     0.2000     2.3550    23.7820 
   21.8750    43.7550     0.2000     0.2000     0.2000     2.3550    23.7820 
   22.0000    42.8830     0.2000     0.2000     0.2000     2.3550    23.7820 
   22.1250    42.8820     0.2000     0.2000     0.2000     2.3550    23.7820 
   22.2500    40.9430     0.2000     0.2000     0.2000     2.3550    23.7820 
   22.3750    41.2660     0.2000     0.2000     0.2000     2.3550    23.7820 
   22.5000    39.6470     0.2000     0.2000     0.2000     2.3550    23.7820 
   22.6250    39.3910     0.2000     0.2000     0.2000     2.3550    23.7820 
   22.7500    39.7780     0.2000     0.2000     0.2000     2.3550    23.7820 
   22.8750    39.8130     0.2000     0.2000     0.2000     2.3550    23.7820 
   23.0000    41.9160     0.2000     0.2000     0.2000     2.3550    23.7820 
   23.1250    44.8260     0.2000     0.2000     0.2000     2.3550    23.7820 
   23.2500    45.0170     0.2000     0.2000     0.2000     2.3550    23.7820 
   23.3750    44.2400     0.2000     0.2000     0.2000     2.3550    23.7820 
   23.5000    43.0760     0.2000     0.2000     0.2000     2.3550    23.7820 
   23.6250    42.5960     0.2000     0.2000     0.2000     2.3550    23.7820 
   23.7500    45.9880     0.2000     0.2000     0.2000     2.3550    23.7820 
   23.8750    45.8260     0.2000     0.2000     0.2000     2.3550    23.7820 
   24.0000    45.7940     0.2000     0.2000     0.2000     2.3550    23.7820 
   24.1250    42.0020     0.2000     0.2000     0.2000     2.3550    23.7820 
   24.2500    37.9020     0.2000     0.2000     0.2000     2.3550    23.7820 
   24.3750    36.4740     0.2000     0.2000     0.2000     2.3550    23.7820 
   24.5000    32.6030     0.2000     0.2000     0.2000     2.3550    23.7820 
   24.6250    35.5140     0.2000     0.2000     0.2000     2.3550    23.7820 
   24.7500    38.4250     0.2000     0.2000     0.2000     2.3550    23.7820 
   24.8750    39.8760     0.2000     0.2000     0.2000     2.3550    23.7820 
   25.0000    40.7510     0.2000     0.2000     0.2000     2.3550    23.7820 
   25.1250    41.4890     0.2000     0.2000     0.2000     2.3550    23.7820 
   25.2500    39.3940     0.2000     0.2000     0.2000     2.3550    23.7820 
   25.3750    41.3340     0.2000     0.2000     0.2000     2.3550    23.7820 
   25.5000    43.2750     0.2000     0.2000     0.2000     2.3550    23.7820 
   25.6250    45.3120     0.2000     0.2000     0.2000     2.3550    23.7820 
   25.7500    46.8300     0.2000     0.2000     0.2000     2.3550    23.7820 
   25.8750    46.3670     0.2000     0.2000     0.2000     2.3550    23.7820 
   26.0000    41.5290     0.2000     0.2000     0.2000     2.3550    23.7820 
   26.1250    43.4690     0.2000     0.2000     0.2000     2.3550    23.7820 
   26.2500    48.0030     0.2000     0.2000     0.2000     2.3550    23.7820 
   26.3750    53.8590     0.2000     0.2000     0.2000     2.3550    23.7820 
   26.5000    58.8010     0.2000     0.2000     0.2000     2.3550    23.7820 
   26.6250    60.4370     0.2000     0.2000     0.2000     2.3550    23.7820 
   26.7500    57.0480     0.2000     0.2000     0.2000     2.3550    23.7820 
   26.8750    57.0480     0.2000     0.2000     0.2000     2.3550    23.7820 
   27.0000    48.8760     0.2000     0.2000     0.2000     2.3550    23.7820 
   27.1250    44.7260     0.2000     0.2000     0.2000     2.3550    23.7820 
   27.2500    44.6300     0.2000     0.2000     0.2000     2.3550    23.7820 
   27.3750    45.8070     0.2000     0.2000     0.2000     2.3550    23.7820 
   27.5000    51.6250     0.2000     0.2000     0.2000     2.3550    23.7820 
   27.6250    55.6670     0.2000     0.2000     0.2000     2.3550    23.7820 
   27.7500    61.6560     0.2000     0.2000     0.2000     2.3550    23.7820 
   27.8750    70.0730     0.2000     0.2000     0.2000     2.3550    23.7820 
   28.0000    77.4320     0.2000     0.2000     0.2000     2.3550    23.7820 
   28.1250    79.7080     0.2000     0.2000     0.2000     2.3550    23.7820 
   28.2500    75.6580     0.2000     0.2000     0.2000     2.3550    23.7820 
   28.3750    68.8660     0.2000     0.2000     0.2000     2.3550    23.7820 
   28.5000    63.2430     0.2000     0.2000     0.2000     2.3550    23.7820 
   28.6250    59.3690     0.2000     0.2000     0.2000     2.3550    23.7820 
   28.7500    55.8720     0.2000     0.2000     0.2000     2.3550    23.7820 
   28.8750    51.3090     0.2000     0.2000     0.2000     2.3550    23.7820 
   29.0000    45.9930     0.2000     0.2000     0.2000     2.3550    23.7820 
   29.1250    47.7720     0.2000     0.2000     0.2000     2.3550    23.7820 
   29.2500    48.9010     0.2000     0.2000     0.2000     2.3550    23.7820 
   29.3750    50.1640     0.2000     0.2000     0.2000     2.3550    23.7820 
   29.5000    48.7520     0.2000     0.2000     0.2000     2.3550    23.7820 
   29.6250    44.0770     0.2000     0.2000     0.2000     2.3550    23.7820 
   29.7500    43.2710     0.2000     0.2000     0.2000     2.3550    23.7820 
   29.8750    43.2710     0.2000     0.2000     0.2000     2.3550    23.7820 
   30.0000    44.8300     0.2000     0.2000     0.2000     2.3550    23.7820 
   30.1250    45.2100     0.2000     0.2000     0.2000     2.3550    23.7820 
   30.2500    44.9540     0.2000     0.2000     0.2000     2.3550    23.7820 
   30.3750    45.5080     0.2000     0.2000     0.2000     2.3550    23.7820 
   30.5000    46.9610     0.2000     0.2000     0.2000     2.3550    23.7820 
   30.6250    47.9320     0.2000     0.2000     0.2000     2.3550    23.7820 
   30.7500    50.2010     0.2000     0.2000     0.2000     2.3550    23.7820 
   30.8750    51.5200     0.2000     0.2000     0.2000     2.3550    23.7820 
   31.0000    52.0700     0.2000     0.2000     0.2000     2.3550    23.7820 
   31.1250    52.2890     0.2000     0.2000     0.2000     2.3550    23.7820 
   31.2500    50.8390     0.2000     0.2000     0.2000     2.3550    23.7820 
   31.3750    50.8390     0.2000     0.2000     0.2000     2.3550    23.7820 
   31.5000    50.3190     0.2000     0.2000     0.2000     2.3550    23.7820 
   31.6250    47.4270     0.2000     0.2000     0.2000     2.3550    23.7820 
   31.7500    43.1910     0.2000     0.2000     0.2000     2.3550    23.7820 
   31.8750    39.6760     0.2000     0.2000     0.2000     2.3550    23.7820 
   32.0000    38.2340     0.2000     0.2000     0.2000     2.3550    23.7820 
   32.1250    40.1740     0.2000     0.2000     0.2000     2.3550    23.7820 
   32.2500    42.2450     0.2000     0.2000     0.2000     2.3550    23.7820 
   32.3750    42.5890     0.2000     0.2000     0.2000     2.3550    23.7820 
   32.5000    42.6950     0.2000     0.2000     0.2000     2.3550    23.7820 
   32.6250    43.4570     0.2000     0.2000     0.2000     2.3550    23.7820 
   32.7500    41.5300     0.2000     0.2000     0.2000     2.3550    23.7820 
