~V
VERS. 2.00: Ver 2.00
~W
STRT.M 50.0000:
STOP.M 254.0000:
STEP.M 0.1250:
NULL. -999.2500:
UWI. F10088:
~C
DEPT.M :
GR.API :
RML.OHMM :
RI. :
RXO.OHMM :
DEN.GM/CC :
SP.MV :
~A
# ...
  230.2500    44.3610   115.3770   124.1990   133.0410     2.2150    -1.3300 
  230.3750    43.1840   118.6160   125.8220   140.1170     2.2020    -1.2060 
  230.5000    43.3690   123.5180   129.0390   174.7920     2.2040    -1.0760 
  230.6250    45.1140   131.2420   135.0640   211.3810     2.2350    -0.9410 
  230.7500    46.3260   143.3100   145.3370   228.4160     2.3050    -0.8010 
  230.8750    47.6130   162.7170   162.0310   220.0250     2.4200    -0.6600 
  231.0000    43.6540   187.5790   183.0580   351.9070     2.5490    -0.5220 
  231.1250    40.1500   213.8490   203.7980   453.5580     2.6580    -0.3880 
  231.2500    36.6330   222.6530   208.4870   448.5410     2.7250    -0.2610 
  231.3750    33.4920   190.7280   177.6750   355.7470     2.7410    -0.1440 
  231.5000    33.7200   104.0930    99.4100   280.8930     2.7200    -0.0380 
  231.6250    32.4330    51.0470    50.1840   237.5320     2.6840     0.0520 
  231.7500    30.1790    27.5270    27.8490   176.0700     2.6440     0.1250 
  231.8750    26.6000    16.4880    16.8580    83.6270     2.5990     0.1820 
  232.0000    23.3000    11.2020    11.2010    17.7640     2.5500     0.2220 
  232.1250    21.6910     8.4640     8.0890     6.1230     2.5000     0.2450 
  232.2500    21.9940     6.9660     6.3940    10.7140     2.4540     0.2510 
  232.3750    23.2810     6.2240     5.5610    17.4320     2.4170     0.2380 
  232.5000    25.9500     5.8610     5.1750    11.8910     2.3910     0.2080 
  232.6250    28.9000     5.7020     5.0320     7.1890     2.3780     0.1660 
  232.7500    32.7260     5.7640     5.1050     6.6370     2.3680     0.1140 
  232.8750    37.3870     6.0530     5.3600     8.6140     2.3530     0.0560 
  233.0000    41.6090     6.4940     5.7050     8.6600     2.3280    -0.0040 
  233.1250    46.4380     7.0000     6.0590     6.1220     2.3120    -0.0600 
  233.2500    47.3970     7.1430     6.1610     7.0620     2.3170    -0.1070 
  233.3750    48.1420     7.0280     6.0630     7.3890     2.3230    -0.1420 
  233.5000    49.1820     6.7860     5.8460     7.9750     2.3190    -0.1630 
  233.6250    50.8500     6.4850     5.5600     9.6130     2.3070    -0.1720 
  233.7500    53.8980     6.0920     5.2010    11.1720     2.2990    -0.1680 
  233.8750    54.2200     5.6190     4.7920    10.3610     2.3170    -0.1540 
  234.0000    48.5990     5.1780     4.4030     7.6220     2.3460    -0.1360 
  234.1250    41.6820     4.8580     4.0920     5.9330     2.3700    -0.1200 
  234.2500    36.3730     4.7170     3.9080     5.5610     2.3840    -0.1120 
  234.3750    35.0720     4.7420     3.8460     5.8330     2.3860    -0.1150 
  234.5000    39.1800     4.8390     3.8420     5.8930     2.3830    -0.1350 
  234.6250    42.0770     4.8590     3.8170     5.9170     2.3860    -0.1790 
  234.7500    41.6560     4.7660     3.7580     5.9560     2.4020    -0.2480 
  234.8750    38.5690     4.7720     3.7990     5.7220     2.4290    -0.3430 
  235.0000    34.9020     4.9840     3.9970     5.5510     2.4600    -0.4620 
  235.1250    31.9690     5.4650     4.3760     6.3340     2.4830    -0.6040 
  235.2500    29.6800     6.2390     4.9310     9.0520     2.4880    -0.7660 
  235.3750    31.9330     7.2200     5.6030    10.0410     2.4640    -0.9480 
  235.5000    37.0910     8.0850     6.1650     8.8160     2.4280    -1.1390 
  235.6250    45.1640     8.6710     6.5480    10.4210     2.4030    -1.3350 
  235.7500    51.6890     8.9160     6.7140    12.2490     2.3950    -1.5290 
  235.8750    54.3650     8.9210     6.7200    12.0750     2.4040    -1.7150 
  236.0000    55.3090     8.9400     6.7180    11.1520     2.4190    -1.8890 
  236.1250    53.3780     9.0190     6.7570    12.9160     2.4260    -2.0440 
  236.2500    54.2130     9.1540     6.8270    12.6670     2.4180    -2.1770 
  236.3750    56.6690     9.2940     6.8780    11.8200     2.4040    -2.2880 
  236.5000    59.6520     9.2660     6.8110    11.2500     2.3880    -2.3770 
  236.6250    62.2570     8.9090     6.5380    11.3780     2.3730    -2.4440 
  236.7500    63.8640     8.1530     6.0200    11.9250     2.3640    -2.4900 
  236.8750    62.8980     7.1940     5.3600     9.6240     2.3670    -2.5140 
  237.0000    56.1210     6.3460     4.7530     7.3500     2.3720    -2.5230 
  237.1250    49.3510     5.7760     4.3200     6.1340     2.3720    -2.5180 
  237.2500    41.8910     5.5060     4.0970     5.8450     2.3690    -2.5040 
  237.3750    35.3400     5.5260     4.0880     6.1430     2.3660    -2.4810 
  237.5000    35.4130     5.8260     4.2800     6.8240     2.3680    -2.4510 
  237.6250    36.6200     6.2460     4.5430     7.3590     2.3820    -2.4140 
  237.7500    41.6330     6.5710     4.7370     7.7300     2.3920    -2.3710 
  237.8750    44.6100     6.6760     4.8110     7.9510     2.3890    -2.3230 
  238.0000    45.1450     6.6150     4.7940     7.8350     2.3760    -2.2680 
  238.1250    44.5890     6.4940     4.7400     7.4880     2.3600    -2.2070 
  238.2500    44.7070     6.4160     4.7090     7.3930     2.3530    -2.1400 
  238.3750    47.9260     6.5560     4.8060     7.2730     2.3620    -2.0640 
  238.5000    50.2450     6.8450     4.9770     7.9560     2.3670    -1.9840 
  238.6250    51.0780     7.0790     5.0850     8.2590     2.3640    -1.8990 
  238.7500    50.1560     7.0390     5.0190     8.5390     2.3600    -1.8130 
  238.8750    48.1600     6.6330     4.7350     8.7360     2.3610    -1.7270 
  239.0000    46.4960     5.9650     4.2800     7.8160     2.3660    -1.6440 
  239.1250    42.2480     5.3440     3.8330     5.5980     2.3710    -1.5700 
  239.2500    37.2930     4.9430     3.5100     4.9610     2.3790    -1.5060 
  239.3750    32.8930     4.7280     3.3200     4.9490     2.3910    -1.4560 
  239.5000    30.5940     4.6670     3.2470     5.0690     2.4050    -1.4200 
  239.6250    30.2270     4.7060     3.2590     5.1000     2.4170    -1.3980 
  239.7500    29.6640     4.7790     3.3150     5.0680     2.4120    -1.3910 
  239.8750    31.5950     4.8750     3.3980     5.1270     2.3990    -1.3970 
  240.0000    31.4490     5.0370     3.5250     5.2950     2.3920    -1.4090 
  240.1250    32.0820     5.2640     3.6860     5.6780     2.3940    -1.4220 
  240.2500    32.8810     5.5140     3.8510     6.1630     2.4020    -1.4320 
  240.3750    33.4970     5.7210     3.9760     6.6200     2.4150    -1.4340 
  240.5000    34.9160     5.8040     4.0180     6.9590     2.4310    -1.4240 
  240.6250    35.8820     5.7050     3.9430     6.8200     2.4460    -1.3950 
  240.7500    36.0160     5.5190     3.8110     6.3630     2.4540    -1.3460 
  240.8750    35.1120     5.3500     3.6860     6.0620     2.4570    -1.2800 
  241.0000    31.0080     5.2470     3.6040     5.9500     2.4550    -1.1970 
  241.1250    23.6230     5.2350     3.5840     5.9560     2.4480    -1.1000 
  241.2500    16.0590     5.3180     3.6270     6.0330     2.4410    -0.9900 
  241.3750     9.4020     5.4620     3.7070     6.2550     2.4320    -0.8700 
  241.5000     8.4780     5.5670     3.7620     6.4710     2.4270    -0.7450 
  241.6250     8.4780     5.5900     3.7670     6.4880     2.4320    -0.6180 
  241.7500     8.4780     5.5170     3.7160     6.2920     2.4440    -0.4940 
  241.8750     8.4780     5.3620     3.6190     5.9180     2.4610    -0.3730 
  242.0000     8.4780     5.1740     3.4990     5.4400     2.4770    -0.2590 
  242.1250     8.4780     5.0220     3.4000     5.3280     2.4860    -0.1560 
  242.2500     8.4780     4.9270     3.3350     5.3080     2.4870    -0.0660 
  242.3750     8.4780     4.8820     3.3070     5.2850     2.4810     0.0120 
  242.5000     8.4780     4.8680     3.3050     5.2620     2.4680     0.0770 
  242.6250     8.4780     4.8710     3.3170     5.2750     2.4530     0.1280 
  242.7500     8.4780     4.8910     3.3430     5.3540     2.4400     0.1660 
  242.8750     8.4780     4.9500     3.3940     5.4190     2.4300     0.1920 
  243.0000     8.4780     5.0450     3.4670     5.3990     2.4220     0.2080 
