~V
VERS. 2.00: Ver 2.00
~W
STRT.M 50.0000:
STOP.M 219.0000:
STEP.M 0.1250:
NULL. -999.2500:
UWI. F10086:
~C
DEPT.M :
GR.API :
RML.OHMM :
RI. :
RXO.OHMM :
DEN.GM/CC :
SP.MV :
~A
# ...
  140.1250    66.0410     6.5290     6.7490     5.1890     2.2660    -7.1090 
  140.2500    64.2680     6.9690     7.2250     5.8110     2.2660    -7.1440 
  140.3750    61.1290     7.6550     7.9500     6.0320     2.2750    -7.1610 
  140.5000    58.2330     8.2330     8.5990     5.6730     2.2900    -7.1620 
  140.6250    58.2660     8.3630     8.8700     5.3250     2.3030    -7.1490 
  140.7500    66.1180     7.8410     8.5730     6.1610     2.3050    -7.1230 
  140.8750    69.7740     7.0480     7.8010     6.3450     2.2910    -7.0850 
  141.0000    73.7060     6.4920     7.1610     5.5560     2.2820    -7.0400 
  141.1250    74.8720     6.3270     6.9310     5.1250     2.2910    -6.9890 
  141.2500    74.0160     6.5550     7.1350     5.3180     2.3170    -6.9330 
  141.3750    71.5060     7.2190     7.8180     6.3020     2.3550    -6.8730 
  141.5000    65.0390     8.5220     9.1840     8.6290     2.3890    -6.8090 
  141.6250    59.0550    10.7040    11.2020    11.1340     2.4100    -6.7430 
  141.7500    57.2070    13.5010    13.5150    14.5940     2.4220    -6.6750 
  141.8750    57.1510    16.2900    15.8290    15.8760     2.4270    -6.6070 
  142.0000    56.5790    18.5620    17.7430    15.5330     2.4220    -6.5400 
  142.1250    54.1270    20.0950    19.0250    15.5930     2.4110    -6.4720 
  142.2500    50.3150    21.0950    19.8090    18.0240     2.4010    -6.4040 
  142.3750    52.3100    21.7290    20.3420    20.6940     2.3920    -6.3330 
  142.5000    51.6160    22.6660    21.1180    19.9100     2.3950    -6.2580 
  142.6250    50.8400    24.0930    22.1870    22.2280     2.4030    -6.1780 
  142.7500    49.6990    25.6260    23.3130    25.5210     2.4200    -6.0910 
  142.8750    48.4490    26.8430    24.2270    26.1870     2.4440    -5.9980 
  143.0000    49.6830    27.6340    24.7990    23.6970     2.4650    -5.9010 
  143.1250    50.5140    27.8950    25.0030    22.0360     2.4770    -5.8000 
  143.2500    49.0000    27.2750    24.5160    21.1840     2.4750    -5.7030 
  143.3750    49.2040    26.3670    23.7600    21.0120     2.4670    -5.6110 
  143.5000    49.4850    25.3690    22.9060    20.8760     2.4600    -5.5290 
  143.6250    48.4620    24.3110    22.0030    20.2020     2.4590    -5.4570 
  143.7500    48.4170    23.1760    21.0440    18.8910     2.4590    -5.3970 
  143.8750    46.9210    22.3820    20.3710    17.4410     2.4560    -5.3510 
  144.0000    45.0110    22.0240    20.0740    17.7390     2.4590    -5.3170 
  144.1250    45.2160    21.8250    19.9020    19.9470     2.4700    -5.2910 
  144.2500    45.8540    21.4240    19.5790    20.8270     2.4880    -5.2730 
  144.3750    46.3880    20.5620    18.9160    18.3350     2.5040    -5.2610 
  144.5000    50.1810    19.2360    17.9220    14.5650     2.5030    -5.2550 
  144.6250    47.6880    18.2600    17.2220    13.1710     2.4810    -5.2530 
  144.7500    44.7810    17.7680    16.8930    13.5890     2.4550    -5.2530 
  144.8750    44.3040    17.8730    17.0450    15.0100     2.4430    -5.2540 
  145.0000    45.9450    18.3880    17.5230    16.6690     2.4470    -5.2540 
  145.1250    48.4380    19.0560    18.1180    17.5810     2.4590    -5.2510 
  145.2500    50.7740    19.6850    18.7020    16.5950     2.4690    -5.2420 
  145.3750    48.1140    19.6240    18.7210    16.1510     2.4640    -5.2240 
  145.5000    48.0780    19.1700    18.3470    16.6040     2.4590    -5.1960 
  145.6250    48.5770    18.7500    17.9670    16.7520     2.4550    -5.1590 
  145.7500    50.2200    18.5210    17.7280    16.3850     2.4510    -5.1160 
  145.8750    52.8800    18.4930    17.6450    16.0500     2.4490    -5.0700 
  146.0000    53.8920    18.5860    17.6490    16.8270     2.4540    -5.0230 
  146.1250    55.3880    18.7740    17.6600    17.6600     2.4720    -4.9820 
  146.2500    54.8130    18.8830    17.6190    16.4770     2.4970    -4.9490 
  146.3750    53.5010    18.7570    17.4220    16.0750     2.5130    -4.9260 
  146.5000    52.3270    18.3370    17.0070    15.9370     2.5160    -4.9140 
  146.6250    52.0980    17.7160    16.4320    15.2000     2.5070    -4.9130 
  146.7500    53.5470    17.1700    15.9100    14.3810     2.4860    -4.9210 
  146.8750    53.5470    16.9860    15.7020    14.1090     2.4680    -4.9390 
  147.0000    52.0970    16.8400    15.5510    14.2460     2.4530    -4.9620 
  147.1250    49.8800    16.7770    15.4830    14.2750     2.4490    -4.9900 
  147.2500    48.3900    16.7950    15.4990    14.0780     2.4540    -5.0200 
  147.3750    48.3770    16.8020    15.5170    13.8640     2.4640    -5.0520 
  147.5000    48.8450    16.5990    15.3540    14.1620     2.4810    -5.0830 
  147.6250    48.3460    16.1110    14.9350    16.5500     2.4910    -5.1090 
  147.7500    46.7420    15.4420    14.3360    15.5520     2.4960    -5.1270 
  147.8750    46.6980    14.7670    13.7540    13.5120     2.4910    -5.1350 
  148.0000    47.4080    14.2160    13.2820    12.1280     2.4770    -5.1280 
  148.1250    47.7790    13.9260    13.0220    11.9370     2.4600    -5.1060 
  148.2500    48.1990    14.0470    13.1420    11.9630     2.4470    -5.0670 
  148.3750    46.2050    14.6700    13.6940    12.8150     2.4450    -5.0090 
  148.5000    47.6650    15.6740    14.5840    13.5850     2.4560    -4.9360 
  148.6250    50.1410    16.6760    15.4660    15.1150     2.4700    -4.8550 
  148.7500    53.3740    17.6110    16.2720    15.9440     2.4880    -4.7700 
  148.8750    55.5150    18.4070    16.9560    15.6090     2.5080    -4.6840 
  149.0000    51.5520    18.8300    17.3650    16.5180     2.5220    -4.6030 
  149.1250    48.3950    19.2870    17.8320    19.3770     2.5290    -4.5310 
  149.2500    49.1070    19.7650    18.2740    17.4220     2.5260    -4.4690 
  149.3750    50.8130    20.3410    18.7440    17.4280     2.5150    -4.4190 
  149.5000    53.3590    20.5950    18.9300    18.8350     2.5010    -4.3800 
  149.6250    55.8090    20.1700    18.5700    18.8520     2.4900    -4.3520 
  149.7500    54.8650    19.1260    17.7110    15.6870     2.4890    -4.3340 
  149.8750    55.5290    17.8960    16.6220    14.8420     2.5000    -4.3270 
  150.0000    51.0780    16.9530    15.8020    13.9470     2.5080    -4.3290 
  150.1250    45.8040    16.6750    15.5690    14.3830     2.5060    -4.3370 
  150.2500    41.8000    17.0750    15.9400    15.7010     2.4990    -4.3500 
  150.3750    40.2330    17.9710    16.7440    17.2310     2.4930    -4.3650 
  150.5000    41.7820    19.0920    17.7110    19.0090     2.4940    -4.3780 
  150.6250    44.9400    20.0510    18.5830    20.3820     2.5100    -4.3860 
  150.7500    49.2040    20.5730    19.0890    20.1900     2.5180    -4.3860 
  150.8750    51.4850    20.8740    19.4310    20.2550     2.5160    -4.3760 
  151.0000    51.6200    21.1500    19.7860    20.0500     2.5070    -4.3570 
  151.1250    49.8120    21.6220    20.3370    19.6160     2.5000    -4.3310 
  151.2500    45.5020    22.5630    21.2970    21.1100     2.5180    -4.3010 
  151.3750    46.5000    24.6870    23.2370    24.8080     2.5490    -4.2690 
  151.5000    47.9120    27.0980    25.2950    29.3430     2.5410    -4.2410 
  151.6250    49.7230    28.4370    26.3590    34.1080     2.5090    -4.2210 
  151.7500    50.1360    27.9240    25.9050    32.1010     2.4790    -4.2100 
  151.8750    48.1650    25.5650    23.9960    22.3020     2.4720    -4.2090 
  152.0000    45.2000    22.3100    21.3100    16.4140     2.4920    -4.2200 
  152.1250    43.0400    19.8550    19.0630    15.0330     2.5290    -4.2430 
  152.2500    40.7410    18.6690    17.8960    16.1840     2.5420    -4.2750 
  152.3750    40.8320    18.4810    17.6730    17.2490     2.5320    -4.3160 
  152.5000    41.3210    18.8470    18.0090    18.2490     2.5130    -4.3630 
  152.6250    41.0320    19.2810    18.4610    19.7040     2.5030    -4.4140 
  152.7500    42.4510    19.3930    18.6870    21.2240     2.5180    -4.4700 
  152.8750    41.6200    19.1660    18.5950    16.3860     2.5410    -4.5270 
