~V
VERS. 2.00: Ver 2.00
~W
STRT.M 20.0000:
STOP.M 297.0000:
STEP.M 0.1250:
NULL. -999.2500:
UWI. F10080:
~C
DEPT.M :
GR.API :
RML.OHMM :
RI. :
RXO.OHMM :
DEN.GM/CC :
SP.MV :
~A
# ...
  277.5000    63.6540    34.9100    33.3720    35.1390     2.5920   -41.0620 
  277.6250    62.8370    31.3490    30.2910    35.0490     2.5600   -41.1750 
  277.7500    62.1210    28.4710    27.5820    35.0490     2.5320   -41.2510 
  277.8750    61.9530    26.2800    25.3880    29.7160     2.5300   -41.2880 
  278.0000    58.0130    24.5870    23.7300    19.1890     2.5610   -41.2800 
  278.1250    53.4790    23.4540    22.5430    19.7620     2.6010   -41.2520 
  278.2500    50.0890    22.4660    21.7230    26.9860     2.6010   -41.2030 
  278.3750    52.7090    21.9340    21.3690    28.2930     2.5810   -41.1390 
  278.5000    57.8180    22.0450    21.6570    25.7460     2.5530   -41.0670 
  278.6250    61.8280    22.9340    22.7010    28.5820     2.5310   -40.9900 
  278.7500    63.6770    24.7340    24.5450    48.8650     2.5230   -40.9100 
  278.8750    65.3770    28.0090    27.5460    90.4380     2.5110   -40.8280 
  279.0000    66.4340    31.9490    30.9990    71.0400     2.5040   -40.7410 
  279.1250    69.2300    34.3250    32.9650    51.8030     2.5080   -40.6480 
  279.2500    71.1140    34.1960    32.7310    40.9580     2.5100   -40.5430 
  279.3750    71.5540    31.9650    30.7170    33.6250     2.5080   -40.4260 
  279.5000    72.9950    29.2350    28.3050    23.6240     2.5060   -40.2950 
  279.6250    73.1900    27.7710    26.9190    22.5540     2.5210   -40.1460 
  279.7500    70.4670    28.2150    27.1040    26.2550     2.5390   -39.9800 
  279.8750    67.8890    31.0740    29.0630    34.8870     2.5510   -39.8010 
  280.0000    66.8720    35.5170    31.9690    42.9690     2.5470   -39.6110 
  280.1250    66.9990    37.9250    33.0730    44.0620     2.5250   -39.4120 
  280.2500    66.6140    33.0400    28.6510    34.3800     2.4910   -39.2060 
  280.3750    67.8770    21.9320    20.1910    24.9510     2.4490   -38.9960 
  280.5000    69.0120    14.6560    13.9390    11.9740     2.4110   -38.7840 
  280.6250    70.8590    10.4800     9.8470     7.4070     2.3840   -38.5700 
  280.7500    71.9880     8.5270     7.6200     7.6410     2.3700   -38.3550 
  280.8750    72.1260     7.9790     6.7750     8.9400     2.3700   -38.1400 
  281.0000    72.5510     8.2560     6.7500    10.8650     2.3800   -37.9240 
  281.1250    72.3080     8.8800     6.9670    10.4120     2.3780   -37.7080 
  281.2500    72.9950     8.5630     6.7530     8.3840     2.3460   -37.4950 
  281.3750    72.9190     7.5440     6.0760     6.5500     2.2820   -37.2870 
  281.5000    73.4910     6.3640     5.2220     5.3330     2.2000   -37.0860 
  281.6250    73.9280     5.4480     4.4790     4.7220     2.1220   -36.8970 
  281.7500    71.2630     4.9300     4.0170     4.4680     2.0680   -36.7240 
  281.8750    69.5630     4.7200     3.8480     4.1590     2.0890   -36.5750 
  282.0000    70.2240     4.7110     3.8370     4.1900     2.1520   -36.4550 
  282.1250    73.8530     4.7410     3.8670     4.3220     2.2230   -36.3650 
  282.2500    76.1250     4.7620     3.8900     4.3280     2.2770   -36.3060 
  282.3750    74.9500     4.7560     3.8900     4.1040     2.2940   -36.2800 
  282.5000    72.0550     4.7200     3.8720     3.7310     2.2690   -36.2860 
  282.6250    69.3840     4.6540     3.8550     3.7120     2.2170   -36.3280 
  282.7500    70.5770     4.6190     3.8480     3.9720     2.1850   -36.4010 
  282.8750    70.6160     4.6100     3.8430     4.2420     2.2030   -36.4990 
  283.0000    68.9460     4.6010     3.8120     4.2390     2.2600   -36.6210 
  283.1250    66.4810     4.5610     3.7380     4.0040     2.3160   -36.7640 
  283.2500    64.7230     4.4690     3.6310     3.9170     2.3260   -36.9260 
  283.3750    64.9650     4.4050     3.5500     4.1990     2.3100   -37.1080 
  283.5000    64.3490     4.4110     3.5610     4.8390     2.2900   -37.3070 
  283.6250    62.4020     4.6040     3.7520     5.6010     2.3010   -37.5180 
  283.7500    61.9310     5.0730     4.2270     6.3600     2.3220   -37.7400 
  283.8750    64.9670     5.9660     5.1080     8.2990     2.3370   -37.9690 
  284.0000    70.1870     7.5140     6.5210    13.5990     2.3560   -38.2030 
  284.1250    62.6570    10.1940     8.5900    22.0250     2.3850   -38.4380 
  284.2500    22.5300    13.8350    11.0890    26.0870     2.4290   -38.6680 
  284.3750     8.5300    16.6890    13.1600    26.0380     2.4680   -38.8880 
  284.5000     8.5300    17.6540    14.0070    22.2520     2.4900   -39.0950 
  284.6250     8.5300    16.6420    13.4320    16.9340     2.4870   -39.2850 
  284.7500     8.5300    14.6120    11.9480    13.6560     2.4560   -39.4550 
  284.8750     8.5300    12.8750    10.4850    13.1790     2.4160   -39.5980 
  285.0000     8.5300    11.7670     9.5070    11.9080     2.3860   -39.7110 
  285.1250     8.5300    11.2250     9.0140    10.4520     2.3650   -39.7970 
  285.2500     8.5300    11.2040     8.9600    10.2850     2.3550   -39.8550 
  285.3750     8.5300    11.6510     9.2920    11.9440     2.3520   -39.8840 
  285.5000     8.5300    12.5080     9.9660    14.4800     2.3550   -39.8850 
  285.6250     8.5300    13.7630    10.8980    15.1950     2.3660   -39.8540 
  285.7500     8.5300    14.9760    11.7180    17.1950     2.3820   -39.7910 
  285.8750     8.5300    15.5300    12.0790    16.0400     2.3930   -39.7000 
  286.0000     8.5300    15.2210    11.8490    13.2880     2.3930   -39.5840 
  286.1250     8.5300    14.0310    11.0070    11.2450     2.3840   -39.4440 
  286.2500     8.5300    12.0970     9.6320    11.1480     2.3670   -39.2840 
  286.3750     8.5300     9.8930     7.9660    10.8550     2.3480   -39.1090 
  286.5000     8.5300     8.1610     6.5400     8.8760     2.3250   -38.9290 
  286.6250     8.5300     6.8920     5.4810     5.8480     2.3030   -38.7540 
  286.7500     8.5300     6.0670     4.7850     4.2400     2.2850   -38.5910 
  286.8750     8.5300     5.6530     4.4190     4.6790     2.2730   -38.4470 
  287.0000     8.5300     5.6080     4.3490     5.3890     2.2690   -38.3290 
  287.1250     8.5300     5.8850     4.5640     5.3080     2.2640   -38.2480 
  287.2500     8.5300     6.2960     4.9040     5.2290     2.2530   -38.2070 
  287.3750     8.5300     6.6240     5.2120     5.2020     2.2450   -38.2020 
  287.5000     8.5300     6.8460     5.4370     5.2000     2.2490   -38.2310 
  287.6250     8.5300     6.9330     5.5430     5.1990     2.2640   -38.2920 
  287.7500     8.5300     6.8140     5.4920     5.1990     2.2790   -38.3810 
  287.8750     8.5300     6.3840     5.2350     5.1990     2.2730   -38.4990 
  288.0000     8.5300     5.7570     4.7950     5.1990     2.2480   -38.6420 
  288.1250     8.5300     5.2010     4.3700     5.1990     2.2250   -38.8070 
  288.2500     8.5300     4.8010     4.0320     5.1990     2.2180   -38.9940 
  288.3750     8.5300     4.5990     3.8290     5.1990     2.2300   -39.2060 
  288.5000     8.5300     4.6090     3.7890     5.1990     2.2550   -39.4450 
  288.6250     8.5300     4.7480     3.8500     5.1990     2.2760   -39.7190 
  288.7500     8.5300     4.8710     3.9360     5.1990     2.2830   -40.0300 
  288.8750     8.5300     5.0450     4.1180     5.1990     2.2840   -40.3740 
  289.0000     8.5300     5.4090     4.5030     5.1990     2.2870   -40.7520 
  289.1250     8.5300     6.1080     5.1640     5.1990     2.2980   -41.1590 
  289.2500     8.5300     7.2460     6.1130     5.1990     2.3190   -41.5910 
  289.3750     8.5300     8.8020     7.3010     5.1980     2.3420   -42.0450 
  289.5000     8.5300    10.1760     8.4060     5.1980     2.3560   -42.5100 
  289.6250     8.5300    10.7570     8.9940     5.1990     2.3600   -42.9770 
  289.7500     8.5300    10.6960     9.1030     5.1980     2.3530   -43.4410 
  289.8750     8.5300    10.3850     8.9650     5.1980     2.3410   -43.8970 
  290.0000     8.5300    10.2520     8.8910     5.1970     2.3360   -44.3400 
  290.1250     8.5300    10.5120     9.1290     5.1970     2.3460   -44.7660 
  290.2500     8.5300    11.0990     9.6210     5.1980     2.3540   -45.1710 
