~V
VERS. 2.00: Ver 2.00
~W
STRT.M 50.0000:
STOP.M 254.0000:
STEP.M 0.1250:
NULL. -999.2500:
UWI. F10088:
~C
DEPT.M :
GR.API :
RML.OHMM :
RI. :
RXO.OHMM :
DEN.GM/CC :
SP.MV :
~A
# ...
  165.8750    39.7340    40.0410    36.6950    36.7850     2.4380     2.1000 
  166.0000    39.7130    37.7820    34.5150    29.9060     2.4500     2.0740 
  166.1250    41.1310    37.2320    33.7870    29.0970     2.4740     2.0480 
  166.2500    41.8700    38.0690    34.3000    32.2340     2.5010     2.0230 
  166.3750    40.9050    41.0710    36.6960    35.3430     2.5350     1.9990 
  166.5000    40.2080    46.1720    40.7660    43.7240     2.5780     1.9740 
  166.6250    38.6420    53.1530    46.3130    55.2190     2.6210     1.9490 
  166.7500    37.2530    61.7490    53.0450    70.0760     2.6590     1.9220 
  166.8750    36.8850    71.7770    60.7370    86.0900     2.6940     1.8920 
  167.0000    36.9690    83.2040    69.3220    97.2630     2.7250     1.8600 
  167.1250    39.2230    94.9670    77.9980   119.1510     2.7520     1.8250 
  167.2500    39.7910   105.3090    85.2180   179.7270     2.7650     1.7860 
  167.3750    37.8260   111.6070    89.2580   231.2650     2.7500     1.7180 
  167.5000    36.5790   111.1190    88.1760   261.1280     2.7150     1.6530 
  167.6250    37.6950   102.0040    80.7100   276.2960     2.6720     1.6140 
  167.7500    38.2760    84.3550    67.0870   289.3100     2.6260     1.5780 
  167.8750    39.3220    66.8140    53.4750   159.2570     2.5790     1.5500 
  168.0000    38.9530    53.2500    42.9850    79.3760     2.5260     1.5300 
  168.1250    39.9510    43.2500    35.3570    45.4830     2.4750     1.5190 
  168.2500    42.8340    36.2960    30.1270    37.3270     2.4290     1.5170 
  168.3750    45.8280    31.9560    26.9040    36.0670     2.3910     1.5250 
  168.5000    45.3100    30.0640    25.5850    35.8240     2.3680     1.5410 
  168.6250    45.9540    29.9880    25.7930    37.0130     2.3860     1.5660 
  168.7500    45.2490    30.6490    26.6050    34.7550     2.4450     1.5980 
  168.8750    46.0800    29.5290    25.8830    40.5220     2.5030     1.6360 
  169.0000    47.6490    26.0210    23.2180    45.4400     2.5260     1.6800 
  169.1250    49.1820    20.6050    19.0440    38.8500     2.5000     1.7300 
  169.2500    51.8800    14.5060    14.2130    19.6060     2.4400     1.7850 
  169.3750    57.6730    10.7240    10.6100    11.4590     2.3680     1.8490 
  169.5000    59.4870     8.5200     8.2620     9.5090     2.3330     1.9190 
  169.6250    60.5340     7.6230     7.2630     8.7050     2.3360     1.9960 
  169.7500    59.9920     7.7540     7.4230     8.4840     2.3730     2.0790 
  169.8750    59.1820     8.7570     8.4820    10.1220     2.4400     2.1660 
  170.0000    63.7410    10.7010    10.2640    15.2550     2.5230     2.2540 
  170.1250    61.5690    13.7070    12.8570    22.0220     2.6000     2.3430 
  170.2500    59.3290    16.6700    15.3920    24.0100     2.6420     2.4280 
  170.3750    53.5820    17.4680    16.1300    22.7620     2.6400     2.5070 
  170.5000    49.4560    15.5840    14.6100    24.4220     2.6000     2.5780 
  170.6250    50.5150    12.0580    11.5990    27.1740     2.5330     2.6410 
  170.7500    53.5610     9.3000     8.9610    16.3040     2.4550     2.6940 
  170.8750    60.3200     7.5410     7.2780     8.8430     2.3980     2.7360 
  171.0000    63.0300     6.8760     6.5940     7.9280     2.3750     2.7680 
  171.1250    60.2330     8.6770     8.5890    12.2820     2.3760     2.7930 
  171.2500    55.3260    13.0860    12.6490    21.1390     2.4010     2.8090 
  171.3750    50.9110    20.2520    18.2110    34.5770     2.4520     2.8190 
  171.5000    45.9020    30.7110    25.8380    53.6070     2.5220     2.8230 
  171.6250    44.3730    39.5400    32.2660    75.1190     2.5800     2.8200 
  171.7500    41.9670    39.2150    32.0090    66.6300     2.6000     2.8120 
  171.8750    42.0650    33.4070    27.9910    47.2150     2.5730     2.8010 
  172.0000    44.2050    26.4680    23.1020    31.3180     2.5130     2.7860 
  172.1250    47.3870    21.5520    19.4110    24.9570     2.4470     2.7670 
  172.2500    51.6120    19.2000    17.4580    22.7210     2.3980     2.7460 
  172.3750    52.9000    19.1640    17.3450    19.4440     2.3760     2.7200 
  172.5000    52.2960    20.7600    18.2350    26.0770     2.3730     2.6900 
  172.6250    50.6110    21.7940    18.6180    31.8880     2.3790     2.6560 
  172.7500    49.4730    20.1570    17.3860    32.3100     2.3850     2.6170 
  172.8750    50.1500    15.8520    14.4690    26.5790     2.3830     2.5740 
  173.0000    52.9280    11.9890    11.2040    17.0440     2.3680     2.5270 
  173.1250    60.6530    10.1850     9.3430    10.3750     2.3700     2.4730 
  173.2500    65.7440     9.9280     9.1970     8.5550     2.4130     2.4150 
  173.3750    64.9280    11.2650    10.7520    16.2730     2.4840     2.3530 
  173.5000    59.7920    14.8830    14.1920    31.1270     2.5610     2.2890 
  173.6250    53.2250    22.0150    19.9230    47.4170     2.6230     2.2230 
  173.7500    47.5190    33.8880    28.3690    58.4440     2.6550     2.1580 
  173.8750    47.8410    42.2770    35.1430    55.1820     2.6560     2.0970 
  174.0000    46.6090    40.1440    34.0250    42.7550     2.6590     2.0400 
  174.1250    47.0880    34.8090    30.1590    39.0760     2.6630     1.9900 
  174.2500    48.1310    29.2010    25.7710    37.6960     2.6540     1.9460 
  174.3750    48.9740    24.2800    21.7370    31.1440     2.6190     1.9100 
  174.5000    51.2790    20.0190    18.1740    23.0590     2.5570     1.8810 
  174.6250    49.0260    17.7610    15.9980    21.3680     2.4860     1.8580 
  174.7500    50.2870    16.6300    14.9080    19.1410     2.4500     1.8390 
  174.8750    50.7770    16.6360    14.8700    18.9280     2.4530     1.8220 
  175.0000    51.0210    17.7100    15.8060    21.7370     2.4850     1.8050 
  175.1250    51.1370    19.6580    17.5100    25.3060     2.5330     1.7860 
  175.2500    48.6390    22.1790    19.6470    24.0660     2.5810     1.7650 
  175.3750    47.9960    25.1190    22.0090    26.9190     2.6110     1.7410 
  175.5000    46.5410    24.5860    21.9110    34.6600     2.6200     1.7160 
  175.6250    44.9310    21.5610    19.7450    35.7640     2.6200     1.6920 
  175.7500    43.6760    18.0390    16.8570    32.1990     2.6200     1.6710 
  175.8750    43.4510    15.5430    14.5270    26.1670     2.6260     1.6560 
  176.0000    45.0610    14.2090    13.2980    14.8290     2.6440     1.6490 
  176.1250    46.6700    14.2850    13.4360    23.1830     2.6620     1.6550 
  176.2500    47.3330    15.8630    15.0510    30.0500     2.6630     1.6730 
  176.3750    47.0940    18.9360    17.7590    30.1580     2.6570     1.7020 
  176.5000    46.2730    23.3850    21.2190    29.9810     2.6510     1.7420 
  176.6250    44.5500    26.7780    23.6650    34.2840     2.6490     1.7920 
  176.7500    40.8180    23.9080    21.6260    38.8970     2.6450     1.8480 
  176.8750    40.1740    17.9380    17.0970    34.4320     2.6170     1.9080 
  177.0000    43.1150    14.0580    13.5790    23.4970     2.5760     1.9700 
  177.1250    47.3550    11.7720    11.3240    14.3080     2.5430     2.0310 
  177.2500    51.4810    10.9810    10.5120    12.9810     2.5350     2.0910 
  177.3750    53.3940    11.6440    11.1750    19.5280     2.5630     2.1480 
  177.5000    50.3160    13.6800    13.1580    25.9880     2.6160     2.2040 
  177.6250    50.5580    17.7200    16.1990    29.3080     2.6530     2.2550 
  177.7500    47.3490    22.1120    19.4110    33.3890     2.6590     2.3030 
  177.8750    46.3230    24.3080    21.2870    33.7900     2.6450     2.3480 
  178.0000    45.6440    24.8960    22.0840    30.7620     2.6270     2.3880 
  178.1250    44.0110    25.1180    22.5020    27.4140     2.6180     2.4210 
  178.2500    44.3760    25.5710    22.9690    28.3760     2.6240     2.4480 
  178.3750    45.7440    26.3270    23.5260    33.6830     2.6320     2.4640 
  178.5000    45.9620    26.6610    23.6790    36.3830     2.6230     2.4700 
  178.6250    44.8270    26.3200    23.2900    36.4540     2.6020     2.4660 
