~V
VERS. 2.00: Ver 2.00
~W
STRT.M 50.0000:
STOP.M 254.0000:
STEP.M 0.1250:
NULL. -999.2500:
UWI. F10088:
~C
DEPT.M :
GR.API :
RML.OHMM :
RI. :
RXO.OHMM :
DEN.GM/CC :
SP.MV :
~A
# ...
  243.1250     8.4780     5.1530     3.5440     5.4720     2.4210     0.2190 
  243.2500     8.4780     5.2570     3.6140     5.6550     2.4240     0.2280 
  243.3750     8.4780     5.3380     3.6630     5.8440     2.4280     0.2350 
  243.5000     8.4780     5.3800     3.6820     5.8570     2.4290     0.2430 
  243.6250     8.4780     5.3400     3.6560     5.7860     2.4280     0.2550 
  243.7500     8.4780     5.2230     3.5950     5.7690     2.4280     0.2700 
  243.8750     8.4780     5.1030     3.5420     5.6680     2.4250     0.2880 
  244.0000     8.4780     5.0450     3.5320     5.5450     2.4220     0.3090 
  244.1250     8.4780     5.1030     3.5950     5.4810     2.4180     0.3340 
  244.2500     8.4780     5.3040     3.7470     5.5440     2.4110     0.3620 
  244.3750     8.4780     5.6410     3.9740     6.2780     2.4020     0.3940 
  244.5000     8.4780     5.9650     4.1690     7.6940     2.3940     0.4310 
  244.6250     8.4780     6.1360     4.2620     7.9900     2.3910     0.4740 
  244.7500     8.4780     6.0970     4.2280     7.2790     2.3930     0.5230 
  244.8750     8.4780     5.8550     4.0760     6.2290     2.3950     0.5800 
  245.0000     8.4780     5.4840     3.8500     5.5310     2.3930     0.6450 
  245.1250     8.4780     5.1980     3.6750     5.7830     2.3820     0.7200 
  245.2500     8.4780     5.1240     3.6440     5.6270     2.3650     0.8050 
  245.3750     8.4780     5.2240     3.7280     5.7490     2.3450     0.8980 
  245.5000     8.4780     5.4820     3.9080     6.8980     2.3280     0.9990 
  245.6250     8.4780     5.8460     4.1510     8.3950     2.3170     1.1090 
  245.7500     8.4780     6.2240     4.4000     8.1070     2.3130     1.2280 
  245.8750     8.4780     6.5270     4.5880     8.0970     2.3080     1.3560 
  246.0000     8.4780     6.5380     4.6030     8.4970     2.3020     1.4950 
  246.1250     8.4780     6.2950     4.4470     8.1850     2.3030     1.6420 
  246.2500     8.4780     5.8960     4.1850     7.2910     2.3050     1.7980 
  246.3750     8.4780     5.4580     3.8980     6.1560     2.3050     1.9610 
  246.5000     8.4780     5.0810     3.6490     5.0300     2.3040     2.1280 
  246.6250     8.4780     4.9540     3.5470     4.9970     2.3040     2.3040 
  246.7500     8.4780     5.0010     3.5530     4.9950     2.3110     2.4830 
  246.8750     8.4780     5.1540     3.6190     5.0000     2.3270     2.6650 
  247.0000     8.4780     5.2830     3.6750     5.0040     2.3490     2.8470 
  247.1250     8.4780     5.2780     3.6600     5.0070     2.3740     3.0290 
  247.2500     8.4780     5.1030     3.5530     5.0150     2.3970     3.2080 
  247.3750     8.4780     4.8640     3.3950     5.0200     2.4080     3.3830 
  247.5000     8.4780     4.6460     3.2400     5.0230     2.4100     3.5510 
  247.6250     8.4780     4.5000     3.1280     5.0280     2.4050     3.7110 
  247.7500     8.4780     4.4090     3.0560     5.0330     2.3940     3.8610 
  247.8750     8.4780     4.3410     3.0040     5.0380     2.3800     4.0010 
  248.0000     8.4780     4.2670     2.9550     5.0420     2.3630     4.1280 
  248.1250     8.4780     4.2160     2.9230     5.0500     2.3390     4.2400 
  248.2500     8.4780     4.1870     2.9120    89.7090     2.3290     4.3360 
  248.3750     8.4780     4.1850     2.9220   313.6950     2.3290     4.4170 
  248.5000     8.4780     4.2090     2.9500   511.9560     2.3340     4.4820 
  248.6250     8.4780     4.2550     2.9910   581.5790     2.3360     4.5290 
  248.7500     8.4780     4.3210     3.0400   581.5790     2.3300     4.5580 
  248.8750     8.4780     4.3840     3.0780   581.5790     2.3260     4.5620 
  249.0000     8.4780     4.3990     3.0820   581.5790     2.3300     4.5420 
  249.1250     8.4780     4.3520     3.0470   581.5790     2.3430     4.4990 
  249.2500     8.4780     4.2520     2.9850   581.5790     2.3580     4.4310 
  249.3750     8.4780     4.1400     2.9240   581.5790     2.3740     4.3390 
  249.5000     8.4780     4.0780     2.9030   581.5790     2.3920     4.2240 
  249.6250     8.4780     4.1570     2.9780   581.5790     2.4130     4.0830 
  249.7500     8.4780     4.4170     3.1640   581.5790     2.4230     3.9220 
  249.8750     8.4780     4.8320     3.4420   581.5790     2.4220     3.7450 
  250.0000     8.4780     5.3040     3.7480   581.5790     2.4110     3.5550 
  250.1250     8.4780     5.6950     3.9990   581.5790     2.4000     3.3540 
  250.2500     8.4780     5.8640     4.1250   581.5790     2.3950     3.1440 
  250.3750     8.4780     5.7110     4.0580   581.5790     2.4060     2.9280 
  250.5000     8.4780     5.4480     3.9060   581.5790     2.4140     2.7060 
  250.6250     8.4780     5.2570     3.7860   581.5790     2.4160     2.4810 
  250.7500     8.4780     5.1760     3.7310   581.5790     2.4100     2.2520 
  250.8750     8.4780     5.2050     3.7470   581.5790     2.3990     2.0210 
  251.0000     8.4780     5.3330     3.8240   581.5790     2.3890     1.7880 
  251.1250     8.4780     5.4520     3.9020   581.5790     2.3800     1.5570 
  251.2500     8.4780     5.4800     3.9260   581.5790     2.3760     1.3300 
  251.3750     8.4780     5.4290     3.9020   581.5790     2.3790     1.1120 
  251.5000     8.4780     5.3360     3.8450   581.5790     2.3820     0.9030 
  251.6250     8.4780     5.2390     3.7770   581.5790     2.3820     0.7090 
  251.7500     8.4780     5.1690     3.7200   581.5790     2.3810     0.5310 
  251.8750     8.4780     5.1270     3.6880   581.5790     2.3850     0.3740 
  252.0000     8.4780     5.1180     3.6960   581.5790     2.3830     0.2410 
  252.1250     8.4780     5.1280     3.7190   581.5790     2.3710     0.1280 
  252.2500     8.4780     5.1540     3.7490   581.5790     2.3470     0.0360 
  252.3750     8.4780     5.1800     3.7730   581.5790     2.3180    -0.0360 
  252.5000     8.4780     5.1780     3.7720   581.5790     2.2950    -0.0890 
  252.6250     8.4780     5.1740     3.7710   581.5790     2.2860    -0.1220 
  252.7500     8.4780     5.1770     3.7700   581.5790     2.2890    -0.1410 
  252.8750     8.4780     5.1760     3.7690   581.5790     2.3000    -0.1480 
  253.0000     8.4780     5.1740     3.7690   581.5790     2.3170    -0.1490 
  253.1250     8.4780     5.1730     3.7690   581.5790     2.3380    -0.1450 
  253.2500     8.4780     5.1680     3.7690   581.5790     2.3590    -0.1400 
  253.3750     8.4780     5.1680     3.7690   581.5790     2.3820    -0.1370 
  253.5000     8.4780     5.1690     3.7690   581.5790     2.4040    -0.1390 
  253.6250     8.4780     5.1700     3.7690   581.5790     2.4180    -0.1470 
  253.7500     8.4780     5.1710     3.7690   581.5790     2.4240    -0.1610 
  253.8750     8.4780     5.1720     3.7690   581.5790     2.4250    -0.1820 
  254.0000     8.4710     9.3450    10.6780   581.5790     2.4230    -0.2090 
