~V
VERS. 2.00: Ver 2.00
~W
STRT.M 20.0000:
STOP.M 297.0000:
STEP.M 0.1250:
NULL. -999.2500:
UWI. F10080:
~C
DEPT.M :
GR.API :
RML.OHMM :
RI. :
RXO.OHMM :
DEN.GM/CC :
SP.MV :
~A
# ...
   97.2500   118.4430     3.5110     3.3870     4.8160     2.3510   -29.3630 
   97.3750   115.2050     3.9310     3.3170     4.5470     2.3400   -29.6990 
   97.5000   111.9660     4.0160     3.6470     4.6980     2.3400   -30.1010 
   97.6250   109.9420     4.5280     4.5470     4.8400     2.3580   -30.5620 
   97.7500   105.3440     5.7790     6.0870    12.1480     2.3980   -31.0760 
   97.8750    95.4750     8.3230     8.5340    32.1380     2.4620   -31.6350 
   98.0000    82.8410    13.3350    12.4870    61.3340     2.5420   -32.2320 
   98.1250    70.0490    20.7360    16.4920    59.6950     2.5930   -32.8620 
   98.2500    65.1390    19.3100    15.6390    46.9170     2.5700   -33.5050 
   98.3750    66.1520    14.2640    12.5240    27.0290     2.4800   -34.1520 
   98.5000    68.9570     9.6430     9.2840    11.9970     2.3580   -34.7930 
   98.6250    70.4830     7.4120     7.1540     8.4950     2.2450   -35.4190 
   98.7500    71.0570     6.5690     6.0150     8.7990     2.1770   -36.0250 
   98.8750    68.7900     6.5460     5.7010     8.5980     2.1590   -36.5980 
   99.0000    70.2650     6.8850     5.7960     8.4390     2.1520   -37.1410 
   99.1250    70.3040     7.2250     6.1190     8.3850     2.1440   -37.6570 
   99.2500    69.6970     7.4670     6.4700     8.3590     2.1350   -38.1450 
   99.3750    70.0760     7.6230     6.7580     8.2880     2.1280   -38.6060 
   99.5000    70.7110     7.7390     7.0890     8.2420     2.1280   -39.0380 
   99.6250    73.9490     7.8450     7.2000     9.3160     2.1330   -39.4310 
   99.7500    72.9100     7.9340     7.3190    10.2190     2.1320   -39.7830 
   99.8750    67.9790     8.0130     7.3220    10.6180     2.1260   -40.0870 
  100.0000    62.7410     8.0470     7.2930    10.5910     2.1210   -40.3380 
  100.1250    60.0870     8.0060     7.2910    10.4070     2.1200   -40.5280 
  100.2500    59.4910     7.9010     7.2010    10.3360     2.1190   -40.6550 
  100.3750    60.8680     7.8130     7.1690     9.6810     2.1130   -40.7020 
  100.5000    61.1080     7.7830     7.0920     8.3960     2.1070   -40.6860 
  100.6250    62.9310     7.7610     6.9760     8.3270     2.1070   -40.6160 
  100.7500    65.8120     7.7020     6.8080     9.1050     2.1090   -40.5020 
  100.8750    68.9560     7.5910     6.6110     9.6070     2.1080   -40.3530 
  101.0000    73.0440     7.4530     6.4730     8.9730     2.1010   -40.1820 
  101.1250    72.5590     7.2610     6.3730     8.0230     2.0940   -40.0020 
  101.2500    72.7420     7.1350     6.2890     7.5960     2.0950   -39.8260 
  101.3750    72.6600     7.1300     6.3230     7.7420     2.0990   -39.6640 
  101.5000    72.6810     7.2920     6.4860     7.8410     2.1040   -39.5200 
  101.6250    73.4960     7.6320     6.7590     7.7330     2.1070   -39.3990 
  101.7500    75.3040     8.1120     7.1380     8.4100     2.1090   -39.3020 
  101.8750    72.0650     8.5120     7.4370     9.3950     2.1160   -39.2370 
  102.0000    71.2350     8.6100     7.4370     9.6220     2.1260   -39.1980 
  102.1250    69.4920     8.3780     7.2120     9.1870     2.1340   -39.1850 
  102.2500    68.2810     7.9740     6.7940     8.4590     2.1360   -39.1990 
  102.3750    69.0020     7.5530     6.2840     7.7590     2.1340   -39.2430 
  102.5000    70.0590     7.1290     5.9010     7.1340     2.1340   -39.3210 
  102.6250    74.2690     6.8160     5.5770     7.0340     2.1400   -39.4490 
  102.7500    78.7470     6.6930     5.5300     6.9890     2.1470   -39.6260 
  102.8750    78.2090     6.8380     5.7380     7.3010     2.1510   -39.8540 
  103.0000    75.6130     7.2550     6.1750     8.2450     2.1470   -40.1320 
  103.1250    73.0340     7.8340     6.7460     9.8360     2.1380   -40.4560 
  103.2500    66.3170     8.3430     7.2670    11.6080     2.1290   -40.8190 
  103.3750    68.5840     8.6960     7.6050    11.1970     2.1230   -41.2090 
  103.5000    65.7640     8.8970     7.8030    10.4970     2.1150   -41.6020 
  103.6250    64.8210     9.0530     7.9130    10.6410     2.1100   -41.9790 
  103.7500    65.6650     9.1900     8.0100    11.3350     2.1100   -42.3240 
  103.8750    66.6470     9.3060     8.1420    11.9630     2.1160   -42.6240 
  104.0000    67.9600     9.3970     8.2940    12.3260     2.1300   -42.8670 
  104.1250    69.9030     9.4100     8.3710    12.4950     2.1450   -43.0290 
  104.2500    70.0390     9.2680     8.3910    12.6470     2.1540   -43.1210 
  104.3750    69.7450     9.2730     8.3580    12.8860     2.1530   -43.1470 
  104.5000    69.0060     9.3880     8.3750    12.8970     2.1440   -43.1110 
  104.6250    68.0600     9.5230     8.4330    12.5920     2.1300   -43.0210 
  104.7500    68.3230     9.6940     8.2930    12.5010     2.1160   -42.8860 
  104.8750    69.2950     9.3800     8.0250    12.7970     2.1090   -42.7140 
  105.0000    68.1230     8.8310     7.5180    12.8370     2.1130   -42.5240 
  105.1250    70.8200     8.2910     7.0840    12.4410     2.1300   -42.3270 
  105.2500    73.5920     7.8680     6.7830    11.5920     2.1550   -42.1310 
  105.3750    72.9330     7.6480     6.6240    10.7420     2.1740   -41.9440 
  105.5000    71.7930     7.7470     6.6800    10.8960     2.1730   -41.7680 
  105.6250    64.6690     8.0990     6.8530    10.7240     2.1450   -41.6070 
  105.7500    62.5680     8.4680     7.0730    10.3840     2.1110   -41.4570 
  105.8750    63.1920     8.6490     7.2020    10.5610     2.0850   -41.3120 
  106.0000    62.5270     8.6340     7.2280    10.6970     2.0690   -41.1670 
  106.1250    59.5030     8.3550     7.1840    10.3640     2.0590   -41.0210 
  106.2500    58.8280     7.5750     7.0980    10.1110     2.0520   -40.8690 
  106.3750    57.2090     7.5780     7.0760    10.2450     2.0600   -40.7050 
  106.5000    58.4040     7.5960     7.0590    10.4050     2.0810   -40.5260 
  106.6250    58.8640     7.9860     7.0130    10.3370     2.1060   -40.3270 
  106.7500    57.8480     8.2130     6.8630    10.0980     2.1260   -40.1060 
  106.8750    56.5500     7.8860     6.5860     9.9090     2.1370   -39.8550 
  107.0000    57.4160     7.4110     6.2710    10.0110     2.1450   -39.5690 
  107.1250    57.4160     7.1050     5.9550     8.7930     2.1590   -39.2400 
  107.2500    61.9740     6.9280     5.7660     8.1600     2.1700   -38.8810 
  107.3750    64.4800     6.9850     5.7360     8.6640     2.1720   -38.5020 
  107.5000    66.4210     7.2350     5.8320     9.1890     2.1650   -38.1130 
  107.6250    68.8940     7.4810     6.0130     9.1080     2.1540   -37.7260 
  107.7500    67.7320     7.4080     6.2650     9.5980     2.1450   -37.3520 
  107.8750    68.3800     7.4870     6.3830     9.8270     2.1350   -36.9990 
  108.0000    67.4180     7.4750     6.5220     9.8470     2.1240   -36.6590 
  108.1250    66.7840     8.2150     6.5920     9.8240     2.1140   -36.3200 
  108.2500    65.5360     8.8350     6.5930     9.8200     2.1090   -35.9690 
  108.3750    63.5360     8.6850     6.5460     9.8520     2.1090   -35.5900 
  108.5000    63.4860     8.5160     6.4500     9.9300     2.1130   -35.1630 
  108.6250    61.7050     7.7800     6.4600    10.0010     2.1140   -34.6860 
  108.7500    62.4050     7.7610     6.4900    10.0610     2.1100   -34.1430 
  108.8750    61.4320     7.8990     6.5400    10.0120     2.1010   -33.5420 
  109.0000    61.3850     7.9430     6.5170     9.9560     2.0980   -32.8920 
  109.1250    64.4660     7.7730     6.3460     9.7870     2.1100   -32.2070 
  109.2500    68.2270     7.2940     6.0330     8.9530     2.1480   -31.5030 
  109.3750    75.9990     5.8500     5.4540     7.3180     2.2110   -30.8060 
  109.5000    85.8510     4.8760     4.8060     5.4930     2.2700   -30.1430 
  109.6250    95.7770     3.9000     4.1850     4.5750     2.3110   -29.5350 
  109.7500   104.3820     3.4830     3.7630     4.3350     2.3280   -28.9990 
  109.8750   110.7840     3.7270     3.6300     4.2810     2.3260   -28.5500 
  110.0000   114.6280     3.4480     3.6910     4.3140     2.3260   -28.2010 
