~V
VERS. 2.00: Ver 2.00
~W
STRT.M 50.0000:
STOP.M 219.0000:
STEP.M 0.1250:
NULL. -999.2500:
UWI. F10086:
~C
DEPT.M :
GR.API :
RML.OHMM :
RI. :
RXO.OHMM :
DEN.GM/CC :
SP.MV :
~A
# ...
  178.7500    62.9730    18.4780    16.4850    17.3350     2.3200   -15.9530 
  178.8750    58.3530    18.3190    16.7500    16.9810     2.3160   -15.9540 
  179.0000    57.8800    18.5960    17.3220    17.9690     2.3040   -15.9600 
  179.1250    54.1400    19.2360    18.1630    18.8790     2.2940   -15.9730 
  179.2500    57.3220    20.2300    19.2830    19.2710     2.2970   -15.9920 
  179.3750    58.2920    21.1460    20.3400    20.9830     2.3000   -16.0180 
  179.5000    57.1850    21.7920    21.2260    22.3990     2.2980   -16.0520 
  179.6250    56.7210    22.1790    21.9490    21.9880     2.2900   -16.0940 
  179.7500    58.6950    22.5230    22.6100    20.3590     2.2750   -16.1440 
  179.8750    60.1900    23.5580    23.8480    23.1430     2.2690   -16.2000 
  180.0000    62.5250    25.3760    25.7230    26.7410     2.2740   -16.2570 
  180.1250    60.8600    27.4570    27.8670    30.2500     2.2820   -16.3100 
  180.2500    58.8530    29.0980    29.6980    31.9270     2.2870   -16.3560 
  180.3750    58.7490    29.7010    30.6230    30.7270     2.2870   -16.3900 
  180.5000    56.9420    29.0120    30.2360    27.2650     2.2840   -16.4110 
  180.6250    59.4350    27.3260    28.7720    24.8580     2.2790   -16.4150 
  180.7500    60.9480    25.8550    27.3940    26.2360     2.2780   -16.4070 
  180.8750    61.7450    24.8360    26.4300    26.3930     2.2760   -16.3910 
  181.0000    63.3450    24.3980    26.0760    24.7340     2.2730   -16.3720 
  181.1250    64.8080    24.6080    26.4230    23.6580     2.2690   -16.3530 
  181.2500    61.5820    25.4820    27.4510    27.2970     2.2630   -16.3400 
  181.3750    60.5850    27.0750    29.1300    30.3950     2.2570   -16.3380 
  181.5000    54.9690    29.5170    31.6250    34.5010     2.2540   -16.3500 
  181.6250    51.3690    32.4120    34.6460    36.5080     2.2570   -16.3750 
  181.7500    48.9340    35.2600    37.6880    37.8020     2.2640   -16.4130 
  181.8750    46.9080    37.8270    40.4460    40.4840     2.2720   -16.4640 
  182.0000    47.8210    40.3570    43.0630    45.2070     2.2800   -16.5270 
  182.1250    46.8240    43.4090    46.0800    48.2000     2.2750   -16.6020 
  182.2500    47.5070    46.8230    49.3760    53.1510     2.2680   -16.6850 
  182.3750    48.2900    50.5180    52.8410    59.1400     2.2700   -16.7720 
  182.5000    48.8820    53.9650    55.9890    61.4680     2.2930   -16.8600 
  182.6250    50.1050    56.6510    58.3870    59.1200     2.3360   -16.9440 
  182.7500    53.3480    58.3390    59.8880    58.2910     2.3790   -17.0200 
  182.8750    51.0220    58.5780    60.1190    62.9040     2.4030   -17.0790 
  183.0000    51.9150    59.1400    60.7160    60.3230     2.4090   -17.1190 
  183.1250    50.6350    60.6180    62.2360    60.5290     2.4090   -17.1380 
  183.2500    49.3540    62.3500    64.0740    64.1060     2.3990   -17.1370 
  183.3750    50.0190    62.7870    64.8040    64.0500     2.3710   -17.1170 
  183.5000    50.6060    59.9270    62.5580    49.7480     2.3200   -17.0790 
  183.6250    49.4420    53.9870    57.2920    64.6770     2.2630   -17.0240 
  183.7500    52.2010    48.0220    51.8090    95.1660     2.2300   -16.9620 
  183.8750    53.6610    43.0580    47.1140    81.5580     2.2190   -16.8950 
  184.0000    54.0670    39.4600    43.6420    53.4150     2.2220   -16.8270 
  184.1250    53.5970    37.0830    41.3360    42.4420     2.2280   -16.7620 
  184.2500    50.0420    35.3580    39.6900    39.4940     2.2290   -16.7030 
  184.3750    45.0560    33.7480    38.2020    34.8710     2.2320   -16.6540 
  184.5000    45.9550    32.5500    37.0810    30.0160     2.2340   -16.6190 
  184.6250    47.5220    32.1080    36.7360    26.3420     2.2350   -16.5970 
  184.7500    50.0300    32.6610    37.4390    24.9450     2.2330   -16.5900 
  184.8750    52.9270    34.4580    39.5250    31.5280     2.2320   -16.5970 
  185.0000    52.3710    37.8100    43.4710    56.8480     2.2340   -16.6190 
  185.1250    50.5430    43.3870    49.9260    85.4190     2.2330   -16.6550 
  185.2500    49.9760    51.4430    58.5350    75.0300     2.2250   -16.6980 
  185.3750    49.5370    61.4080    69.1210    80.3490     2.2080   -16.7450 
  185.5000    48.3750    72.2810    80.5840    82.3500     2.1920   -16.7900 
  185.6250    47.1900    83.3040    91.7320    73.4130     2.1840   -16.8310 
  185.7500    48.3890    93.7940   101.2580    92.8830     2.1900   -16.8630 
  185.8750    46.7270    91.2180    96.9670   107.6330     2.2100   -16.8830 
  186.0000    51.0930    81.7320    86.1000   111.5170     2.2350   -16.8910 
  186.1250    52.7280    72.8810    76.3710    94.6030     2.2660   -16.8890 
  186.2500    52.9660    67.6480    70.5780    67.1360     2.3030   -16.8750 
  186.3750    53.1170    67.2460    69.6560    49.0840     2.3370   -16.8500 
  186.5000    50.2350    72.1850    73.9040    61.7130     2.3510   -16.8140 
  186.6250    49.7360    83.5580    84.4740    93.3330     2.3250   -16.7640 
  186.7500    47.1340   100.8660   100.6160   109.1870     2.2720   -16.6980 
  186.8750    46.3890   119.6030   118.2970   115.1180     2.2260   -16.6170 
  187.0000    45.7820   130.6360   128.7980   116.8500     2.2020   -16.5180 
  187.1250    43.9090   128.0420   126.3170   124.3580     2.1990   -16.4020 
  187.2500    42.4130   113.5590   112.2860   150.2390     2.2020   -16.2670 
  187.3750    40.9170    92.9580    92.0450   158.7000     2.2090   -16.1100 
  187.5000    48.2580    76.4160    75.7020   102.7700     2.2200   -15.9320 
  187.6250    52.9510    64.0400    63.4460    56.0150     2.2380   -15.7350 
  187.7500    55.1310    55.5720    54.9400    35.4610     2.2570   -15.5170 
  187.8750    55.6640    50.7160    49.8470    34.4420     2.2670   -15.2770 
  188.0000    51.9250    49.3530    48.1360    37.1690     2.2590   -15.0120 
  188.1250    53.5870    51.0000    49.3050    32.4470     2.2400   -14.7150 
  188.2500    53.8460    53.7890    51.7140    34.2690     2.2510   -14.3870 
  188.3750    51.2760    57.7690    55.0240    47.2760     2.3080   -14.0300 
  188.5000    48.1740    63.1850    59.1320    75.3390     2.3970   -13.6450 
  188.6250    46.3420    70.6200    64.2150   100.4920     2.4860   -13.2360 
  188.7500    45.2700    80.3750    70.2290    83.7610     2.5350   -12.8060 
  188.8750    49.7580    80.1480    66.9810   154.0300     2.5140   -12.3560 
  189.0000    52.1400    51.7790    43.5970   148.7500     2.4490   -11.8960 
  189.1250    53.7060    27.7280    24.4790    87.7290     2.3760   -11.4320 
  189.2500    51.1200    14.0390    13.3080    30.1730     2.3120   -10.9690 
  189.3750    44.6160     7.8440     7.4800     9.9590     2.2730   -10.5100 
  189.5000    40.9480     5.1180     4.5380     2.9850     2.2650   -10.0590 
  189.6250    33.4690     4.1680     3.3330     2.9280     2.2750    -9.6250 
  189.7500    29.7810     3.9300     2.9410     2.9500     2.2920    -9.2120 
  189.8750    26.2530     4.2010     2.9980     2.9660     2.3100    -8.8230 
  190.0000    25.6830     4.7440     3.2700     2.9790     2.3280    -8.4610 
  190.1250    28.3190     5.2720     3.5720     3.0030     2.3440    -8.1310 
  190.2500    28.3340     5.4900     3.7690     3.0220     2.3500    -7.8350 
  190.3750    28.6660     5.5350     3.8480     3.0170     2.3440    -7.5810 
  190.5000    26.1900     5.4910     3.8430     3.0740     2.3340    -7.3640 
  190.6250    27.7010     5.3960     3.7840     3.0440     2.3300    -7.1790 
  190.7500    29.6930     5.2820     3.6970     3.0170     2.3350    -7.0250 
  190.8750    29.3160     5.1800     3.6040     3.0450     2.3470    -6.8980 
  191.0000    29.2260     5.1190     3.5180     3.0250     2.3630    -6.7950 
  191.1250    27.2320     5.0840     3.4270     3.0330     2.3790    -6.7190 
  191.2500    26.9230     5.0880     3.3540     3.0520     2.3890    -6.6630 
  191.3750    27.5660     5.1080     3.2990     3.0110     2.3910    -6.6270 
  191.5000    28.1200     5.1390     3.2640     2.9940     2.3890    -6.6110 
