~V
VERS. 2.00: Ver 2.00
~W
STRT.M 20.0000:
STOP.M 297.0000:
STEP.M 0.1250:
NULL. -999.2500:
UWI. F10080:
~C
DEPT.M :
GR.API :
RML.OHMM :
RI. :
RXO.OHMM :
DEN.GM/CC :
SP.MV :
~A
# ...
  238.8750    78.1190    10.6190     8.7950    10.0030     2.4000   -41.2650 
  239.0000    80.8520    10.9810     8.9160    11.2200     2.3920   -41.2680 
  239.1250    81.1760    11.3160     9.0520    11.6250     2.3970   -41.2300 
  239.2500    83.9650    12.0070     9.3610    12.4690     2.4120   -41.1560 
  239.3750    83.0530    12.5170     9.4930    13.7960     2.4380   -41.0520 
  239.5000    79.9860    12.4410     9.2400    14.6220     2.4600   -40.9210 
  239.6250    76.7700    11.5550     8.4950    13.9820     2.4630   -40.7720 
  239.7500    73.6750     9.9050     7.2850    11.4530     2.4390   -40.6110 
  239.8750    71.4080     8.1660     6.0620     7.8270     2.3890   -40.4490 
  240.0000    65.7590     6.8350     5.0670     6.0330     2.3430   -40.2990 
  240.1250    59.8230     6.0720     4.4550     5.0650     2.3150   -40.1690 
  240.2500    54.7550     5.7920     4.2030     4.7830     2.3080   -40.0650 
  240.3750    52.2970     5.9080     4.2500     5.1490     2.3170   -39.9890 
  240.5000    54.2670     6.3820     4.5350     5.9690     2.3330   -39.9430 
  240.6250    52.3240     6.8670     4.8620     6.2590     2.3470   -39.9330 
  240.7500    50.5220     7.2230     5.1070     5.9900     2.3520   -39.9510 
  240.8750    49.2840     7.3750     5.2540     5.6910     2.3530   -39.9880 
  241.0000    47.5500     7.3540     5.2980     5.5630     2.3530   -40.0410 
  241.1250    45.2660     7.2020     5.2730     5.6360     2.3530   -40.1020 
  241.2500    43.6370     6.9750     5.2440     5.7960     2.3540   -40.1650 
  241.3750    39.7510     7.0050     5.2120     5.7940     2.3560   -40.2210 
  241.5000    39.8130     6.9560     5.1520     5.7270     2.3580   -40.2630 
  241.6250    42.9590     6.9410     5.0610     5.6050     2.3570   -40.2850 
  241.7500    47.7120     6.8340     4.9340     5.3310     2.3520   -40.2850 
  241.8750    52.6300     6.5970     4.7760     5.0060     2.3420   -40.2600 
  242.0000    56.5070     6.3540     4.6030     4.9450     2.3230   -40.2080 
  242.1250    56.0210     6.1130     4.4320     4.9660     2.2980   -40.1250 
  242.2500    56.5230     5.9690     4.3360     4.9570     2.2730   -40.0150 
  242.3750    57.8220     6.0040     4.3710     5.0950     2.2610   -39.8830 
  242.5000    60.6240     6.2110     4.5250     6.0610     2.2640   -39.7310 
  242.6250    65.3900     6.5390     4.7550     6.8400     2.2840   -39.5630 
  242.7500    71.4980     6.9080     5.0110     5.0680     2.3150   -39.3820 
  242.8750    72.7930     7.2130     5.2190     6.2960     2.3470   -39.1920 
  243.0000    73.3830     7.3200     5.2980     7.1670     2.3650   -38.9980 
  243.1250    72.4560     7.2210     5.2550     7.0250     2.3730   -38.8050 
  243.2500    71.9050     6.9990     5.1320     6.9810     2.3730   -38.6160 
  243.3750    72.5750     6.7510     4.9890     7.2740     2.3700   -38.4370 
  243.5000    73.1350     6.5570     4.8910     6.7570     2.3620   -38.2720 
  243.6250    71.5160     6.5200     4.8600     6.1950     2.3590   -38.1300 
  243.7500    71.5910     6.4650     4.8140     6.2880     2.3580   -38.0150 
  243.8750    73.6540     6.4020     4.7650     6.3140     2.3590   -37.9280 
  244.0000    75.9580     6.3230     4.7040     6.1540     2.3600   -37.8700 
  244.1250    78.4570     6.2070     4.6220     5.8340     2.3570   -37.8420 
  244.2500    83.0940     6.0300     4.5160     5.4360     2.3540   -37.8430 
  244.3750    84.8750     5.8120     4.4220     5.4710     2.3540   -37.8750 
  244.5000    84.3980     5.6840     4.4070     5.6380     2.3580   -37.9300 
  244.6250    84.1320     5.7150     4.5250     5.7680     2.3570   -38.0030 
  244.7500    82.6040     5.9510     4.7870     5.9600     2.3510   -38.0870 
  244.8750    80.8190     6.3990     5.1840     6.3090     2.3450   -38.1790 
  245.0000    82.3640     7.0120     5.6920     6.8480     2.3440   -38.2740 
  245.1250    76.6970     7.6600     6.1790     7.8890     2.3560   -38.3650 
  245.2500    75.9710     8.0060     6.5220     8.4880     2.3650   -38.4490 
  245.3750    75.3730     8.0200     6.6700     8.8650     2.3680   -38.5210 
  245.5000    75.5910     7.9120     6.7440     8.9080     2.3660   -38.5820 
  245.6250    76.8280     7.9000     6.8710     8.6340     2.3650   -38.6300 
  245.7500    77.6220     8.1180     7.1240     8.3770     2.3700   -38.6650 
  245.8750    80.2930     8.5840     7.5580     9.2460     2.3820   -38.6880 
  246.0000    80.9170     9.1810     8.0720    10.4480     2.3860   -38.7030 
  246.1250    81.4590     9.8370     8.6860    11.6330     2.3860   -38.7150 
  246.2500    80.6530    10.5610     9.3900    12.2500     2.3770   -38.7250 
  246.3750    78.7980    11.3710    10.1980    12.4440     2.3610   -38.7360 
  246.5000    78.2800    12.4540    11.3210    13.3440     2.3380   -38.7500 
  246.6250    75.2850    16.0680    14.7400    17.1960     2.3020   -38.7670 
  246.7500    73.7730    18.9650    17.2570    21.3520     2.2680   -38.7880 
  246.8750    74.6550    20.4390    18.7300    25.8100     2.2420   -38.8100 
  247.0000    76.1770    20.1410    18.8620    27.5990     2.2290   -38.8310 
  247.1250    76.5010    18.5500    17.8680    25.8630     2.2320   -38.8490 
  247.2500    74.7880    16.9460    16.5900    22.8210     2.2490   -38.8590 
  247.3750    71.8730    16.3110    15.9940    16.9100     2.2780   -38.8580 
  247.5000    70.6550    16.5200    16.1070    15.4510     2.2960   -38.8420 
  247.6250    71.4260    17.3370    16.7010    20.0740     2.3010   -38.8100 
  247.7500    72.2800    17.6450    16.9590    23.2060     2.2880   -38.7610 
  247.8750    71.6610    17.0770    16.6280    21.2560     2.2650   -38.6960 
  248.0000    69.4180    16.3760    16.2550    18.0770     2.2470   -38.6160 
  248.1250    67.4750    15.5500    15.6380    15.2550     2.2640   -38.5230 
  248.2500    63.6230    15.8740    16.1190    18.9760     2.3260   -38.4220 
  248.3750    60.9660    17.5940    17.9070    31.3770     2.4000   -38.3190 
  248.5000    60.2480    20.4110    20.6960    37.6430     2.4480   -38.2180 
  248.6250    61.4040    23.8940    24.0690    33.1590     2.4410   -38.1010 
  248.7500    63.7130    27.5100    27.5670    29.9700     2.3740   -37.9430 
  248.8750    63.4700    29.2090    29.4960    34.2350     2.2730   -37.8790 
  249.0000    64.2880    30.3160    30.7200    33.9990     2.2150   -37.8240 
  249.1250    62.9150    31.3100    31.7950    33.8160     2.1930   -37.7770 
  249.2500    61.7080    32.1000    32.5970    33.1720     2.1910   -37.7340 
  249.3750    60.7340    32.6710    33.1000    32.3340     2.2000   -37.6950 
  249.5000    56.8750    33.2940    33.6030    33.7900     2.2120   -37.6590 
  249.6250    57.4410    34.7510    34.8430    40.7050     2.2250   -37.6230 
  249.7500    56.0280    36.2910    36.2320    48.0900     2.2310   -37.5870 
  249.8750    57.0000    38.4530    38.2490    45.8690     2.2230   -37.5510 
  250.0000    58.8060    41.5480    41.1220    40.3620     2.2060   -37.5140 
  250.1250    60.6780    45.4950    44.7830    42.0670     2.1880   -37.4760 
  250.2500    63.7320    49.7420    48.8060    58.8250     2.1730   -37.4380 
  250.3750    62.4370    52.9400    52.0070    76.2810     2.1720   -37.4000 
  250.5000    60.0100    53.5040    52.7880    61.7630     2.1750   -37.3620 
  250.6250    59.5460    51.8200    51.4670    47.8660     2.1770   -37.3260 
  250.7500    60.1900    49.0210    49.0330    40.3950     2.1760   -37.2910 
  250.8750    60.7190    46.2060    46.5100    38.6400     2.1720   -37.2590 
  251.0000    60.6230    44.0290    44.5760    41.7850     2.1700   -37.2310 
  251.1250    59.3280    42.6250    43.2020    59.7600     2.1630   -37.2070 
  251.2500    58.7400    41.6150    42.1480   109.4760     2.1590   -37.1890 
  251.3750    56.8350    40.5440    41.0660    97.6660     2.1560   -37.1770 
  251.5000    55.3190    39.5790    40.0950    63.4260     2.1620   -37.1710 
  251.6250    55.0180    39.0070    39.4900    44.0720     2.1780   -37.1710 
