~V
VERS. 2.00: Ver 2.00
~W
STRT.M 20.0000:
STOP.M 297.0000:
STEP.M 0.1250:
NULL. -999.2500:
UWI. F10080:
~C
DEPT.M :
GR.API :
RML.OHMM :
RI. :
RXO.OHMM :
DEN.GM/CC :
SP.MV :
~A
# ...
  187.3750    90.0340     6.7220     6.6010     6.3990     2.3930   -25.1500 
  187.5000    88.8850     7.7110     7.9150     8.3470     2.4380   -25.1380 
  187.6250    87.1540     9.6810    10.0370    15.7090     2.4850   -25.1360 
  187.7500    83.9190    12.9790    13.0520    23.9040     2.5220   -25.1420 
  187.8750    79.7230    17.3190    16.6490    28.3090     2.5450   -25.1560 
  188.0000    78.2410    21.5600    19.9890    27.9340     2.5540   -25.1770 
  188.1250    73.4640    22.7670    21.1060    21.1850     2.5570   -25.2050 
  188.2500    70.5540    21.9840    20.4560    20.4330     2.5520   -25.2400 
  188.3750    68.1740    20.7020    19.4760    20.8750     2.5400   -25.2800 
  188.5000    67.9290    19.6740    18.5370    21.3010     2.5240   -25.3240 
  188.6250    70.2170    19.0860    17.7460    21.2410     2.5090   -25.3710 
  188.7500    72.4760    18.6230    17.1860    20.0870     2.5000   -25.4190 
  188.8750    68.9140    18.4060    16.5360    18.4000     2.5030   -25.4670 
  189.0000    65.3510    18.4540    16.1560    18.2160     2.5110   -25.5130 
  189.1250    62.2130    18.5440    15.9300    18.0300     2.5170   -25.5560 
  189.2500    61.8720    18.6310    15.9080    17.3890     2.5180   -25.5960 
  189.3750    63.4310    18.6930    16.0550    16.7820     2.5160   -25.6320 
  189.5000    61.7340    18.6770    16.1620    17.3630     2.5180   -25.6640 
  189.6250    64.3250    18.5380    16.1340    17.3370     2.5250   -25.6910 
  189.7500    65.3250    18.4000    15.9520    16.4500     2.5320   -25.7160 
  189.8750    66.0000    17.8910    15.5230    15.2000     2.5350   -25.7380 
  190.0000    64.8820    16.9640    14.7650    14.0890     2.5340   -25.7570 
  190.1250    62.3230    15.7790    13.7310    13.3560     2.5280   -25.7740 
  190.2500    61.9860    14.6270    12.6600    12.8270     2.5220   -25.7880 
  190.3750    65.6290    13.5810    11.8850    11.9410     2.5120   -25.8010 
  190.5000    65.3290    13.2710    11.5690    11.9030     2.5030   -25.8120 
  190.6250    63.5100    13.5600    11.6910    12.3020     2.4990   -25.8220 
  190.7500    61.7210    14.3080    12.1390    19.0820     2.5060   -25.8330 
  190.8750    62.0530    15.2450    12.7600    33.4200     2.5210   -25.8440 
  191.0000    66.7690    15.9430    13.3760    46.1230     2.5340   -25.8570 
  191.1250    69.0360    15.5630    13.3750    26.0380     2.5320   -25.8710 
  191.2500    67.0120    14.9540    13.0190    18.3340     2.5180   -25.8870 
  191.3750    63.0930    14.3070    12.5310    15.0310     2.5140   -25.9030 
  191.5000    60.9900    13.7800    12.1240    13.2680     2.5240   -25.9190 
  191.6250    62.4190    13.5080    11.9440    12.7430     2.5430   -25.9330 
  191.7500    65.4970    13.6010    12.0260    14.6270     2.5540   -25.9460 
  191.8750    65.8210    14.2610    12.3360    15.5050     2.5510   -25.9540 
  192.0000    61.8530    14.5600    12.5150    15.9530     2.5400   -25.9580 
  192.1250    58.8010    14.4590    12.4580    15.8720     2.5260   -25.9580 
  192.2500    57.7570    13.9460    12.2010    14.6550     2.5140   -25.9520 
  192.3750    58.3290    13.3570    11.9390    12.7550     2.5070   -25.9400 
  192.5000    59.6340    13.3960    11.9790    12.1340     2.5090   -25.9230 
  192.6250    61.0910    13.9330    12.3670    14.0010     2.5220   -25.8980 
  192.7500    64.9020    14.6920    12.7690    16.5410     2.5240   -25.8670 
  192.8750    68.9000    14.9990    12.9210    17.1690     2.5080   -25.8310 
  193.0000    69.9110    14.7110    12.7210    15.5360     2.4840   -25.7910 
  193.1250    67.5230    13.9990    12.2400    12.8030     2.4630   -25.7470 
  193.2500    65.3280    13.2650    11.7240    11.1690     2.4550   -25.7000 
  193.3750    64.3570    13.0890    11.5760    11.9390     2.4680   -25.6520 
  193.5000    63.5930    13.4050    11.8150    13.5290     2.4900   -25.6060 
  193.6250    61.6440    13.9750    12.2480    14.6700     2.5060   -25.5630 
  193.7500    59.6430    14.5130    12.6430    15.1930     2.5090   -25.5250 
  193.8750    59.1750    14.7430    12.8110    15.1130     2.4930   -25.4950 
  194.0000    60.8120    14.4920    12.6860    14.3260     2.4590   -25.4740 
  194.1250    57.2500    13.9420    12.3860    13.1360     2.4280   -25.4660 
  194.2500    55.9040    13.4370    12.0930    13.0790     2.4120   -25.4720 
  194.3750    56.4190    13.1740    11.8740    13.5720     2.4110   -25.4940 
  194.5000    58.5640    13.1320    11.7770    13.6590     2.4180   -25.5320 
  194.6250    60.7470    13.2620    11.8440    12.9890     2.4270   -25.5870 
  194.7500    59.9550    13.5690    12.1120    12.2690     2.4360   -25.6600 
  194.8750    56.7160    14.0590    12.6400    12.8390     2.4430   -25.7520 
  195.0000    55.4180    15.0570    13.4620    14.4930     2.4610   -25.8590 
  195.1250    55.2970    16.2830    14.4760    16.2580     2.4930   -25.9790 
  195.2500    55.6200    17.7000    15.5580    17.7730     2.5340   -26.1090 
  195.3750    56.1310    18.9690    16.5080    18.7590     2.5700   -26.2450 
  195.5000    57.1610    19.3870    17.0780    19.0480     2.5900   -26.3840 
  195.6250    57.8080    19.4700    17.2090    21.1170     2.5800   -26.5230 
  195.7500    55.1290    19.1850    17.1640    21.2270     2.5650   -26.6560 
  195.8750    57.5750    18.7170    16.6560    20.9010     2.5470   -26.7820 
  196.0000    63.3320    18.1690    15.9890    20.7480     2.5270   -26.8970 
  196.1250    67.7420    17.6350    15.4420    20.4120     2.5070   -27.0000 
  196.2500    66.8840    17.2100    15.0360    18.7730     2.4910   -27.0890 
  196.3750    62.5120    16.9370    14.9850    17.4950     2.4780   -27.1610 
  196.5000    60.2210    17.0700    15.1270    18.1560     2.4710   -27.2180 
  196.6250    60.4040    17.4860    15.4940    19.5080     2.4660   -27.2590 
  196.7500    61.1080    18.1030    15.9510    19.7870     2.4610   -27.2870 
  196.8750    60.9410    18.6680    16.3160    18.5670     2.4540   -27.3020 
  197.0000    60.4220    18.7640    16.4520    17.6080     2.4510   -27.3050 
  197.1250    62.0410    18.8170    16.4770    20.6190     2.4530   -27.2950 
  197.2500    66.0190    18.8820    16.6160    21.2870     2.4610   -27.2520 
  197.3750    68.5830    19.2270    16.9430    21.3540     2.4650   -27.2130 
  197.5000    69.3150    19.7320    17.4190    22.0680     2.4680   -27.1770 
  197.6250    69.1990    20.2030    17.8900    23.1110     2.4720   -27.1390 
  197.7500    69.7670    20.5250    18.1140    22.5220     2.4820   -27.1010 
  197.8750    71.7100    20.7410    18.0140    22.2430     2.4910   -27.0630 
  198.0000    74.4860    20.4470    17.5420    20.1280     2.4920   -27.0300 
  198.1250    75.4330    19.8550    16.9180    18.8280     2.4910   -27.0020 
  198.2500    76.1290    19.1260    16.2730    18.2270     2.4900   -26.9800 
  198.3750    76.2490    18.3070    15.6430    17.7050     2.4890   -26.9680 
  198.5000    71.9100    17.3490    14.9850    17.0280     2.4890   -26.9640 
  198.6250    65.4330    16.8380    14.5470    16.3830     2.4860   -26.9740 
  198.7500    63.1200    16.4390    14.3340    15.7830     2.4820   -26.9940 
  198.8750    62.6710    16.4780    14.4110    15.3530     2.4840   -27.0240 
  199.0000    64.3880    16.8280    14.7350    15.8530     2.4940   -27.0600 
  199.1250    65.4500    17.3950    15.2320    17.4350     2.5130   -27.1010 
  199.2500    59.5950    18.2380    15.8160    19.2450     2.5320   -27.1420 
  199.3750    58.6230    18.3850    16.1220    21.1460     2.5440   -27.1780 
  199.5000    57.0960    18.4590    16.1720    21.3960     2.5500   -27.2050 
  199.6250    60.8000    18.3190    16.0950    19.7200     2.5540   -27.2210 
  199.7500    63.9800    18.1800    15.9850    17.9510     2.5590   -27.2240 
  199.8750    63.4390    18.1560    15.9060    17.7040     2.5660   -27.2130 
  200.0000    63.3180    18.0900    15.8780    19.0880     2.5710   -27.1910 
  200.1250    61.2130    18.0340    15.8910    18.4210     2.5630   -27.1580 
