~V
VERS. 2.00: Ver 2.00
~W
STRT.M 50.0000:
STOP.M 254.0000:
STEP.M 0.1250:
NULL. -999.2500:
UWI. F10088:
~C
DEPT.M :
GR.API :
RML.OHMM :
RI. :
RXO.OHMM :
DEN.GM/CC :
SP.MV :
~A
# ...
  178.7500    43.6950    25.5250    22.5400    34.2180     2.5810     2.4530 
  178.8750    43.7620    24.7280    21.7720    31.2460     2.5710     2.4310 
  179.0000    45.0820    24.4300    21.3680    30.6060     2.5700     2.4020 
  179.1250    47.1740    24.8280    21.5010    35.1550     2.5680     2.3680 
  179.2500    46.6940    25.2660    21.7180    40.0090     2.5540     2.3350 
  179.3750    44.6960    25.7270    22.0170    36.7660     2.5400     2.3030 
  179.5000    42.8670    25.8910    22.1420    30.0500     2.5300     2.2740 
  179.6250    42.1180    25.5530    21.9120    26.8720     2.5270     2.2520 
  179.7500    41.8630    24.8620    21.4060    30.4970     2.5260     2.2360 
  179.8750    43.1500    24.0810    20.8140    34.2940     2.5210     2.2290 
  180.0000    44.3700    23.4150    20.3400    29.0140     2.5100     2.2280 
  180.1250    47.2810    22.9030    19.9690    26.1230     2.4980     2.2350 
  180.2500    49.9000    22.5420    19.6830    26.5300     2.4870     2.2470 
  180.3750    50.3040    22.3460    19.5080    27.9790     2.4760     2.2650 
  180.5000    48.6000    22.3780    19.5460    28.6290     2.4630     2.2890 
  180.6250    44.7380    22.8350    19.9880    27.8730     2.4450     2.3200 
  180.7500    45.4140    23.5440    20.6270    26.7270     2.4310     2.3580 
  180.8750    47.4080    24.1210    21.0920    28.0070     2.4230     2.4030 
  181.0000    48.9500    24.0740    21.0100    31.1020     2.4280     2.4560 
  181.1250    49.0090    23.0770    20.1530    32.9070     2.4530     2.5160 
  181.2500    47.2320    21.1580    18.5580    28.8600     2.5030     2.5830 
  181.3750    45.3010    18.8710    16.6390    21.4860     2.5600     2.6540 
  181.5000    44.4540    17.1710    15.0720    20.2810     2.6040     2.7270 
  181.6250    44.9470    16.2440    14.1220    20.6780     2.6250     2.7980 
  181.7500    47.2830    16.0100    13.7890    20.6160     2.6240     2.8630 
  181.8750    50.6000    16.2520    13.9320    20.4320     2.6070     2.9200 
  182.0000    52.1240    16.7070    14.3450    22.5920     2.5850     2.9650 
  182.1250    51.7220    17.1510    14.8840    23.3540     2.5640     2.9920 
  182.2500    50.0320    17.6760    15.5250    22.0860     2.5600     3.0000 
  182.3750    47.8940    18.6910    16.5410    24.4340     2.5700     2.9890 
  182.5000    45.6760    20.4000    18.0360    27.9280     2.5880     2.9590 
  182.6250    43.3280    22.6420    19.8170    29.3600     2.6030     2.9100 
  182.7500    40.5680    24.7690    21.3220    28.9060     2.6080     2.8450 
  182.8750    40.8900    24.8910    21.2690    35.3150     2.5920     2.7640 
  183.0000    42.8390    22.9060    19.7130    30.9140     2.5620     2.6740 
  183.1250    45.5570    20.0930    17.5720    22.1940     2.5250     2.5800 
  183.2500    46.9320    17.4610    15.4710    17.6840     2.4920     2.4890 
  183.3750    46.0540    15.5780    13.8130    19.1000     2.4750     2.4040 
  183.5000    44.4130    14.3970    12.7280    17.4440     2.4790     2.3290 
  183.6250    42.0800    13.5650    12.0510    15.8670     2.4920     2.2720 
  183.7500    40.6280    12.8500    11.4870    16.6190     2.4980     2.2330 
  183.8750    39.7540    12.2990    11.0620    15.4100     2.4990     2.2100 
  184.0000    39.7880    12.0420    10.8810    13.4970     2.5020     2.2030 
  184.1250    41.2400    12.1130    10.9640    13.4060     2.5110     2.2090 
  184.2500    44.3200    12.3670    11.1850    16.4840     2.5220     2.2230 
  184.3750    44.3200    12.5690    11.3960    18.3810     2.5280     2.2420 
  184.5000    43.3030    12.9790    11.7920    16.9330     2.5350     2.2590 
  184.6250    43.0790    13.4680    12.2440    15.4920     2.5470     2.2690 
  184.7500    43.6860    13.9550    12.6660    16.5280     2.5630     2.2680 
  184.8750    44.7300    14.4540    13.0730    19.7620     2.5770     2.2550 
  185.0000    45.9890    15.0910    13.5990    21.3950     2.5830     2.2260 
  185.1250    46.6330    15.9070    14.2410    20.5010     2.5780     2.1790 
  185.2500    45.6480    16.7390    14.8690    21.3750     2.5800     2.1160 
  185.3750    47.2600    17.2780    15.2570    24.6750     2.5840     2.0380 
  185.5000    48.3380    17.7540    15.6000    28.8640     2.5850     1.9470 
  185.6250    47.6690    18.4020    16.0810    30.5040     2.5780     1.8450 
  185.7500    49.6840    19.1940    16.6500    25.5840     2.5660     1.7330 
  185.8750    46.4650    20.0150    17.1570    27.0690     2.5560     1.6110 
  186.0000    44.6040    20.6050    17.5030    32.5910     2.5500     1.4820 
  186.1250    45.0660    21.0740    17.8130    31.3950     2.5460     1.3460 
  186.2500    45.6760    21.6700    18.2540    27.6110     2.5460     1.2050 
  186.3750    45.9730    22.4830    18.8400    26.4910     2.5490     1.0580 
  186.5000    48.9250    23.2970    19.3460    27.9110     2.5560     0.9060 
  186.6250    46.0280    23.9470    19.5540    35.8810     2.5580     0.7490 
  186.7500    48.0870    23.9560    19.2990    38.3280     2.5420     0.5870 
  186.8750    48.1120    23.0040    18.4620    46.5550     2.5200     0.4220 
  187.0000    47.9310    21.4130    17.2300    59.5440     2.5030     0.2560 
  187.1250    49.4420    19.8020    15.9680    62.9870     2.4990     0.0900 
  187.2500    50.7940    18.8520    15.1140    33.9410     2.5170    -0.0720 
  187.3750    55.3000    18.9020    14.9810    26.3210     2.5810    -0.2250 
  187.5000    55.7320    19.3820    15.1070    26.3920     2.5790    -0.3650 
  187.6250    53.9590    19.2280    14.8180    27.4580     2.5400    -0.4860 
  187.7500    51.3840    17.9410    13.8160    25.8450     2.4900    -0.5850 
  187.8750    49.5160    15.5390    12.1040    20.7410     2.4470    -0.6580 
  188.0000    50.0090    12.5670     9.9820    14.4490     2.4170    -0.7020 
  188.1250    54.1930    10.0940     8.0710    11.5170     2.4110    -0.7090 
  188.2500    56.2030     8.3630     6.6700     9.6150     2.4160    -0.6880 
  188.3750    55.5320     7.1840     5.7010     7.8710     2.4220    -0.6450 
  188.5000    52.0270     6.4550     5.0980     6.7580     2.4260    -0.5890 
  188.6250    47.2630     6.0790     4.7810     6.4740     2.4270    -0.5290 
  188.7500    44.8740     5.9470     4.6670     6.2510     2.4310    -0.4750 
  188.8750    46.4840     6.0360     4.7350     6.2570     2.4360    -0.4440 
  189.0000    49.7240     6.1930     4.8600     6.3010     2.4430    -0.4450 
  189.1250    52.6420     6.3460     4.9780     6.5050     2.4530    -0.4830 
  189.2500    54.5020     6.4560     5.0570     6.8350     2.4670    -0.5590 
  189.3750    55.4670     6.4990     5.0790     7.1400     2.4870    -0.6760 
  189.5000    56.2030     6.4520     5.0350     7.2020     2.5060    -0.8300 
  189.6250    52.0190     6.3100     4.9260     7.1260     2.5080    -1.0250 
  189.7500    53.0000     6.2060     4.8410     7.3850     2.4920    -1.2490 
  189.8750    54.7240     6.1960     4.8200     7.2820     2.4670    -1.4930 
  190.0000    56.7630     6.3280     4.8950     7.2790     2.4450    -1.7520 
  190.1250    58.0770     6.6210     5.0780     7.7880     2.4280    -2.0180 
  190.2500    55.5920     7.0540     5.3510     8.5660     2.4160    -2.2850 
  190.3750    55.0290     7.4910     5.6180     9.0600     2.4080    -2.5410 
  190.5000    57.9330     7.8190     5.8250     9.6270     2.4070    -2.7780 
  190.6250    61.4740     7.9560     5.9260    10.0790     2.4080    -2.9880 
  190.7500    63.1160     7.9500     5.9430     9.9680     2.4090    -3.1670 
  190.8750    62.4120     7.8710     5.9090     9.3600     2.4070    -3.3100 
  191.0000    61.9130     7.7470     5.8390     9.1650     2.4010    -3.4130 
  191.1250    64.4880     7.6540     5.7760    10.1150     2.3970    -3.4670 
  191.2500    63.4590     7.6240     5.7490    10.2390     2.3940    -3.4790 
  191.3750    62.6510     7.6300     5.7550     9.8430     2.3940    -3.4540 
  191.5000    62.9030     7.7090     5.8250     9.5090     2.3980    -3.3960 
