~V
VERS. 2.00: Ver 2.00
~W
STRT.M 56.0000:
STOP.M 263.0000:
STEP.M 0.1250:
NULL. -999.2500:
UWI. F10207:
~C
DEPT.M :
DEN.GM/CC :
GR.API :
RML.OHMM :
RI. :
RXO.OHMM :
SP.MV :
~A
# ...
  120.3750     2.2010    87.0820     7.8260     6.0220     7.7430   -13.9280 
  120.5000     2.1840    90.4380     7.8500     6.1000     7.7840   -13.8060 
  120.6250     2.1630    89.2200     7.8600     6.1770     7.7910   -13.6720 
  120.7500     2.1400    87.1430     7.8780     6.2560     7.8390   -13.5360 
  120.8750     2.1190    87.6190     7.9190     6.3400     8.0680   -13.3700 
  121.0000     2.1020    88.4520     7.9840     6.4320     8.3680   -13.1160 
  121.1250     2.0930    87.9900     8.0640     6.5290     8.6510   -12.8170 
  121.2500     2.1000    86.4850     8.1470     6.6310     8.7380   -12.3870 
  121.3750     2.1220    85.1890     8.2140     6.7320     8.6660   -11.8590 
  121.5000     2.1530    83.6030     8.2400     6.8170     8.5270   -11.2210 
  121.6250     2.1910    82.1310     8.1950     6.8570     8.6000   -10.4490 
  121.7500     2.2290    82.7280     8.0380     6.8150     8.8380    -9.6160 
  121.8750     2.2590    84.4110     7.8010     6.6980     8.9420    -8.7950 
  122.0000     2.2670    86.3480     7.5310     6.5360     8.6910    -8.0570 
  122.1250     2.2520    87.1950     7.2940     6.3780     8.0170    -7.4400 
  122.2500     2.2240    85.5780     7.1620     6.2810     7.3880    -7.0100 
  122.3750     2.2020    82.9250     7.1330     6.2600     7.5680    -6.7320 
  122.5000     2.1930    80.3120     7.1820     6.3000     7.9190    -6.5730 
  122.6250     2.1970    77.7080     7.2800     6.3790     7.8730    -6.5120 
  122.7500     2.2070    75.6120     7.4180     6.4760     7.7480    -6.5150 
  122.8750     2.2230    75.0830     7.6000     6.5870     7.6990    -6.4610 
  123.0000     2.2480    74.5690     7.8380     6.7240     7.8280    -6.3190 
  123.1250     2.2920    72.4950     8.1140     6.8910     8.0990    -6.0970 
  123.2500     2.3600    69.9930     8.3670     7.0630     8.5690    -5.7340 
  123.3750     2.4280    68.4990     8.5700     7.2110     9.0750    -5.3920 
  123.5000     2.4640    67.5270     8.8100     7.3690     9.5090    -5.0280 
  123.6250     2.4690    66.8390     9.3610     7.6560     9.8120    -4.6750 
  123.7500     2.4890    66.9600    10.6500     8.3720    10.4890    -4.3900 
  123.8750     2.5440    66.0760    12.9300     9.7380    11.8710    -4.1170 
  124.0000     2.6090    63.5530    16.3410    11.9530    15.4050    -3.9260 
  124.1250     2.6510    59.9610    20.4670    15.0580    20.9290    -3.7840 
  124.2500     2.6630    56.1610    24.8470    18.8500    26.7990    -3.6760 
  124.3750     2.6620    53.4930    28.6160    22.5730    30.0730    -3.5640 
  124.5000     2.6540    52.5520    31.0600    25.5060    32.1500    -3.4760 
  124.6250     2.6380    52.9220    31.8410    27.1120    32.9720    -3.3810 
  124.7500     2.6150    53.0390    31.0310    27.1570    31.0340    -3.3220 
  124.8750     2.5890    52.4290    29.5470    26.3460    27.8900    -3.3360 
  125.0000     2.5650    51.0930    27.9070    25.1420    26.4320    -3.3490 
  125.1250     2.5490    50.1070    26.4290    23.8770    25.8070    -3.3810 
  125.2500     2.5470    51.8080    25.4110    22.8570    24.5210    -3.4520 
  125.3750     2.5580    54.1930    24.9320    22.2410    22.8520    -3.4850 
  125.5000     2.5750    55.7190    25.0120    22.1050    22.0780    -3.5460 
  125.6250     2.5930    56.5160    25.5490    22.4230    22.2550    -3.6560 
  125.7500     2.5960    57.3920    26.3020    23.0740    22.9530    -3.7110 
  125.8750     2.5780    57.0570    26.8830    23.7370    23.3280    -3.8360 
  126.0000     2.5440    54.6680    27.0240    24.1530    23.6850    -3.9750 
  126.1250     2.5110    52.0720    26.6230    24.1540    24.1070    -4.0410 
  126.2500     2.4990    50.9600    25.7640    23.7040    23.5720    -4.1230 
  126.3750     2.5140    51.1220    24.8220    23.0680    22.2680    -4.1870 
  126.5000     2.5430    52.6310    24.0260    22.4440    20.9600    -4.2280 
  126.6250     2.5660    54.8060    23.4770    21.9540    20.0360    -4.2480 
  126.7500     2.5700    56.7160    23.1640    21.6350    19.8420    -4.2300 
  126.8750     2.5690    57.9650    22.9090    21.3780    19.6220    -4.1380 
  127.0000     2.5750    58.6960    22.5730    21.0730    18.7040    -3.9830 
  127.1250     2.5860    58.5260    22.0660    20.6340    17.0490    -3.8090 
  127.2500     2.6010    57.1560    21.3650    20.0170    15.1900    -3.5800 
  127.3750     2.6130    55.7490    20.6100    19.3250    13.5510    -3.3050 
  127.5000     2.6190    55.5010    19.9580    18.6900    12.4710    -2.9940 
  127.6250     2.6160    56.8550    19.5540    18.2510    12.3120    -2.6790 
  127.7500     2.6070    57.5940    19.5450    18.1650    12.8200    -2.3250 
  127.8750     2.5940    56.4520    19.8660    18.4100    13.6080    -1.9740 
  128.0000     2.5800    54.5550    20.4360    18.9370    14.4550    -1.6650 
  128.1250     2.5690    54.3260    21.1200    19.6430    15.3490    -1.3920 
  128.2500     2.5620    54.8010    21.7260    20.3620    16.1050    -1.1870 
  128.3750     2.5630    52.8590    22.1220    20.9270    16.5940    -1.0410 
  128.5000     2.5710    50.1820    22.2480    21.2450    17.0210    -0.9400 
  128.6250     2.5830    48.8150    22.1120    21.2880    17.2630    -0.8540 
  128.7500     2.5860    49.3950    21.7530    21.0600    16.7220    -0.8510 
  128.8750     2.5780    50.9800    21.2980    20.6820    15.9440    -0.9120 
  129.0000     2.5670    52.7000    20.8260    20.2320    15.4120    -1.0150 
  129.1250     2.5600    53.3210    20.4040    19.7860    15.0150    -1.1410 
  129.2500     2.5540    52.2410    20.1120    19.4330    14.6500    -1.2760 
  129.3750     2.5410    51.9770    19.9710    19.2180    14.4720    -1.4470 
  129.5000     2.5250    53.0270    19.9980    19.1730    14.8170    -1.6540 
  129.6250     2.5110    54.7040    20.1970    19.3130    15.8410    -1.8860 
  129.7500     2.5000    56.2770    20.5880    19.6650    17.2360    -2.1710 
  129.8750     2.4870    56.4490    21.1170    20.1770    18.5350    -2.4140 
  130.0000     2.4700    54.7470    21.7440    20.8120    19.6290    -2.6430 
  130.1250     2.4510    53.0890    22.4140    21.5170    20.4740    -2.8630 
  130.2500     2.4270    52.4150    23.0630    22.2310    21.0800    -2.9920 
  130.3750     2.4060    51.5140    23.6560    22.9030    21.9210    -3.1490 
  130.5000     2.3910    51.3730    24.1860    23.5170    22.7420    -3.2420 
  130.6250     2.3870    53.0680    24.6570    24.0740    22.8630    -3.3200 
  130.7500     2.4070    55.3160    25.0360    24.5490    22.2350    -3.4030 
  130.8750     2.4500    56.3130    25.2810    24.9080    21.4080    -3.4090 
  131.0000     2.5010    57.0760    25.3350    25.0950    20.8790    -3.4060 
  131.1250     2.5350    59.1210    25.1650    25.0610    20.9180    -3.3870 
  131.2500     2.5400    61.2130    24.7690    24.7680    20.9110    -3.3510 
  131.3750     2.5250    61.9830    24.2810    24.3260    20.2040    -3.3140 
  131.5000     2.4950    61.1440    23.8150    23.8410    19.5260    -3.2640 
  131.6250     2.4590    59.8310    23.4620    23.4170    19.7800    -3.2230 
  131.7500     2.4230    59.1160    23.2930    23.1530    20.6930    -3.2030 
  131.8750     2.3930    58.9140    23.2650    23.0480    21.7040    -3.2100 
  132.0000     2.3660    59.0090    23.3160    23.0580    22.8220    -3.2730 
  132.1250     2.3340    58.7920    23.3650    23.1020    23.7630    -3.3940 
  132.2500     2.3000    58.5420    23.3290    23.0840    23.5240    -3.5660 
  132.3750     2.2720    59.0940    23.1910    22.9670    23.1830    -3.7660 
  132.5000     2.2610    59.8830    22.9770    22.7630    22.6590    -3.9980 
  132.6250     2.2730    59.4540    22.7490    22.5240    21.7510    -4.2540 
  132.7500     2.3080    57.8010    22.5790    22.3240    20.7010    -4.4540 
  132.8750     2.3430    56.5890    22.4710    22.1820    20.6870    -4.6420 
  133.0000     2.3570    57.0980    22.3730    22.0640    21.2460    -4.8070 
  133.1250     2.3520    59.6000    22.2130    21.9060    22.4120    -4.8640 
