~V
VERS. 2.00: Ver 2.00
~W
STRT.M 56.0000:
STOP.M 263.0000:
STEP.M 0.1250:
NULL. -999.2500:
UWI. F10207:
~C
DEPT.M :
DEN.GM/CC :
GR.API :
RML.OHMM :
RI. :
RXO.OHMM :
SP.MV :
~A
# ...
   81.7500     1.8720    69.9770     9.6920     7.9640    11.6140   -22.7970 
   81.8750     1.8080    68.5770     9.7120     8.1420    11.2960   -23.6600 
   82.0000     1.7890    67.6890     9.7490     8.2700    11.0550   -24.1390 
   82.1250     1.7970    66.2230     9.8750     8.4030    11.0250   -24.2000 
   82.2500     1.8130    64.1430    10.0930     8.5640    11.3080   -23.7940 
   82.3750     1.8280    62.1380    10.2930     8.7020    11.5990   -23.0220 
   82.5000     1.8410    61.2050    10.3460     8.7290    11.6010   -21.9480 
   82.6250     1.8590    61.5330    10.1240     8.5420    11.2330   -20.5870 
   82.7500     1.9100    61.6880     9.4900     8.0210    10.4640   -18.8490 
   82.8750     2.0110    63.0690     8.5620     7.2460     9.3530   -17.0410 
   83.0000     2.1470    68.3800     7.5290     6.3540     7.9350   -15.2830 
   83.1250     2.2760    78.7720     6.6720     5.5450     6.5020   -13.6230 
   83.2500     2.3480    90.6520     6.4140     5.1010     5.6970   -12.3110 
   83.3750     2.3850    97.7450     6.9120     5.1490     5.7270   -11.3980 
   83.5000     2.4090    98.3670     8.2180     5.7740     6.8280   -10.8570 
   83.6250     2.4190    92.9530    10.1780     6.9670     9.2020   -10.7600 
   83.7500     2.3930    84.6100    12.3420     8.5710    12.5600   -11.3020 
   83.8750     2.3330    77.8030    13.9980    10.0960    15.8200   -12.2410 
   84.0000     2.2590    74.4450    14.5970    11.0660    17.0200   -13.3760 
   84.1250     2.1990    74.7260    13.9460    11.1420    14.3910   -14.5080 
   84.2500     2.1730    76.5870    12.3820    10.3130    11.0740   -15.4450 
   84.3750     2.1720    77.0020    10.8090     9.2350     9.7940   -16.1350 
   84.5000     2.1880    75.8350     9.6360     8.2850     9.5190   -16.5590 
   84.6250     2.2070    75.4490     8.9080     7.5930     9.4990   -16.6630 
   84.7500     2.2100    78.4770     8.5020     7.1430     9.2610   -16.3210 
   84.8750     2.1890    82.3350     8.2200     6.8110     8.7660   -15.7380 
   85.0000     2.1410    85.7240     8.0160     6.5530     8.0330   -15.1230 
   85.1250     2.0760    88.5490     7.9010     6.3690     7.2780   -14.5510 
   85.2500     2.0290    88.7730     7.8900     6.2770     7.0220   -14.0850 
   85.3750     2.0230    86.5460     7.9290     6.2440     7.3650   -13.7360 
   85.5000     2.0580    84.4130     7.9890     6.2460     7.7380   -13.4510 
   85.6250     2.1170    84.3290     8.0860     6.2840     7.9180   -13.3180 
   85.7500     2.1770    87.2230     8.3070     6.4130     7.8790   -13.6470 
   85.8750     2.2180    91.6090     8.6980     6.6720     8.0060   -14.3220 
   86.0000     2.2350    93.4910     9.2530     7.0680     8.9030   -15.1790 
   86.1250     2.2270    88.7930     9.8770     7.5540    10.6580   -16.2780 
   86.2500     2.1970    79.0110    10.3740     8.0080    12.7570   -17.5700 
   86.3750     2.1640    71.3430    10.6040     8.3000    13.8710   -18.8930 
   86.5000     2.1390    68.8500    10.5340     8.3650    13.2160   -20.3170 
   86.6250     2.1220    69.7770    10.2520     8.2230    11.8810   -21.8080 
   86.7500     2.1070    71.3400     9.9300     7.9640    11.3180   -22.9800 
   86.8750     2.0960    72.2040     9.7070     7.7210    11.1890   -23.8100 
   87.0000     2.0940    72.2190     9.6100     7.5460    11.1380   -24.3510 
   87.1250     2.0960    72.0800     9.5990     7.4390    11.0960   -24.5300 
   87.2500     2.0960    72.6940     9.6020     7.3740    11.0410   -24.3440 
   87.3750     2.0930    73.5730     9.5640     7.3160    10.8960   -24.0170 
   87.5000     2.0890    73.7670     9.4570     7.2480    10.6230   -23.5120 
   87.6250     2.0870    73.2840     9.2710     7.1600    10.2480   -22.7720 
   87.7500     2.0860    74.5600     9.0140     7.0420     9.7630   -21.9480 
   87.8750     2.0880    78.0500     8.7360     6.9040     9.2160   -21.1150 
   88.0000     2.0890    81.6390     8.4890     6.7690     8.8050   -20.2450 
   88.1250     2.0860    82.9020     8.3190     6.6700     8.5220   -19.3790 
   88.2500     2.0800    82.2720     8.2670     6.6450     8.3180   -18.6580 
   88.3750     2.0800    83.2100     8.3020     6.6840     8.4440   -17.9440 
   88.5000     2.0820    85.7810     8.3860     6.7640     8.7520   -17.2580 
   88.6250     2.0840    87.4680     8.4760     6.8530     9.2330   -16.5830 
   88.7500     2.1000    88.2380     8.5380     6.9180     9.4380   -15.8000 
   88.8750     2.1380    89.3630     8.5710     6.9510     9.0340   -14.9870 
   89.0000     2.1860    89.8350     8.5700     6.9440     8.4230   -14.1240 
   89.1250     2.2160    88.1690     8.5200     6.8870     8.0460   -13.1960 
   89.2500     2.2070    86.2350     8.3620     6.7430     7.9970   -12.2120 
   89.3750     2.1800    86.4690     8.0840     6.5070     7.8580   -11.2850 
   89.5000     2.1600    89.0260     7.7230     6.1960     7.3410   -10.4550 
   89.6250     2.1600    94.4160     7.3930     5.8750     6.7080    -9.8880 
   89.7500     2.1820   100.9580     7.3400     5.6960     6.3230    -9.7580 
   89.8750     2.2090   104.5880     7.6970     5.7790     6.2650    -9.8690 
   90.0000     2.2240   103.8750     8.4720     6.1800     6.7790   -10.3560 
   90.1250     2.2220   100.7760     9.5010     6.8490     8.3310   -11.3530 
   90.2500     2.2170    96.9090    10.4140     7.6020    10.6650   -12.7320 
   90.3750     2.2200    92.5100    10.8560     8.1540    13.1480   -14.3000 
   90.5000     2.2230    87.8220    10.6510     8.3040    14.6080   -16.0290 
   90.6250     2.2210    83.6890     9.8870     8.0040    12.2090   -17.6880 
   90.7500     2.2190    79.8710     8.9240     7.4140     8.7360   -19.1390 
   90.8750     2.2200    76.4870     8.1860     6.8710     7.6830   -20.4280 
   91.0000     2.2180    74.6680     7.8270     6.5370     7.6130   -21.3930 
   91.1250     2.2080    75.0650     7.8170     6.4510     7.8680   -21.9120 
   91.2500     2.1790    76.1040     8.0350     6.5760     8.2940   -22.0700 
   91.3750     2.1320    76.0210     8.2830     6.7690     8.8620   -21.9940 
   91.5000     2.0780    74.9880     8.4680     6.9450     9.4660   -21.5930 
   91.6250     2.0380    74.1120     8.5520     7.0540     9.8970   -21.0080 
   91.7500     2.0440    73.4380     8.5160     7.0660     9.9220   -20.2970 
   91.8750     2.0840    73.8200     8.3950     6.9980     9.5730   -19.4120 
   92.0000     2.1310    76.1970     8.2090     6.8580     9.1940   -18.4770 
   92.1250     2.1530    78.6500     7.9780     6.6570     8.9030   -17.5900 
   92.2500     2.1320    78.4730     7.7060     6.3970     8.5920   -16.6670 
   92.3750     2.0960    77.9820     7.4070     6.1010     8.4300   -15.7500 
   92.5000     2.0750    80.0580     7.1150     5.7990     8.2750   -14.9800 
   92.6250     2.0860    84.6260     6.9140     5.5500     8.0800   -14.3190 
   92.7500     2.1290    88.9790     7.0060     5.4860     7.5580   -13.8380 
   92.8750     2.1810    91.7160     7.5160     5.7060     6.9870   -13.7420 
   93.0000     2.2390    92.7530     8.4920     6.2840     6.9980   -13.9980 
   93.1250     2.3030    92.4380     9.8160     7.2020     8.5570   -14.5390 
   93.2500     2.3360    90.4380    11.1290     8.2960    11.7360   -15.5210 
   93.3750     2.2940    85.7160    11.9750     9.2100    15.4390   -16.8550 
   93.5000     2.1970    78.4940    12.0530     9.6390    18.5990   -18.3810 
   93.6250     2.1150    72.6550    11.3360     9.4210    18.3190   -20.0810 
   93.7500     2.0860    72.6870    10.1310     8.6380    14.3180   -21.8400 
   93.8750     2.0790    76.0100     9.0290     7.7590    12.0750   -23.3890 
   94.0000     2.0710    78.6430     8.3040     7.0520    11.4800   -24.7630 
   94.1250     2.0600    78.1240     7.9910     6.6170    11.3550   -25.9640 
   94.2500     2.0570    76.3640     7.9970     6.4610    11.1890   -26.7700 
   94.3750     2.0610    75.2700     8.1070     6.4480    11.0150   -27.2800 
   94.5000     2.0670    72.8180     8.2180     6.5000    10.9010   -27.5880 
