~V
VERS. 2.00: Ver 2.00
~W
STRT.M 56.0000:
STOP.M 263.0000:
STEP.M 0.1250:
NULL. -999.2500:
UWI. F10207:
~C
DEPT.M :
DEN.GM/CC :
GR.API :
RML.OHMM :
RI. :
RXO.OHMM :
SP.MV :
~A
# ...
  133.2500     2.3470    61.9220    21.9220    21.6290    22.9730    -4.9090 
  133.3750     2.3520    62.2220    21.5480    21.2520    22.2870    -4.8830 
  133.5000     2.3620    61.7400    21.1740    20.8420    20.5230    -4.8340 
  133.6250     2.3670    62.6290    20.8900    20.4850    19.3900    -4.7790 
  133.7500     2.3700    62.5500    20.7710    20.2720    19.3400    -4.6550 
  133.8750     2.3790    59.7030    20.7770    20.1970    19.7110    -4.5530 
  134.0000     2.3930    56.3810    20.8480    20.2190    20.0500    -4.4050 
  134.1250     2.4060    56.3350    20.9100    20.2740    19.7540    -4.2480 
  134.2500     2.4040    59.1340    20.8910    20.2830    18.9150    -4.1240 
  134.3750     2.3830    60.2720    20.7700    20.1980    18.5960    -3.9580 
  134.5000     2.3530    58.7320    20.5410    19.9950    18.8130    -3.7920 
  134.6250     2.3300    57.0710    20.2110    19.6690    19.0130    -3.6320 
  134.7500     2.3260    56.6570    19.8010    19.2300    18.8970    -3.4910 
  134.8750     2.3400    56.6060    19.3710    18.7460    18.5210    -3.4120 
  135.0000     2.3700    57.0290    18.9800    18.2790    17.6420    -3.3650 
  135.1250     2.4050    57.7260    18.6850    17.8900    16.7210    -3.3630 
  135.2500     2.4220    56.9270    18.5250    17.6330    16.1300    -3.4240 
  135.3750     2.4030    55.4490    18.4500    17.4710    15.9410    -3.5580 
  135.5000     2.3490    54.7330    18.4020    17.3610    16.0470    -3.7020 
  135.6250     2.2920    54.2930    18.3360    17.2580    16.3090    -3.8640 
  135.7500     2.2770    51.7980    18.2260    17.1320    16.0360    -4.0470 
  135.8750     2.3030    48.2970    18.0890    16.9870    15.3600    -4.2020 
  136.0000     2.3450    45.9250    17.9380    16.8300    14.7750    -4.3760 
  136.1250     2.3720    46.0680    17.7600    16.6520    14.4600    -4.5530 
  136.2500     2.3790    49.1780    17.5100    16.4130    14.3890    -4.6950 
  136.3750     2.3890    51.8360    17.1800    16.0950    14.2490    -4.8030 
  136.5000     2.4090    52.2870    16.7900    15.7070    13.8990    -4.9440 
  136.6250     2.4280    51.6150    16.3870    15.2860    13.4800    -5.0480 
  136.7500     2.4300    51.4140    16.0350    14.8910    13.2700    -5.1440 
  136.8750     2.4230    50.4130    15.7380    14.5480    13.2330    -5.2730 
  137.0000     2.4240    48.7580    15.4590    14.2390    13.4250    -5.3530 
  137.1250     2.4400    48.9440    15.1430    13.9220    13.5220    -5.4260 
  137.2500     2.4620    51.8250    14.7530    13.5530    13.1860    -5.4640 
  137.3750     2.4830    55.1180    14.3310    13.1480    12.3820    -5.4720 
  137.5000     2.5010    58.5790    13.9330    12.7440    11.6150    -5.4610 
  137.6250     2.5110    61.9950    13.6050    12.3780    11.3880    -5.4200 
  137.7500     2.5030    62.6460    13.3740    12.0800    11.6500    -5.4210 
  137.8750     2.4780    61.5830    13.2090    11.8360    11.9840    -5.3740 
  138.0000     2.4450    61.6410    13.0970    11.6380    12.0050    -5.3410 
  138.1250     2.4130    62.9880    13.0460    11.4900    11.5280    -5.3530 
  138.2500     2.3860    62.8870    13.1010    11.4290    10.7880    -5.3800 
  138.3750     2.3740    60.9040    13.2770    11.4730    10.6600    -5.5330 
  138.5000     2.3800    59.1600    13.5870    11.6480    11.0910    -5.7130 
  138.6250     2.4000    61.0690    14.0210    11.9610    11.7880    -5.9880 
  138.7500     2.4220    68.4810    14.5590    12.4090    12.8950    -6.2670 
  138.8750     2.4360    76.7580    15.1420    12.9280    14.4930    -6.5640 
  139.0000     2.4390    81.8070    15.7300    13.4730    16.2770    -6.8850 
  139.1250     2.4300    83.0950    16.2650    13.9920    17.4410    -7.1960 
  139.2500     2.4130    83.9720    16.5720    14.3570    17.7810    -7.4840 
  139.3750     2.3920    86.1000    16.4620    14.4080    17.0970    -7.7060 
  139.5000     2.3690    88.2500    15.7450    13.9660    16.3190    -7.8810 
  139.6250     2.3490    88.3790    14.3540    12.9230    15.7080    -7.9770 
  139.7500     2.3400    88.2050    12.3900    11.3020    14.5550    -8.0550 
  139.8750     2.3350    91.8210    10.3360     9.5080    12.0590    -8.0780 
  140.0000     2.3250    98.8870     8.5570     7.8680     8.7800    -8.1370 
  140.1250     2.3040   106.0300     7.2730     6.5970     6.2730    -8.1660 
  140.2500     2.2760   108.8130     6.6000     5.8280     5.5060    -8.1940 
  140.3750     2.2490   107.7370     6.3320     5.4310     5.3210    -8.1730 
  140.5000     2.2280   105.5210     6.3240     5.3090     5.3560    -8.1190 
  140.6250     2.2110   103.7620     6.4370     5.3580     5.4930    -8.0260 
  140.7500     2.1920   102.5880     6.5570     5.4800     5.6690    -7.9040 
  140.8750     2.1730   101.6170     6.6150     5.5830     5.8110    -7.8220 
  141.0000     2.1650   100.5270     6.5960     5.6300     5.8500    -7.6890 
  141.1250     2.1820    98.8840     6.5040     5.6070     5.7350    -7.5620 
  141.2500     2.2140    97.5600     6.3510     5.5090     5.5060    -7.4130 
  141.3750     2.2380    98.8180     6.1730     5.3680     5.2920    -7.3150 
  141.5000     2.2460   101.4880     5.9930     5.2040     5.1290    -7.2080 
  141.6250     2.2410   101.9710     5.8270     5.0340     5.0360    -7.1660 
  141.7500     2.2330    98.5540     5.6930     4.8740     4.9830    -7.1300 
  141.8750     2.2190    94.5500     5.5790     4.7340     4.9280    -7.0280 
  142.0000     2.1930    92.9810     5.4850     4.6260     4.8670    -6.9580 
  142.1250     2.1570    93.9710     5.4120     4.5600     4.8120    -6.8790 
  142.2500     2.1270    94.2050     5.3800     4.5460     4.7700    -6.7980 
  142.3750     2.1160    93.2980     5.3970     4.5780     4.7580    -6.7500 
  142.5000     2.1240    94.4050     5.5400     4.6440     4.7770    -6.7760 
  142.6250     2.1450    99.0020     5.6940     4.7320     4.8270    -6.8420 
  142.7500     2.1710   104.0290     5.8320     4.8250     4.9030    -6.9270 
  142.8750     2.1970   106.2420     5.9390     4.9070     4.9620    -7.0890 
  143.0000     2.2260   105.9190     6.0070     4.9690     4.9740    -7.2370 
  143.1250     2.2580   105.9670     6.0380     5.0050     4.9680    -7.3970 
  143.2500     2.2920   108.9560     6.0330     5.0120     4.9790    -7.5760 
  143.3750     2.3180   112.7770     6.0080     4.9980     5.0020    -7.6350 
  143.5000     2.3310   114.7880     5.9750     4.9700     5.0230    -7.5990 
  143.6250     2.3360   114.8940     5.9510     4.9400     5.0350    -7.5010 
  143.7500     2.3410   114.6960     5.9610     4.9240     5.0380    -7.3900 
  143.8750     2.3440   114.9320     6.0120     4.9320     5.0530    -7.2600 
  144.0000     2.3420   114.8980     6.0980     4.9660     5.0790    -7.1120 
  144.1250     2.3330   113.2250     6.1990     5.0180     5.1510    -6.9090 
  144.2500     2.3180   110.7510     6.2730     5.0680     5.2600    -6.7050 
  144.3750     2.2950   111.3290     6.2970     5.0930     5.3220    -6.5120 
  144.5000     2.2610   115.8380     6.2630     5.0790     5.2530    -6.3520 
  144.6250     2.2310   120.1720     6.1850     5.0260     5.0730    -6.2070 
  144.7500     2.2240   120.0550     6.0940     4.9480     4.8630    -6.0560 
  144.8750     2.2340   117.7140     6.0260     4.8760     4.6890    -5.9420 
  145.0000     2.2480   114.4190     5.9990     4.8290     4.6040    -5.8360 
  145.1250     2.2620   109.5790     6.0130     4.8160     4.6460    -5.8230 
  145.2500     2.2850   103.1520     6.0550     4.8330     4.7760    -5.8400 
  145.3750     2.3120    98.0750     6.0990     4.8600     4.9350    -5.9080 
  145.5000     2.3360    96.5000     6.1280     4.8800     5.0870    -6.0410 
  145.6250     2.3550    97.2340     6.1340     4.8810     5.1800    -6.1520 
  145.7500     2.3620    97.8960     6.1070     4.8560     5.1770    -6.2910 
  145.8750     2.3530    97.9980     6.0560     4.8090     5.1310    -6.3720 
  146.0000     2.3330    98.2500     5.9890     4.7500     5.0610    -6.4530 
