~V
VERS. 2.00: Ver 2.00
~W
STRT.M 56.0000:
STOP.M 263.0000:
STEP.M 0.1250:
NULL. -999.2500:
UWI. F10207:
~C
DEPT.M :
DEN.GM/CC :
GR.API :
RML.OHMM :
RI. :
RXO.OHMM :
SP.MV :
~A
# ...
  197.6250     2.2100    68.7590   244.9310   215.5190   236.5710   -33.4470 
  197.7500     2.1990    68.2550   269.0650   241.3470   271.7070   -33.6710 
  197.8750     2.1930    65.8590   292.8810   259.8240   286.0700   -33.8620 
  198.0000     2.1940    63.3770   306.3520   269.8220   287.8750   -33.9840 
  198.1250     2.1990    62.8790   310.1020   272.1490   288.4410   -34.0210 
  198.2500     2.2020    64.1380   305.8100   268.2940   282.9590   -33.8990 
  198.3750     2.2020    64.2990   297.4440   261.3510   268.1840   -33.6820 
  198.5000     2.2020    63.4520   286.1950   252.2010   247.1170   -33.3880 
  198.6250     2.2040    62.8030   272.4000   241.0050   222.8640   -32.8920 
  198.7500     2.2120    62.4830   256.2550   227.7410   201.8350   -32.3500 
  198.8750     2.2210    61.5980   239.5540   213.7810   186.5660   -31.7140 
  199.0000     2.2280    61.0950   224.2560   200.7510   171.4170   -30.9900 
  199.1250     2.2350    61.6940   212.1160   190.2760   163.0110   -30.3160 
  199.2500     2.2420    61.9840   204.5670   183.8770   165.6160   -29.6030 
  199.3750     2.2400    61.7230   200.3150   180.6530   171.6050   -28.9640 
  199.5000     2.2220    62.3950   197.9430   179.4500   173.9600   -28.3340 
  199.6250     2.1950    64.6130   195.7010   178.7090   170.6360   -27.7650 
  199.7500     2.1740    66.1010   191.4410   176.4590   166.1260   -27.3270 
  199.8750     2.1640    66.3030   184.2240   171.6700   158.7040   -26.8830 
  200.0000     2.1620    66.1940   173.6130   163.7960   150.1130   -26.5030 
  200.1250     2.1640    66.1810   159.7050   152.7240   144.2540   -26.1350 
  200.2500     2.1750    66.8130   143.2630   138.7310   139.8780   -25.7660 
  200.3750     2.1980    68.6620   126.7930   123.9140   132.1050   -25.4490 
  200.5000     2.2310    71.0910   112.2680   110.1190   121.1190   -25.0400 
  200.6250     2.2640    72.0550   100.9720    98.8420   101.8500   -24.6520 
  200.7500     2.2900    70.2440    94.0850    91.5950    84.4230   -24.2370 
  200.8750     2.3190    68.7500    90.8210    87.9930    78.7400   -23.7700 
  201.0000     2.3550    69.1030    90.2030    87.3610    78.4650   -23.3400 
  201.1250     2.3950    70.7890    90.1400    87.8730    73.7630   -22.8510 
  201.2500     2.4360    71.5100    86.7580    85.7560    65.9390   -22.3240 
  201.3750     2.4840    70.6160    77.5500    78.0170    61.9210   -21.7440 
  201.5000     2.5320    68.3530    62.1880    63.7110    64.6770   -21.1730 
  201.6250     2.5520    65.5590    43.8350    45.5020    68.4690   -20.6110 
  201.7500     2.5120    64.5800    28.4230    29.5020    47.7600   -19.9430 
  201.8750     2.4500    64.5920    18.1410    18.6420    21.4760   -19.3110 
  202.0000     2.4110    62.8650    12.3040    12.3880     9.6890   -18.6750 
  202.1250     2.4060    59.7380     9.4400     9.1940     6.3950   -18.0180 
  202.2500     2.4090    58.9300     8.4330     7.9000     5.7790   -17.4910 
  202.3750     2.4050    59.7520     8.1410     7.3920     5.7940   -16.9680 
  202.5000     2.4110    58.6170     8.1140     7.2610     5.9900   -16.5040 
  202.6250     2.4350    55.5920     8.0780     7.2350     6.1840   -16.0460 
  202.7500     2.4540    55.7590     7.8760     7.1240     6.0610   -15.6490 
  202.8750     2.4410    59.0940     7.5600     6.9050     5.6220   -15.4390 
  203.0000     2.4020    64.0980     7.2470     6.6520     5.2620   -15.3240 
  203.1250     2.3620    70.0800     7.0610     6.4680     5.1260   -15.3870 
  203.2500     2.3400    76.1990     7.0990     6.4580     5.2250   -15.5990 
  203.3750     2.3410    82.7710     7.2780     6.6180     5.4620   -15.9450 
  203.5000     2.3630    91.0100     7.5720     6.9160     5.8740   -16.5210 
  203.6250     2.4030   100.9430     7.9260     7.2940     6.4250   -17.3100 
  203.7500     2.4480   108.8320     8.1550     7.6680     6.8690   -18.3580 
  203.8750     2.4770   112.1000     8.6170     7.9650     7.2150   -19.4790 
  204.0000     2.4790   110.4660     8.9430     8.1350     7.4600   -20.6010 
  204.1250     2.4560   105.0370     9.1070     8.1520     7.5970   -21.7100 
  204.2500     2.4170    97.6220     9.0950     7.9970     7.5480   -22.7190 
  204.3750     2.3800    92.4460     8.9740     7.7320     7.3420   -23.5930 
  204.5000     2.3550    92.6500     8.8040     7.4120     7.0850   -24.3030 
  204.6250     2.3500    97.2180     8.6570     7.1080     6.9570   -24.8170 
  204.7500     2.3540    99.8040     8.6590     6.9220     6.9470   -25.1740 
  204.8750     2.3540    97.5380     8.9280     6.9370     7.0810   -25.4970 
  205.0000     2.3520    93.9090     9.6200     7.2580     7.6070   -25.8480 
  205.1250     2.3660    91.3210    10.9010     8.0040     8.8540   -26.1780 
  205.2500     2.4200    88.1410    13.0610     9.4140    11.1930   -26.3660 
  205.3750     2.4980    85.9890    16.0310    11.5070    14.6450   -26.4740 
  205.5000     2.5730    86.5980    19.6570    14.2720    18.8060   -26.4270 
  205.6250     2.6170    87.5890    23.5000    17.4770    22.3640   -26.2570 
  205.7500     2.6210    84.9840    26.5620    20.4490    23.8920   -25.9250 
  205.8750     2.6130    80.7110    27.9120    22.3050    24.4670   -25.3020 
  206.0000     2.6080    77.5790    26.9040    22.3190    24.4980   -24.4690 
  206.1250     2.6080    75.7830    23.5630    20.2550    24.0720   -23.4680 
  206.2500     2.5860    75.2230    18.7330    16.5830    22.6560   -22.4070 
  206.3750     2.5240    75.5510    14.1050    12.7820    18.6740   -21.3680 
  206.5000     2.4430    75.3070    10.5550     9.6650    12.3860   -20.3700 
  206.6250     2.3900    72.5230     8.3200     7.5150     7.6110   -19.5370 
  206.7500     2.3930    67.3260     7.3240     6.3590     6.3780   -18.8290 
  206.8750     2.4160    62.9680     6.9800     5.7970     6.0100   -18.2980 
  207.0000     2.4280    61.7950     6.9710     5.6100     5.8570   -17.9410 
  207.1250     2.4140    63.1080     7.0630     5.6200     5.7010   -17.7000 
  207.2500     2.3830    66.3560     7.1070     5.6900     5.5240   -17.6670 
  207.3750     2.3450    71.6550     7.0790     5.7410     5.4730   -17.7400 
  207.5000     2.3080    78.0330     7.0190     5.7660     5.5950   -17.8770 
  207.6250     2.2910    82.7760     6.9790     5.7870     5.7290   -18.0180 
  207.7500     2.3100    86.2710     7.0010     5.8300     5.6580   -18.1320 
  207.8750     2.3480    91.2220     7.0830     5.9050     5.6640   -18.2490 
  208.0000     2.3820    96.9260     7.2130     6.0090     5.7900   -18.3620 
  208.1250     2.3980    99.9370     7.3700     6.1340     6.0330   -18.4330 
  208.2500     2.4010    99.2590     7.5260     6.2610     6.3630   -18.4200 
  208.3750     2.3980    98.0420     7.6490     6.3710     6.6500   -18.3070 
  208.5000     2.3950    96.0510     7.7190     6.4490     6.8180   -18.1720 
  208.6250     2.3980    92.1360     7.7200     6.4820     6.9250   -17.9630 
  208.7500     2.4080    88.7290     7.6330     6.4480     6.9610   -17.6410 
  208.8750     2.4180    89.0480     7.4710     6.3500     6.8890   -17.2730 
  209.0000     2.4180    91.0650     7.2510     6.1920     6.6780   -16.7950 
  209.1250     2.4050    90.1410     7.0000     5.9880     6.3710   -16.3150 
  209.2500     2.3880    84.1080     6.7620     5.7650     5.9210   -15.8420 
  209.3750     2.3820    76.0080     6.5670     5.5540     5.4970   -15.3990 
  209.5000     2.3900    68.2880     6.4240     5.3710     5.2270   -15.0070 
  209.6250     2.4010    62.2570     6.3150     5.2130     5.0720   -14.6060 
  209.7500     2.4040    59.3510     6.2040     5.0620     5.0370   -14.2880 
  209.8750     2.4040    59.7110     6.0670     4.8990     5.0050   -14.0750 
  210.0000     2.4020    62.6820     5.9100     4.7220     4.9920   -13.9480 
  210.1250     2.3970    65.8980     5.7820     4.5550     4.9700   -13.9280 
  210.2500     2.3860    68.6960     5.8280     4.4770     4.9720   -14.0370 
  210.3750     2.3710    72.3900     6.1890     4.5800     5.1810   -14.2430 
