~V
VERS. 2.00: Ver 2.00
~W
STRT.M 56.0000:
STOP.M 263.0000:
STEP.M 0.1250:
NULL. -999.2500:
UWI. F10207:
~C
DEPT.M :
DEN.GM/CC :
GR.API :
RML.OHMM :
RI. :
RXO.OHMM :
SP.MV :
~A
# ...
  249.1250     2.5090    72.9260    15.1850    13.5330    15.7690    -8.7710 
  249.2500     2.4890    69.8670    15.1730    13.5600    14.3220    -8.7260 
  249.3750     2.4430    66.1680    15.1560    13.5750    14.0890    -8.7010 
  249.5000     2.3950    64.7530    15.1390    13.5870    15.0470    -8.6930 
  249.6250     2.3620    66.4150    15.1250    13.6020    16.5180    -8.6730 
  249.7500     2.3540    68.3250    15.1070    13.6190    17.4460    -8.6400 
  249.8750     2.3610    69.4940    15.0710    13.6220    17.3900    -8.6000 
  250.0000     2.3740    71.6230    14.9980    13.5930    16.7750    -8.5600 
  250.1250     2.3900    74.5640    14.8730    13.5160    15.9340    -8.5450 
  250.2500     2.4070    76.0900    14.6800    13.3740    15.2490    -8.6300 
  250.3750     2.4250    75.7980    14.4450    13.1880    14.6180    -8.7280 
  250.5000     2.4370    75.0220    14.2010    12.9830    14.0430    -8.8210 
  250.6250     2.4360    74.6910    13.9830    12.7890    13.5790    -8.9110 
  250.7500     2.4270    75.0720    13.8290    12.6440    13.1550    -9.0790 
  250.8750     2.4180    75.1210    13.7370    12.5530    13.0690    -9.2220 
  251.0000     2.4160    75.2610    13.6890    12.5110    13.0810    -9.3840 
  251.1250     2.4190    75.7120    13.6570    12.4980    13.0130    -9.4910 
  251.2500     2.4150    75.6080    13.6060    12.4850    12.7170    -9.6150 
  251.3750     2.3970    74.5560    13.5200    12.4480    12.1560    -9.6980 
  251.5000     2.3700    73.7440    13.3990    12.3750    11.4450    -9.8010 
  251.6250     2.3530    73.7380    13.2470    12.2630    10.8370    -9.8940 
  251.7500     2.3600    73.3990    13.0500    12.1010    10.4730   -10.0040 
  251.8750     2.3830    72.3420    12.7890    11.8810    10.2550   -10.1200 
  252.0000     2.4020    72.0860    12.4380    11.5860    10.1510   -10.1940 
  252.1250     2.4030    73.6230    11.9920    11.2070     9.9400   -10.3090 
  252.2500     2.3910    76.5120    11.4860    10.7610     9.6150   -10.3390 
  252.3750     2.3790    78.1690    11.0210    10.3270     9.2540   -10.3910 
  252.5000     2.3680    78.2840    10.6950     9.9870     9.0520   -10.5160 
  252.6250     2.3580    78.3840    10.5840     9.8170     9.2800   -10.7060 
  252.7500     2.3630    79.0890    10.7580     9.9040    10.1300   -10.7710 
  252.8750     2.3840    79.2030    11.1270    10.1990    11.5810   -10.8120 
  253.0000     2.4090    79.4130    11.6010    10.6410    13.3980   -10.8350 
  253.1250     2.4250    79.6510    12.0660    11.1340    15.0560   -10.7790 
  253.2500     2.4340    79.6510    12.3870    11.5430    15.7810   -10.8140 
  253.3750     2.4480    79.6510    12.5270    11.7900    15.7420   -10.9040 
  253.5000     2.4600    79.6510    12.5060    11.8580    15.4390   -10.8700 
  253.6250     2.4610    79.6510    12.3930    11.7910    15.1610   -10.7850 
  253.7500     2.4450    79.6510    12.2940    11.6720    14.6980   -10.8280 
  253.8750     2.4240    79.6510    12.2810    11.5960    14.1180   -10.8760 
  254.0000     2.4050    79.6510    12.3760    11.6030    14.0460   -10.9250 
  254.1250     2.3940    79.6510    12.5690    11.7030    14.5390   -11.0290 
  254.2500     2.4050    79.6510    12.8410    11.9010    14.4960   -11.1210 
  254.3750     2.4450    79.6510    13.1610    12.1690    13.6940   -11.1300 
  254.5000     2.4970    79.6510    13.5280    12.5020    13.4010   -11.0980 
  254.6250     2.5310    79.6510    13.9530    12.9010    13.9300   -11.0110 
  254.7500     2.5330    79.6510    14.4530    13.3780    14.7070   -10.8660 
  254.8750     2.5270    79.6510    14.9970    13.9070    15.5540   -10.7700 
  255.0000     2.5160    79.6510    15.5380    14.4510    16.3680   -10.6960 
  255.1250     2.5000    79.6510    16.0180    14.9550    16.6910   -10.5710 
  255.2500     2.4810    79.6510    16.3690    15.3450    16.8780   -10.3230 
  255.3750     2.4720    79.6510    16.6040    15.6140    17.1720   -10.0340 
  255.5000     2.4760    79.6510    16.7640    15.7850    17.4420    -9.7960 
  255.6250     2.4850    79.6510    16.9100    15.9130    17.1230    -9.6310 
  255.7500     2.4900    79.6510    17.1080    16.0640    17.1000    -9.4820 
  255.8750     2.4950    79.6510    17.3810    16.2780    16.9800    -9.3170 
  256.0000     2.5020    79.6510    17.7210    16.5620    16.7840    -9.1520 
  256.1250     2.5060    79.6510    18.1010    16.9010    16.8100    -9.0150 
  256.2500     2.5020    79.6510    18.4960    17.2730    17.0140    -9.0740 
  256.3750     2.4920    79.6510    18.8890    17.6530    17.6230    -9.2710 
  256.5000     2.4810    79.6510    19.2800    18.0350    18.4720    -9.5000 
  256.6250     2.4770    79.6510    19.6690    18.4170    19.2490    -9.7170 
  256.7500     2.4910    79.6510    20.0370    18.7820    19.7840    -9.9370 
  256.8750     2.5140    79.6510    20.3590    19.1030    20.0590   -10.1410 
  257.0000     2.5250    79.6510    20.6120    19.3480    20.7210   -10.3730 
  257.1250     2.5190    79.6510    20.7870    19.4990    22.1250   -10.6380 
  257.2500     2.5090    79.6510    20.8860    19.5490    23.7190   -10.7440 
  257.3750     2.5050    79.6510    20.9430    19.5450    24.3170   -10.8180 
  257.5000     2.4940    79.6510    20.9660    19.5230    24.3560   -10.9070 
  257.6250     2.4630    79.6510    20.9560    19.5070    23.9420   -10.9860 
  257.7500     2.4250    79.6510    20.9140    19.5100    23.3970   -10.9790 
  257.8750     2.4070    79.6510    20.8610    19.5220    22.6360   -10.9950 
  258.0000     2.4160    79.6510    20.8150    19.5350    22.2160   -11.0120 
  258.1250     2.4420    79.6510    20.7870    19.5410    21.8780   -10.9920 
  258.2500     2.4620    79.6510    20.7780    19.5410    21.4900   -10.9820 
  258.3750     2.4700    79.6510    20.7760    19.5400    21.7820   -10.8550 
  258.5000     2.4750    79.6510    20.7760    19.5410    22.2810   -10.6090 
  258.6250     2.4830    79.6510    20.7760    19.5440    22.5110   -10.3090 
  258.7500     2.5000    79.6510    20.7770    19.5470    22.7910   -10.0110 
  258.8750     2.5230    79.6510    20.7770    19.5480    23.1580    -9.6590 
  259.0000     2.5380    79.6510    20.7770    19.5490    23.7590    -9.2700 
  259.1250     2.5320    79.6510    20.7770    19.5490    24.9390    -8.8740 
  259.2500     2.5030    79.6510    20.7770    19.5490    26.1100    -8.5530 
  259.3750     2.4760    79.6510    20.7770    19.5490    26.1960    -8.3560 
  259.5000     2.4640    79.6510    20.7770    19.5490    25.1170    -8.2280 
  259.6250     2.4640    79.6510    20.7770    19.5490    22.9480    -8.0870 
  259.7500     2.4640    79.6510    20.7770    19.5490    19.5640    -8.0170 
  259.8750     2.4590    79.6510    20.7770    19.5490    16.3200    -7.9380 
  260.0000     2.4540    79.6510    20.7770    19.5490    13.9790    -7.8770 
  260.1250     2.4530    79.6510    20.7770    19.5490    13.0020    -7.8740 
  260.2500     2.4490    79.6510    20.7770    19.5490    12.7220    -7.8720 
  260.3750     2.4430    79.6510    20.7770    19.5490    12.4530    -7.7940 
  260.5000     2.4430    79.6510    20.7770    19.5490    11.9720    -7.7580 
  260.6250     2.4520    79.6510    20.7770    19.5490    11.3370    -7.7880 
  260.7500     2.4620    79.6510    20.7770    19.5490    10.9980    -7.8110 
  260.8750     2.4650    79.6510    20.7770    19.5490    10.8660    -7.8740 
  261.0000     2.4640    79.6510    20.7770    19.5490    10.6510    -7.9730 
  261.1250     2.4510    79.6510    20.7770    19.5490    10.5810    -8.0810 
  261.2500     2.4400    79.6510    20.7770    19.5490    10.5370    -8.1650 
  261.3750     2.4270    79.6510    20.7770    19.5490    10.5300    -8.2760 
  261.5000     2.4040    79.6510    20.7770    19.5490    10.5950    -8.3370 
  261.6250     2.3600    79.6510    20.7770    19.5490    10.8870    -8.3800 
  261.7500     2.2880    79.6510    20.7770    19.5490    11.1740    -8.4530 
  261.8750     2.1960    79.6510    20.7770    19.5490    11.1750    -8.4780 
