~V
VERS. 2.00: Ver 2.00
~W
STRT.M 56.0000:
STOP.M 263.0000:
STEP.M 0.1250:
NULL. -999.2500:
UWI. F10207:
~C
DEPT.M :
DEN.GM/CC :
GR.API :
RML.OHMM :
RI. :
RXO.OHMM :
SP.MV :
~A
# ...
  107.5000     2.0650    69.7500     9.1540     7.8920    11.2480   -23.0180 
  107.6250     2.0900    69.0270     9.3630     8.0780    11.5150   -23.2480 
  107.7500     2.1090    69.3950     9.5320     8.2580    11.4660   -23.3700 
  107.8750     2.1200    70.7520     9.6180     8.3850    11.2390   -23.4770 
  108.0000     2.1270    72.6560     9.6060     8.4300    11.0560   -23.5790 
  108.1250     2.1290    73.3620     9.5050     8.3860    10.9440   -23.6630 
  108.2500     2.1260    71.1560     9.3370     8.2510    10.9510   -23.6860 
  108.3750     2.1200    69.3230     9.1460     8.0680    10.9870   -23.6570 
  108.5000     2.1180    70.3210     8.9620     7.8640    11.0360   -23.6100 
  108.6250     2.1240    73.3920     8.8090     7.6690    11.0260   -23.5050 
  108.7500     2.1300    75.8680     8.7180     7.5140    10.9130   -23.5270 
  108.8750     2.1300    76.4670     8.6920     7.4130    10.7950   -23.5500 
  109.0000     2.1290    75.3680     8.7320     7.3770    10.7670   -23.5370 
  109.1250     2.1350    73.0580     8.8250     7.4020    10.7170   -23.4800 
  109.2500     2.1430    71.9780     8.9520     7.4810    10.6390   -23.3520 
  109.3750     2.1490    72.6340     9.0720     7.5760    10.6980   -23.2360 
  109.5000     2.1510    73.2850     9.1480     7.6510    10.8710   -23.0880 
  109.6250     2.1520    72.8780     9.1480     7.6710    11.0120   -22.9670 
  109.7500     2.1510    72.3220     9.0470     7.6000    10.9480   -22.7540 
  109.8750     2.1500    74.0710     8.8800     7.4580    10.6860   -22.5950 
  110.0000     2.1510    78.0890     8.6880     7.2730    10.2930   -22.4870 
  110.1250     2.1580    82.1980     8.5150     7.0880     9.9330   -22.4790 
  110.2500     2.1660    83.5460     8.4100     6.9570     9.7310   -22.5220 
  110.3750     2.1660    83.2620     8.3730     6.8930     9.7010   -22.6130 
  110.5000     2.1540    83.5280     8.3920     6.8920     9.6300   -22.7510 
  110.6250     2.1360    83.7150     8.4410     6.9310     9.7380   -22.9310 
  110.7500     2.1260    81.6720     8.4950     6.9860     9.8090   -23.1400 
  110.8750     2.1240    79.1100     8.5390     7.0370     9.8580   -23.2060 
  111.0000     2.1250    77.6260     8.5790     7.0850     9.9070   -23.1890 
  111.1250     2.1210    77.1840     8.6310     7.1390    10.0500   -23.0220 
  111.2500     2.1040    75.9940     8.7160     7.2110    10.1990   -22.6820 
  111.3750     2.0830    74.5110     8.8240     7.2950    10.3130   -22.1560 
  111.5000     2.0650    74.5740     8.9250     7.3750    10.4050   -21.3870 
  111.6250     2.0600    76.0600     8.9640     7.4150    10.3880   -20.3490 
  111.7500     2.0890    76.6930     8.8570     7.3540    10.2610   -19.0090 
  111.8750     2.1570    77.3400     8.5870     7.1680    10.1610   -17.4800 
  112.0000     2.2510    79.0140     8.1840     6.8580     9.9180   -15.8000 
  112.1250     2.3370    81.9630     7.7550     6.4820     9.3130   -13.9710 
  112.2500     2.3710    85.8290     7.5060     6.1800     8.2960   -12.0650 
  112.3750     2.3570    91.5220     7.5400     6.0630     7.4070   -10.2510 
  112.5000     2.3250    98.1030     7.8300     6.1510     7.4460    -8.6470 
  112.6250     2.2990   100.9930     8.2140     6.3650     8.7470    -7.3120 
  112.7500     2.2840    98.0670     8.3910     6.5290    10.5740    -6.2910 
  112.8750     2.2730    95.0860     8.1870     6.4830    11.6210    -5.5480 
  113.0000     2.2740    96.6430     7.6080     6.1780    10.0870    -5.0610 
  113.1250     2.2940   102.6820     6.8660     5.7120     6.7740    -4.8160 
  113.2500     2.3190   107.7350     6.3160     5.3060     5.6300    -4.8220 
  113.3750     2.3300   109.5460     6.1120     5.1080     5.7530    -4.8890 
  113.5000     2.3240   108.6150     6.2120     5.1360     6.3990    -4.9930 
  113.6250     2.3150   106.6830     6.4560     5.3180     7.0460    -5.0540 
  113.7500     2.3150   105.2840     6.6210     5.5130     7.3800    -5.0280 
  113.8750     2.3200   104.5110     6.5890     5.5860     6.8890    -4.9960 
  114.0000     2.3230   105.5100     6.3620     5.4950     6.2950    -4.8490 
  114.1250     2.3220   107.6190     6.0290     5.2770     5.8690    -4.6630 
  114.2500     2.3220   109.2620     5.7120     5.0130     5.4460    -4.4620 
  114.3750     2.3260   109.8080     5.4870     4.7870     5.2240    -4.1840 
  114.5000     2.3320   110.1080     5.3690     4.6290     5.1460    -3.8970 
  114.6250     2.3330   111.0360     5.3390     4.5370     5.0900    -3.5890 
  114.7500     2.3290   113.5890     5.3680     4.5000     5.0280    -3.3330 
  114.8750     2.3310   118.3410     5.4140     4.4910     4.9710    -3.0790 
  115.0000     2.3430   122.6150     5.4600     4.4990     4.9300    -2.8630 
  115.1250     2.3600   123.0360     5.4970     4.5180     4.9510    -2.7530 
  115.2500     2.3720   120.4150     5.5230     4.5470     4.9940    -2.6630 
  115.3750     2.3780   118.3780     5.5440     4.5790     5.0370    -2.6460 
  115.5000     2.3780   118.3220     5.5720     4.6160     5.0910    -2.6930 
  115.6250     2.3680   119.8470     5.6240     4.6670     5.1180    -2.7470 
  115.7500     2.3460   119.6640     5.7210     4.7490     5.1660    -2.8400 
  115.8750     2.3240   116.2900     5.8510     4.8610     5.3450    -2.9750 
  116.0000     2.3120   112.4400     5.9840     4.9820     5.6720    -3.1160 
  116.1250     2.3120   111.0920     6.0700     5.0760     6.0870    -3.2410 
  116.2500     2.3190   110.6830     6.0360     5.0800     6.3310    -3.3520 
  116.3750     2.3260   109.9080     5.8750     4.9800     6.2180    -3.4850 
  116.5000     2.3320   110.6180     5.6160     4.7870     5.7070    -3.6040 
  116.6250     2.3380   112.9570     5.3270     4.5450     5.1000    -3.7720 
  116.7500     2.3450   114.4850     5.1020     4.3230     4.7700    -3.9860 
  116.8750     2.3500   114.7370     4.9840     4.1660     4.6060    -4.1600 
  117.0000     2.3530   114.1810     4.9720     4.0880     4.6020    -4.3930 
  117.1250     2.3550   114.1170     5.0380     4.0780     4.6800    -4.5780 
  117.2500     2.3620   117.0890     5.1340     4.1140     4.7770    -4.7880 
  117.3750     2.3700   121.4060     5.2150     4.1550     4.8010    -5.0080 
  117.5000     2.3750   122.5330     5.2580     4.1790     4.7910    -5.1590 
  117.6250     2.3760   118.9000     5.2600     4.1760     4.7720    -5.3410 
  117.7500     2.3740   115.7430     5.2320     4.1440     4.7470    -5.4890 
  117.8750     2.3670   115.1820     5.2030     4.1000     4.7250    -5.6670 
  118.0000     2.3540   114.5390     5.1920     4.0600     4.7120    -5.8780 
  118.1250     2.3360   114.0680     5.2190     4.0430     4.7150    -6.1030 
  118.2500     2.3120   115.6040     5.3360     4.0880     4.7620    -6.3920 
  118.3750     2.2850   117.2480     5.6020     4.2330     4.9050    -6.7350 
  118.5000     2.2650   115.0640     6.1090     4.5400     5.1950    -7.2070 
  118.6250     2.2680   107.5000     6.9440     5.0770     5.6870    -7.7880 
  118.7500     2.3090    98.4660     8.1680     5.9280     6.4790    -8.4370 
  118.8750     2.3590    90.5570     9.5720     6.9890     7.4860    -9.1800 
  119.0000     2.3850    84.7180    10.8740     8.0910     8.5440   -10.0050 
  119.1250     2.3710    81.4550    11.7340     8.9770     9.3510   -10.9010 
  119.2500     2.3200    80.8610    11.7560     9.2800     9.3400   -11.8290 
  119.3750     2.2560    81.8570    11.0780     8.9860     8.5220   -12.6590 
  119.5000     2.2000    82.3910    10.0020     8.2590     8.1400   -13.3100 
  119.6250     2.1740    82.6500     8.9200     7.3950     8.1370   -13.7880 
  119.7500     2.1810    83.6060     8.1770     6.6890     8.1630   -14.0990 
  119.8750     2.1980    84.9100     7.7870     6.2250     8.0500   -14.2940 
  120.0000     2.2120    84.6240     7.6670     5.9880     7.8520   -14.3340 
  120.1250     2.2180    82.5170     7.6980     5.9170     7.7170   -14.2820 
  120.2500     2.2130    82.9950     7.7720     5.9520     7.7050   -14.1330 
