~V
VERS. 2.00: Ver 2.00
~W
STRT.M 56.0000:
STOP.M 263.0000:
STEP.M 0.1250:
NULL. -999.2500:
UWI. F10207:
~C
DEPT.M :
DEN.GM/CC :
GR.API :
RML.OHMM :
RI. :
RXO.OHMM :
SP.MV :
~A
# ...
  223.3750     2.2330    69.7300   112.1040    98.4100    88.2250   -22.7970 
  223.5000     2.2290    71.5380   112.9280    98.8160    90.0610   -22.7630 
  223.6250     2.2120    70.7660   112.9200    98.5810    92.1370   -22.8210 
  223.7500     2.1870    67.9870   111.8640    97.4880    87.8990   -22.8160 
  223.8750     2.1600    65.2170   110.1620    95.8310    79.3220   -22.9030 
  224.0000     2.1340    62.9610   108.2620    93.9700    70.5720   -23.0360 
  224.1250     2.1100    61.2650   106.5770    92.2760    65.3780   -23.1630 
  224.2500     2.0930    61.3870   105.2730    90.9660    62.8440   -23.3310 
  224.3750     2.0880    64.0450   103.9900    89.7840    61.9870   -23.4010 
  224.5000     2.0960    67.3220   102.2900    88.3720    65.5540   -23.4940 
  224.6250     2.1130    67.9190    99.8920    86.4430    72.3670   -23.5230 
  224.7500     2.1330    65.4560    96.9170    83.9910    76.9710   -23.5410 
  224.8750     2.1510    63.4850    94.1590    81.6220    74.7260   -23.5050 
  225.0000     2.1750    62.5280    92.2730    79.9410    70.1210   -23.3490 
  225.1250     2.2100    61.6530    91.3920    79.2410    67.4540   -23.2050 
  225.2500     2.2620    61.3370    90.5920    79.0270    68.9480   -22.8530 
  225.3750     2.3280    62.1690    88.2170    77.8920    72.1590   -22.4850 
  225.5000     2.3940    62.7380    83.1140    74.6910    73.4140   -22.0530 
  225.6250     2.4290    62.8400    75.1970    69.0450    70.9550   -21.5510 
  225.7500     2.4030    62.8180    65.7050    61.5850    60.8440   -21.0660 
  225.8750     2.3550    63.9240    56.9650    54.2470    44.2080   -20.5290 
  226.0000     2.3200    66.9750    50.2760    48.3260    33.5150   -20.0560 
  226.1250     2.3040    70.7510    45.9760    44.3870    32.1570   -19.5070 
  226.2500     2.2950    72.1720    43.6680    42.3390    34.0610   -19.0260 
  226.3750     2.2880    70.5630    41.7370    40.8110    36.5280   -18.5360 
  226.5000     2.2910    68.8210    38.8950    38.5550    40.4110   -18.0330 
  226.6250     2.3130    68.7370    34.2700    34.5470    42.1130   -17.5350 
  226.7500     2.3470    69.8950    27.7330    28.3620    41.8900   -16.8870 
  226.8750     2.3580    69.7210    20.8380    21.5420    38.6110   -16.2720 
  227.0000     2.3280    67.3160    14.9020    15.5270    28.8150   -15.6200 
  227.1250     2.2800    63.8000    10.6320    11.0950    14.8790   -15.0080 
  227.2500     2.2430    59.3290     8.2240     8.4500     8.6510   -14.4740 
  227.3750     2.2180    54.9210     6.9250     6.9010     6.1990   -13.9920 
  227.5000     2.2030    53.6620     6.3210     6.0890     5.5410   -13.6290 
  227.6250     2.2050    58.5190     6.1410     5.7740     5.3870   -13.3610 
  227.7500     2.2330    65.8000     6.2750     5.8560     5.3980   -13.3880 
  227.8750     2.2630    71.3590     6.6110     6.1890     5.6310   -13.5530 
  228.0000     2.2830    75.9490     7.1110     6.7190     6.0770   -13.8920 
  228.1250     2.2920    80.9730     7.7080     7.3780     6.9800   -14.4230 
  228.2500     2.2920    85.2470     8.2770     8.0490     8.2070   -15.0250 
  228.3750     2.2850    87.4410     8.6930     8.5890     9.2950   -15.7230 
  228.5000     2.2730    87.9120     8.8880     8.9010     9.6270   -16.4200 
  228.6250     2.2600    87.5830     8.8790     8.9630     9.0060   -17.1570 
  228.7500     2.2530    88.8820     8.7470     8.8150     8.7400   -17.7520 
  228.8750     2.2540    92.6980     8.6190     8.5970     8.6960   -18.2590 
  229.0000     2.2600    97.5360     8.5400     8.3840     8.7050   -18.6830 
  229.1250     2.2640   101.8410     8.5070     8.2130     8.6120   -18.9570 
  229.2500     2.2590   105.5390     8.4820     8.0970     8.4900   -19.1960 
  229.3750     2.2480   110.3420     8.4210     8.0250     8.4640   -19.3300 
  229.5000     2.2260   115.8700     8.3410     8.0000     8.5840   -19.4500 
  229.6250     2.1920   119.4520     8.3180     8.0240     8.8160   -19.5310 
  229.7500     2.1810   117.1700     8.3860     8.0940     9.0600   -19.6750 
  229.8750     2.1990   110.8900     8.5690     8.1970     9.2680   -19.8940 
  230.0000     2.2220   104.4160     8.8940     8.3580     9.4960   -20.1320 
  230.1250     2.2350   100.9390     9.5410     8.6510     9.7530   -20.4960 
  230.2500     2.1930   100.8880    10.5020     9.2650    10.2600   -20.9270 
  230.3750     2.1530   102.3490    12.0190    10.3250    11.2680   -21.4570 
  230.5000     2.1440   102.2950    14.1590    11.9510    13.6530   -22.0780 
  230.6250     2.1620    98.4680    16.8460    14.1760    17.6770   -22.7050 
  230.7500     2.1860    92.0470    19.8370    16.9280    22.5310   -23.3630 
  230.8750     2.2070    87.4200    22.6710    19.7890    26.5970   -23.9680 
  231.0000     2.2250    85.1140    24.9990    22.3660    28.7830   -24.5150 
  231.1250     2.2350    83.8390    26.6290    24.3290    29.4990   -24.9450 
  231.2500     2.2320    83.4020    27.5270    25.4690    30.0550   -25.2200 
  231.3750     2.2260    82.9730    28.0750    26.1040    30.9650   -25.4420 
  231.5000     2.2220    81.7310    28.5110    26.4910    32.4610   -25.5050 
  231.6250     2.2230    79.3770    28.9640    26.8060    33.8040   -25.5250 
  231.7500     2.2260    76.7700    29.4880    27.1460    35.2040   -25.4120 
  231.8750     2.2230    74.6590    30.1110    27.5650    37.1630   -25.1890 
  232.0000     2.2130    73.9180    30.9220    28.1450    38.5310   -24.9530 
  232.1250     2.1930    74.9360    32.0640    29.0130    37.3190   -24.6700 
  232.2500     2.1630    76.1960    33.7780    30.3970    34.8590   -24.4490 
  232.3750     2.1460    76.5470    36.0360    32.3000    35.2040   -24.1880 
  232.5000     2.1580    75.3930    38.7300    34.6640    38.0830   -23.9640 
  232.6250     2.1920    72.5250    41.6150    37.3040    43.0180   -23.7670 
  232.7500     2.2290    69.3500    44.2880    39.8900    45.0100   -23.5560 
  232.8750     2.2540    67.7370    46.4700    42.1170    45.6130   -23.4220 
  233.0000     2.2470    68.1390    48.0800    43.8540    46.3860   -23.2600 
  233.1250     2.2040    69.3600    49.2230    45.1460    48.4680   -23.1380 
  233.2500     2.1560    69.2910    50.0860    46.1350    51.2120   -23.0150 
  233.3750     2.1350    68.0830    50.8520    47.0160    53.8930   -22.8300 
  233.5000     2.1390    66.8810    51.5030    47.8020    55.9610   -22.6320 
  233.6250     2.1540    67.5570    51.9270    48.4080    57.2200   -22.3510 
  233.7500     2.1750    70.6670    51.9310    48.6530    57.6480   -22.1180 
  233.8750     2.1990    73.2580    51.5150    48.5090    56.9610   -21.8750 
  234.0000     2.2190    73.5960    50.6860    47.9690    55.3260   -21.6460 
  234.1250     2.2310    72.0950    49.4690    47.0450    53.2660   -21.4350 
  234.2500     2.2370    70.8130    48.2430    45.6890    51.5400   -21.1590 
  234.3750     2.2390    70.2820    46.8530    43.9880    50.8410   -20.9780 
  234.5000     2.2380    70.5210    45.5120    42.0480    49.7780   -20.7820 
  234.6250     2.2370    71.8950    44.8570    40.0690    47.5330   -20.6300 
  234.7500     2.2440    72.7210    42.9800    38.3460    44.1170   -20.4330 
  234.8750     2.2570    72.6670    41.5360    37.0050    41.4180   -20.2060 
  235.0000     2.2740    73.2200    40.4790    36.0540    41.2130   -19.9650 
  235.1250     2.2870    75.2080    39.6970    35.4170    43.3320   -19.6040 
  235.2500     2.2910    77.2420    39.1270    35.0390    44.6520   -19.2640 
  235.3750     2.2880    77.1000    38.7730    34.8700    42.4360   -18.8480 
  235.5000     2.2790    75.8310    38.7590    34.9840    39.3200   -18.4170 
  235.6250     2.2690    75.6200    39.2170    35.4890    38.5980   -17.9750 
  235.7500     2.2600    76.4820    40.2170    36.5020    40.9560   -17.5280 
  235.8750     2.2540    77.4480    41.3610    37.7530    44.3460   -17.1050 
  236.0000     2.2550    78.3390    42.0740    38.7780    47.1340   -16.6920 
  236.1250     2.2610    79.2320    41.6840    38.9470    47.9690   -16.4180 
