~V
VERS. 2.00: Ver 2.00
~W
STRT.M 56.0000:
STOP.M 263.0000:
STEP.M 0.1250:
NULL. -999.2500:
UWI. F10207:
~C
DEPT.M :
DEN.GM/CC :
GR.API :
RML.OHMM :
RI. :
RXO.OHMM :
SP.MV :
~A
# ...
  184.7500     2.2530    77.5780    72.1590    64.9610    56.1040   -20.6180 
  184.8750     2.2450    81.8260    69.8140    62.0100    58.3560   -20.7520 
  185.0000     2.2360    82.8850    69.3010    60.8970    58.7060   -20.8720 
  185.1250     2.2310    79.6990    70.1160    61.1980    57.2530   -21.0330 
  185.2500     2.2320    74.9580    71.9000    62.6560    58.0660   -21.2360 
  185.3750     2.2320    72.2990    74.0190    64.6670    62.0520   -21.3900 
  185.5000     2.2310    72.5380    76.0610    66.8390    68.8720   -21.5850 
  185.6250     2.2330    73.9660    77.7530    68.8750    75.2680   -21.6610 
  185.7500     2.2400    73.9490    79.0570    70.6790    74.3730   -21.7300 
  185.8750     2.2440    73.4550    80.2930    72.4790    70.5630   -21.7410 
  186.0000     2.2440    73.5460    81.5390    74.3810    68.6200   -21.6740 
  186.1250     2.2430    74.3530    82.3470    76.0610    71.4270   -21.6310 
  186.2500     2.2500    73.9990    81.1340    76.1590    78.1770   -21.4660 
  186.3750     2.2650    73.0100    76.6820    73.3740    81.0680   -21.3040 
  186.5000     2.2870    72.2100    68.4220    66.8590    74.4540   -21.0510 
  186.6250     2.3120    73.0150    57.2100    57.0380    60.7430   -20.7950 
  186.7500     2.3540    75.9770    45.5220    45.9970    46.3670   -20.5170 
  186.8750     2.4090    80.9070    35.9330    36.5220    32.8770   -20.2060 
  187.0000     2.4480    87.1950    29.3450    29.7440    22.4940   -19.9860 
  187.1250     2.4390    91.9400    25.5370    25.6250    17.4740   -19.7390 
  187.2500     2.3920    91.9330    24.0240    23.7890    17.8280   -19.6040 
  187.3750     2.3630    89.6510    23.7320    23.2240    19.5120   -19.5430 
  187.5000     2.3610    88.1290    24.2530    23.5380    20.4440   -19.5370 
  187.6250     2.3680    87.9610    25.3750    24.5150    18.5960   -19.6290 
  187.7500     2.3580    87.6590    27.0670    26.1150    18.7000   -19.8390 
  187.8750     2.3370    87.7280    29.1090    28.1200    21.4650   -20.2000 
  188.0000     2.3200    89.1830    31.2650    30.3230    25.4740   -20.6330 
  188.1250     2.3150    90.9480    33.2020    32.3950    28.9620   -21.0880 
  188.2500     2.3150    90.8010    34.5150    33.8430    30.5020   -21.5800 
  188.3750     2.3140    89.4900    35.2910    34.5680    30.4630   -22.0700 
  188.5000     2.3120    87.5400    35.9330    34.8070    29.4630   -22.6330 
  188.6250     2.3120    85.2360    37.1130    35.1470    28.7700   -23.2240 
  188.7500     2.3140    83.7820    39.7730    36.5140    29.5680   -23.7990 
  188.8750     2.3150    83.8620    44.0410    39.2650    33.3470   -24.3380 
  189.0000     2.3110    82.6630    49.7400    43.4370    40.2940   -24.7710 
  189.1250     2.3000    78.6790    56.2950    48.6910    49.7570   -25.2320 
  189.2500     2.2780    75.5560    62.7140    54.3120    58.7040   -25.6010 
  189.3750     2.2550    75.0510    68.0710    59.3400    64.0860   -25.9310 
  189.5000     2.2380    76.1280    71.9290    63.2130    62.3820   -26.2050 
  189.6250     2.2310    78.0980    74.4200    65.8560    58.7460   -26.4040 
  189.7500     2.2330    80.2290    76.1140    67.6290    60.5360   -26.6040 
  189.8750     2.2370    79.6670    77.8180    69.2890    62.4090   -26.7030 
  190.0000     2.2420    77.2250    79.6950    71.1030    63.8360   -26.8070 
  190.1250     2.2470    76.2600    81.3540    72.8490    64.5470   -26.8550 
  190.2500     2.2550    78.8810    81.7260    73.6250    66.6010   -26.8750 
  190.3750     2.2650    81.6020    80.2830    72.7960    68.9770   -26.9740 
  190.5000     2.2760    81.1220    77.1260    70.2240    70.5520   -27.0780 
  190.6250     2.2890    78.0920    73.2690    66.5760    69.0270   -27.2340 
  190.7500     2.2990    74.2730    71.0000    63.6590    59.9720   -27.3540 
  190.8750     2.2990    71.1010    72.2840    63.4420    50.3110   -27.5120 
  191.0000     2.2840    68.9910    78.4110    67.4220    50.8060   -27.7510 
  191.1250     2.2550    67.3450    89.6440    76.3500    67.6890   -28.0210 
  191.2500     2.2190    66.1040   105.1550    90.3140   101.3540   -28.3610 
  191.3750     2.1930    65.3680   120.9870   106.0440   139.4230   -28.6560 
  191.5000     2.1880    65.8100   133.0820   119.8480   170.2710   -28.8820 
  191.6250     2.2000    67.6180   137.7090   127.8310   169.1070   -29.0890 
  191.7500     2.2160    69.8320   131.9150   126.1340   128.8450   -29.2710 
  191.8750     2.2270    71.5330   119.8940   117.3220   108.0600   -29.4650 
  192.0000     2.2340    71.2690   106.3930   105.2330   105.3790   -29.5490 
  192.1250     2.2430    69.6590    95.6490    94.1320   106.4020   -29.5470 
  192.2500     2.2500    69.1630    91.2330    88.0710    99.9200   -29.5550 
  192.3750     2.2490    69.2310    93.3880    88.0510    85.6850   -29.4740 
  192.5000     2.2420    68.5960   102.4880    94.7420    88.9070   -29.4620 
  192.6250     2.2330    67.4870   118.4180   108.1690   115.8240   -29.3940 
  192.7500     2.2280    68.0120   141.1370   128.3150   142.8360   -29.2390 
  192.8750     2.2260    68.2030   167.6080   152.2300   163.9050   -29.1140 
  193.0000     2.2270    65.9850   195.1830   177.4520   179.6640   -28.9700 
  193.1250     2.2270    63.8830   220.8380   201.3040   191.0520   -28.9240 
  193.2500     2.2260    65.3740   240.4980   220.5370   201.0090   -28.8890 
  193.3750     2.2260    67.3280   252.0960   233.5300   211.4180   -28.9000 
  193.5000     2.2300    66.8860   254.2830   237.7200   209.7220   -28.9240 
  193.6250     2.2360    65.3810   243.5860   230.3160   186.1340   -28.9370 
  193.7500     2.2440    65.2620   219.5700   208.4990   150.8340   -29.1030 
  193.8750     2.2520    64.5450   189.8690   178.3300   118.5150   -29.2450 
  194.0000     2.2620    63.8590   157.2990   146.7020    91.8850   -29.4050 
  194.1250     2.2740    65.9950   127.8940   119.9730    74.3410   -29.5960 
  194.2500     2.2760    70.0240   109.2020   102.2830    70.0120   -29.7040 
  194.3750     2.2650    71.1350    97.2850    91.2450    71.5960   -29.8370 
  194.5000     2.2500    68.4820    89.4250    84.5470    76.8920   -29.9970 
  194.6250     2.2450    66.3700    83.4790    80.0270    84.4080   -30.1760 
  194.7500     2.2590    67.1580    78.2480    76.2670    80.9860   -30.3560 
  194.8750     2.2800    68.6360    73.4330    72.7290    66.0570   -30.5080 
  195.0000     2.2980    70.5440    69.4370    69.7130    55.6760   -30.7250 
  195.1250     2.3070    74.1300    66.6280    67.6220    53.3970   -30.9020 
  195.2500     2.2990    79.3130    64.9730    66.5740    51.2760   -31.0450 
  195.3750     2.2810    82.0810    63.3520    65.6110    49.5490   -31.2040 
  195.5000     2.2640    81.7960    60.6700    63.5680    48.3230   -31.2670 
  195.6250     2.2580    80.7710    56.3130    59.5640    47.7260   -31.3660 
  195.7500     2.2670    80.4230    50.7830    53.7250    48.2030   -31.3860 
  195.8750     2.2820    79.3920    46.0870    48.1380    48.2700   -31.3380 
  196.0000     2.2890    76.9870    43.8980    44.6520    47.3230   -31.2590 
  196.1250     2.2820    74.8230    45.1530    44.4360    52.6410   -31.1280 
  196.2500     2.2680    74.0370    50.3350    48.2820    65.5280   -31.1290 
  196.3750     2.2660    71.7140    57.8950    54.8380    85.4470   -31.1610 
  196.5000     2.2760    67.5200    66.5740    62.8330   101.8040   -31.2300 
  196.6250     2.2870    64.8140    75.2510    70.9070    95.5860   -31.3350 
  196.7500     2.2840    66.5700    83.5190    78.1170    78.3350   -31.4530 
  196.8750     2.2700    69.4270    92.6230    85.3330    75.7630   -31.6950 
  197.0000     2.2540    70.3120   104.8110    94.6130    85.8950   -31.9470 
  197.1250     2.2450    69.7980   122.5200   108.3140   103.7390   -32.2510 
  197.2500     2.2410    69.0870   148.1090   128.9690   129.7350   -32.5900 
  197.3750     2.2360    68.3970   178.3980   155.2430   158.1900   -32.8520 
  197.5000     2.2240    68.0770   211.7670   185.1630   192.9130   -33.1560 
