~V
VERS. 2.00: Ver 2.00
~W
STRT.M 56.0000:
STOP.M 263.0000:
STEP.M 0.1250:
NULL. -999.2500:
UWI. F10207:
~C
DEPT.M :
DEN.GM/CC :
GR.API :
RML.OHMM :
RI. :
RXO.OHMM :
SP.MV :
~A
# ...
   68.8750     1.8820    65.2310     8.5020     7.4700    10.3200   -30.9600 
   69.0000     1.9750    66.8470     8.4850     7.4270    10.0200   -30.3280 
   69.1250     2.0530    69.9910     8.5020     7.4260    10.0970   -29.6390 
   69.2500     2.0880    73.8030     8.5520     7.4700    10.3270   -28.9980 
   69.3750     2.1010    77.3960     8.6260     7.5380    10.5390   -28.3170 
   69.5000     2.1160    79.8710     8.7200     7.6170    10.6950   -27.5540 
   69.6250     2.1540    80.1830     8.8350     7.6970    10.7870   -26.8190 
   69.7500     2.2090    79.5740     8.9660     7.7620    10.8750   -26.1430 
   69.8750     2.2440    79.9590     9.0920     7.8040    10.9380   -25.4240 
   70.0000     2.2440    80.2700     9.1840     7.8140    10.9330   -24.6920 
   70.1250     2.2220    79.0250     9.2060     7.7740    10.8190   -24.0540 
   70.2500     2.1940    78.3680     9.0980     7.6490    10.5860   -23.4530 
   70.3750     2.1710    80.8710     8.8490     7.4240    10.2700   -22.8390 
   70.5000     2.1740    85.7180     8.4630     7.0960     9.9100   -22.3040 
   70.6250     2.2150    90.8240     8.0060     6.7000     9.4960   -21.9050 
   70.7500     2.2840    96.3550     7.6680     6.3470     8.9120   -21.5900 
   70.8750     2.3510   100.9190     7.7050     6.2080     8.4350   -21.3990 
   71.0000     2.4010   102.2860     8.3710     6.4780     8.5150   -21.4230 
   71.1250     2.4300   100.8380     9.8220     7.3240     9.7620   -21.5510 
   71.2500     2.4250    97.4740    12.0350     8.8860    14.2780   -21.8690 
   71.3750     2.3700    91.6170    14.3810    10.8110    23.0600   -22.5370 
   71.5000     2.2580    82.8850    16.1540    12.6170    34.2110   -23.4710 
   71.6250     2.1240    74.9740    16.6750    13.6910    45.1960   -24.4990 
   71.7500     2.0350    72.7950    15.4320    13.3420    47.3390   -25.6700 
   71.8750     2.0090    72.9820    13.2610    11.9770    35.8200   -26.8830 
   72.0000     2.0250    73.0050    11.0730    10.2900    20.8970   -27.9720 
   72.1250     2.0540    72.8610     9.4980     8.8630    12.9500   -28.9920 
   72.2500     2.0800    73.7010     8.7800     7.9960    11.3650   -29.8950 
   72.3750     2.1020    74.1140     8.5790     7.5500    11.1380   -30.5020 
   72.5000     2.1170    72.0880     8.6460     7.3880    11.1860   -30.8900 
   72.6250     2.1190    67.9410     8.7910     7.3810    11.1090   -31.0970 
   72.7500     2.1030    63.8790     8.8970     7.4300    11.0310   -31.0820 
   72.8750     2.0810    61.6760     8.9520     7.4800    10.9420   -31.0030 
   73.0000     2.0610    61.6830     8.9760     7.5230    10.8330   -30.8960 
   73.1250     2.0570    63.1550     8.9860     7.5620    10.7360   -30.7250 
   73.2500     2.0840    64.9500     8.9800     7.5840    10.6460   -30.5600 
   73.3750     2.1300    67.3550     8.9490     7.5760    10.6610   -30.4500 
   73.5000     2.1700    69.8180     8.8890     7.5280    10.7610   -30.4180 
   73.6250     2.1880    71.0170     8.8130     7.4430    10.9290   -30.5420 
   73.7500     2.1860    71.6580     8.7550     7.3440    11.1100   -30.7490 
   73.8750     2.1750    73.1200     8.7480     7.2660    11.2190   -30.9810 
   74.0000     2.1610    75.7360     8.8030     7.2280    11.3050   -31.2730 
   74.1250     2.1490    78.0260     8.9070     7.2330    11.3960   -31.6160 
   74.2500     2.1410    78.3500     9.0180     7.2720    11.4850   -31.8800 
   74.3750     2.1280    76.5620     9.0880     7.3120    11.4830   -31.9980 
   74.5000     2.1130    74.1170     9.0970     7.3310    11.4150   -31.9960 
   74.6250     2.1000    72.9340     9.0450     7.3150    11.2640   -31.8910 
   74.7500     2.0940    72.0580     8.9480     7.2570    11.0560   -31.6650 
   74.8750     2.0910    70.2930     8.8370     7.1710    10.8090   -31.3480 
   75.0000     2.0890    68.6780     8.7330     7.0740    10.6120   -31.0620 
   75.1250     2.0890    68.4180     8.6560     6.9840    10.4870   -30.8040 
   75.2500     2.0920    68.7910     8.6280     6.9180    10.4220   -30.5160 
   75.3750     2.1000    67.8490     8.6410     6.8760    10.3950   -30.3740 
   75.5000     2.1100    65.7690     8.6780     6.8540    10.3650   -30.2780 
   75.6250     2.1160    64.9570     8.7110     6.8420    10.2230   -30.1760 
   75.7500     2.1160    67.4490     8.7000     6.8290    10.0920   -30.1850 
   75.8750     2.1100    70.2180     8.6350     6.8050    10.0730   -30.1600 
   76.0000     2.1010    70.8010     8.5260     6.7630    10.2370   -30.0260 
   76.1250     2.0950    71.0360     8.3990     6.7030    10.5970   -29.8400 
   76.2500     2.0890    72.6640     8.2940     6.6340    11.0450   -29.6340 
   76.3750     2.0650    72.9350     8.2310     6.5730    11.4210   -29.4280 
   76.5000     2.0250    71.3680     8.2170     6.5330    11.5940   -29.2400 
   76.6250     1.9900    69.7770     8.2450     6.5280    11.2480   -29.0890 
   76.7500     1.9850    69.3080     8.3080     6.5680    10.5830   -29.0040 
   76.8750     2.0040    68.7830     8.3900     6.6470    10.3300   -28.9890 
   77.0000     2.0330    67.4380     8.4780     6.7550    10.6140   -29.0370 
   77.1250     2.0620    66.4050     8.5520     6.8740    11.1970   -29.1630 
   77.2500     2.0810    66.9520     8.5860     6.9730    11.5950   -29.3590 
   77.3750     2.0870    67.8470     8.5710     7.0280    11.7070   -29.5650 
   77.5000     2.0880    68.1620     8.5140     7.0290    11.5780   -29.7120 
   77.6250     2.0940    68.4660     8.4340     6.9780    11.3080   -29.7850 
   77.7500     2.1090    70.0540     8.3560     6.8960    11.0260   -29.6680 
   77.8750     2.1190    70.7970     8.2920     6.8160    10.9340   -29.3700 
   78.0000     2.1190    69.6300     8.2300     6.7570    11.0020   -28.8890 
   78.1250     2.1140    68.5140     8.1510     6.7200    10.9770   -28.1490 
   78.2500     2.1130    67.9730     8.0360     6.6910    10.8090   -27.0030 
   78.3750     2.1190    68.9000     7.8960     6.6480    10.6510   -25.4910 
   78.5000     2.1250    71.2220     7.7590     6.5870    10.4910   -23.7270 
   78.6250     2.1270    73.5780     7.6720     6.5290    10.2680   -21.6310 
   78.7500     2.1400    74.2230     7.7040     6.5280    10.1270   -19.2700 
   78.8750     2.1910    75.0960     7.8290     6.5940    10.1570   -16.8060 
   79.0000     2.2780    79.7610     7.9660     6.6820    10.4260   -14.3330 
   79.1250     2.3540    88.2590     7.9950     6.7090    10.8500   -11.9990 
   79.2500     2.3630    97.5600     7.7500     6.5450    11.1110    -9.9960 
   79.3750     2.3410   103.8040     7.2360     6.1650    10.1290    -8.4140 
   79.5000     2.3200   108.2340     6.5390     5.6130     7.4630    -7.2020 
   79.6250     2.2970   114.7670     5.8310     5.0080     5.7940    -6.4030 
   79.7500     2.2550   121.9340     5.3570     4.5320     5.4110    -6.1290 
   79.8750     2.2150   125.0540     5.2600     4.3030     5.3930    -6.2620 
   80.0000     2.1990   121.0920     5.6320     4.4070     5.4750    -6.7250 
   80.1250     2.2160   112.1960     6.4820     4.8770     5.7590    -7.4710 
   80.2500     2.2640   103.6060     7.7210     5.7090     6.5420    -8.4660 
   80.3750     2.3170    96.9690     8.9910     6.6780     7.7270    -9.5520 
   80.5000     2.3480    90.2920     9.9420     7.5410     9.0010   -10.6890 
   80.6250     2.3460    83.4090    10.2820     8.0420     9.8810   -11.8530 
   80.7500     2.3290    82.0030     9.8580     7.9470     9.3560   -12.9840 
   80.8750     2.3150    86.8100     9.1070     7.4880     8.3570   -14.1110 
   81.0000     2.2990    92.3370     8.4550     6.9700     7.5770   -15.3260 
   81.1250     2.2710    92.8930     8.1840     6.6470     7.5360   -16.6140 
   81.2500     2.2220    86.8030     8.3880     6.6660     8.4270   -17.9340 
   81.3750     2.1580    79.7600     8.8180     6.9260     9.7800   -19.2110 
   81.5000     2.0750    74.9420     9.2670     7.3090    11.1460   -20.4650 
   81.6250     1.9720    72.0680     9.5810     7.6900    11.8630   -21.6860 
