~V
VERS. 2.00: Ver 2.00
~W
STRT.M 56.0000:
STOP.M 263.0000:
STEP.M 0.1250:
NULL. -999.2500:
UWI. F10207:
~C
DEPT.M :
DEN.GM/CC :
GR.API :
RML.OHMM :
RI. :
RXO.OHMM :
SP.MV :
~A
# ...
   94.6250     2.0670    68.6810     8.2920     6.5640    10.8800   -27.7040 
   94.7500     2.0650    66.1050     8.3320     6.6220    10.8980   -27.7110 
   94.8750     2.0680    66.2610     8.3590     6.6710    10.9710   -27.6520 
   95.0000     2.0660    66.5190     8.3720     6.7070    11.0200   -27.4870 
   95.1250     2.0500    65.9910     8.3580     6.7190    11.0100   -27.2340 
   95.2500     2.0300    65.5580     8.2940     6.6850    10.9760   -26.9060 
   95.3750     2.0270    65.2430     8.1830     6.6020    10.9180   -26.5140 
   95.5000     2.0350    65.9810     8.0390     6.4750    10.8380   -26.0390 
   95.6250     2.0460    68.5320     7.8960     6.3290    10.8160   -25.5610 
   95.7500     2.0620    71.7880     7.8160     6.2090    10.8690   -25.0780 
   95.8750     2.0770    72.5510     7.8340     6.1520    10.7970   -24.6180 
   96.0000     2.0900    71.1760     7.9560     6.1760    10.6560   -24.2830 
   96.1250     2.0960    70.0200     8.1580     6.2770    10.6840   -24.0420 
   96.2500     2.0770    70.1280     8.3850     6.4290    11.0700   -23.9170 
   96.3750     2.0570    69.4020     8.5780     6.5850    11.6030   -23.9100 
   96.5000     2.0370    67.2890     8.7210     6.7200    11.8330   -24.0100 
   96.6250     2.0150    65.8780     8.8320     6.8340    11.7880   -24.1640 
   96.7500     2.0000    66.1750     8.9540     6.9470    11.6580   -24.2890 
   96.8750     2.0090    66.4720     9.1020     7.0770    11.5010   -24.3870 
   97.0000     2.0430    66.2850     9.2520     7.2150    11.3410   -24.3930 
   97.1250     2.0930    66.8460     9.3510     7.3310    11.1830   -24.2800 
   97.2500     2.1360    69.3000     9.3260     7.3680    10.9610   -24.1670 
   97.3750     2.1640    72.6050     9.1850     7.3150    10.6880   -23.9750 
   97.5000     2.1790    75.7170     8.9720     7.1880    10.4120   -23.7870 
   97.6250     2.1890    77.3080     8.7550     7.0280    10.2150   -23.6020 
   97.7500     2.1930    77.9050     8.6040     6.8900    10.1160   -23.4070 
   97.8750     2.1900    77.1790     8.5290     6.7990    10.1640   -23.3370 
   98.0000     2.1780    74.9080     8.5100     6.7560    10.3210   -23.3030 
   98.1250     2.1570    72.2190     8.5120     6.7430    10.4660   -23.3460 
   98.2500     2.1310    69.5650     8.5040     6.7410    10.6070   -23.3670 
   98.3750     2.1090    67.2550     8.4840     6.7380    10.7630   -23.4130 
   98.5000     2.0960    65.2610     8.4630     6.7380    10.9550   -23.4730 
   98.6250     2.0930    64.9860     8.4530     6.7470    11.1340   -23.5230 
   98.7500     2.0980    67.0630     8.4540     6.7700    11.3150   -23.5890 
   98.8750     2.1050    68.9190     8.4520     6.8030    11.4100   -23.5840 
   99.0000     2.1120    70.2950     8.4350     6.8360    11.4340   -23.6160 
   99.1250     2.1130    71.0490     8.3970     6.8580    11.4450   -23.6270 
   99.2500     2.1100    69.8540     8.3460     6.8580    11.4370   -23.6710 
   99.3750     2.1080    66.8930     8.3020     6.8420    11.4040   -23.7400 
   99.5000     2.1080    64.5330     8.2810     6.8200    11.3350   -23.7350 
   99.6250     2.1070    65.2850     8.2910     6.8070    11.2170   -23.7120 
   99.7500     2.1010    67.9180     8.3370     6.8170    11.1330   -23.6450 
   99.8750     2.0910    68.3710     8.3900     6.8390    11.1470   -23.4740 
  100.0000     2.0810    66.5170     8.4090     6.8480    11.1750   -23.1660 
  100.1250     2.0790    63.6200     8.3410     6.8090    11.1130   -22.7230 
  100.2500     2.0850    62.2220     8.1300     6.6690    10.9120   -22.1310 
  100.3750     2.1050    64.2130     7.8260     6.4450    10.5220   -21.4420 
  100.5000     2.1440    69.3440     7.5210     6.1870     9.8640   -20.7890 
  100.6250     2.2000    76.0330     7.3400     5.9820     9.0330   -20.2880 
  100.7500     2.2480    81.6200     7.4260     5.9500     8.4830   -20.0240 
  100.8750     2.2610    85.9960     7.7550     6.1140     8.7220   -20.0960 
  101.0000     2.2300    87.5980     8.2590     6.4580     9.7670   -20.4150 
  101.1250     2.1770    84.4850     8.8170     6.9160    11.0420   -20.9170 
  101.2500     2.1380    78.5180     9.2700     7.3790    11.8800   -21.5930 
  101.3750     2.1220    74.1350     9.5390     7.7430    11.9620   -22.3200 
  101.5000     2.1110    72.1020     9.6240     7.9660    11.8010   -23.0710 
  101.6250     2.0930    70.6100     9.5880     8.0630    11.7400   -23.6510 
  101.7500     2.0710    69.4090     9.5250     8.0870    11.8090   -24.0390 
  101.8750     2.0530    68.6520     9.4980     8.1020    11.8990   -24.1270 
  102.0000     2.0370    67.2670     9.5080     8.1220    11.8790   -23.9960 
  102.1250     2.0200    65.4500     9.5270     8.1380    11.6810   -23.7370 
  102.2500     2.0190    65.0920     9.5220     8.1290    11.2910   -23.3780 
  102.3750     2.0500    65.3540     9.4890     8.0940    10.7570   -22.9890 
  102.5000     2.1070    65.1630     9.4400     8.0430    10.1530   -22.5540 
  102.6250     2.1650    65.6250     9.3940     7.9920     9.6840   -22.1070 
  102.7500     2.1980    66.9690     9.3670     7.9580     9.4490   -21.5960 
  102.8750     2.2170    68.9320     9.3650     7.9430     9.2750   -21.1580 
  103.0000     2.2330    71.5800     9.3880     7.9470     9.0760   -20.7470 
  103.1250     2.2460    74.4000     9.4460     7.9750     8.9630   -20.4410 
  103.2500     2.2500    75.3710     9.5710     8.0480     9.0310   -20.1490 
  103.3750     2.2520    75.0130     9.7880     8.1890     9.3010   -19.9220 
  103.5000     2.2520    74.8840    10.1170     8.4240     9.8280   -19.7630 
  103.6250     2.2470    74.3030    10.5440     8.7620    10.5110   -19.7140 
  103.7500     2.2260    72.6430    10.9960     9.1770    10.9510   -19.7720 
  103.8750     2.1920    71.2860    11.3480     9.5690    11.1880   -19.8820 
  104.0000     2.1580    70.4010    11.4990     9.8440    11.3070   -20.0190 
  104.1250     2.1380    69.8280    11.3990     9.9310    11.3480   -20.1290 
  104.2500     2.1360    68.7720    11.0570     9.7860    11.4770   -20.2990 
  104.3750     2.1440    67.9570    10.6270     9.5130    11.6000   -20.3920 
  104.5000     2.1540    67.7830    10.2210     9.2010    11.6610   -20.4530 
  104.6250     2.1590    68.8540     9.9060     8.9190    11.6780   -20.3920 
  104.7500     2.1440    70.2380     9.6960     8.6990    11.6560   -20.2290 
  104.8750     2.1100    71.2260     9.5270     8.5150    11.5560   -19.9610 
  105.0000     2.0740    71.9850     9.3520     8.3370    11.3510   -19.5980 
  105.1250     2.0630    73.7350     9.1540     8.1490    11.1180   -19.2200 
  105.2500     2.0940    77.8430     8.9740     7.9740    10.8310   -18.8490 
  105.3750     2.1480    81.2350     8.8850     7.8640    10.5770   -18.6580 
  105.5000     2.1940    80.6570     8.9380     7.8630    10.3450   -18.5640 
  105.6250     2.2160    76.3770     9.1430     7.9860    10.0950   -18.6340 
  105.7500     2.2210    72.7700     9.4540     8.2180    10.1910   -18.8060 
  105.8750     2.2180    72.2890     9.7510     8.4730    11.0280   -19.0310 
  106.0000     2.2110    73.1050     9.9390     8.6780    11.9980   -19.3970 
  106.1250     2.2060    75.0190     9.9680     8.7740    12.4980   -19.8180 
  106.2500     2.2070    78.4470     9.8290     8.7250    12.7130   -20.3340 
  106.3750     2.1990    80.6260     9.6150     8.5820    12.7480   -20.7430 
  106.5000     2.1700    79.1670     9.3940     8.3950    12.2720   -21.0920 
  106.6250     2.1200    74.8010     9.2080     8.2060    11.6690   -21.3440 
  106.7500     2.0600    72.4840     9.0690     8.0420    11.3360   -21.6110 
  106.8750     2.0050    72.0050     8.9550     7.8960    11.2260   -21.8870 
  107.0000     1.9730    71.5700     8.8650     7.7730    11.2100   -22.1360 
  107.1250     1.9740    70.9570     8.8170     7.6880    11.2670   -22.3630 
  107.2500     2.0020    70.8310     8.8510     7.6790    11.2410   -22.5710 
  107.3750     2.0350    70.6110     8.9690     7.7490    11.1790   -22.8060 
