~V
VERS. 2.00: Ver 2.00
~W
STRT.M 56.0000:
STOP.M 263.0000:
STEP.M 0.1250:
NULL. -999.2500:
UWI. F10207:
~C
DEPT.M :
DEN.GM/CC :
GR.API :
RML.OHMM :
RI. :
RXO.OHMM :
SP.MV :
~A
# ...
  159.0000     2.2760   103.6250     4.8250     4.2570     3.8750    -5.7920 
  159.1250     2.2810   106.4500     5.3720     4.6370     4.1530    -5.9750 
  159.2500     2.2910   105.4410     6.1190     5.2600     4.7310    -6.2190 
  159.3750     2.3010   103.9000     6.9340     6.0140     5.7370    -6.4790 
  159.5000     2.3030   102.1190     7.6970     6.7910     7.1880    -6.7340 
  159.6250     2.2820    98.1460     8.3170     7.4740     8.8680    -7.0250 
  159.7500     2.2360    92.1100     8.8000     7.9740    10.2160    -7.2330 
  159.8750     2.1940    87.5690     9.3470     8.3980    10.6690    -7.4800 
  160.0000     2.1740    84.9650    10.1960     8.9350    10.4550    -7.6540 
  160.1250     2.1750    80.6210    11.5300     9.7880    11.5310    -7.7940 
  160.2500     2.1870    74.7650    13.4400    11.1470    14.8960    -7.9450 
  160.3750     2.2080    73.0330    15.6440    12.8860    18.6970    -8.0630 
  160.5000     2.2360    76.4480    17.8490    14.8110    21.2600    -8.1620 
  160.6250     2.2620    81.0640    19.7720    16.6580    20.7530    -8.1910 
  160.7500     2.2710    81.8220    21.2470    18.1510    18.1400    -8.2410 
  160.8750     2.2700    78.4680    22.5930    19.4150    17.0340    -8.2490 
  161.0000     2.2750    73.7280    24.2450    20.7900    17.7290    -8.2470 
  161.1250     2.2820    70.2580    26.5550    22.6440    19.6120    -8.2460 
  161.2500     2.2680    68.3830    29.7300    25.2900    21.8340    -8.1650 
  161.3750     2.2370    66.3910    33.3560    28.4900    25.5870    -8.1570 
  161.5000     2.2110    64.7050    36.9020    31.8410    31.1650    -8.1220 
  161.6250     2.2010    65.1510    39.7370    34.7830    36.4140    -8.1420 
  161.7500     2.2020    66.6320    41.1510    36.6330    36.9680    -8.1700 
  161.8750     2.2040    67.2090    41.3130    37.4120    35.5840    -8.2180 
  162.0000     2.2030    67.6190    40.6280    37.3910    34.2310    -8.3220 
  162.1250     2.1990    68.8140    39.6950    37.0640    33.2440    -8.4900 
  162.2500     2.1940    70.8610    39.1280    37.0200    33.0190    -8.6930 
  162.3750     2.1910    72.8250    39.0850    37.4860    33.2530    -8.8470 
  162.5000     2.1910    72.9540    39.5030    38.4430    34.1400    -9.0470 
  162.6250     2.1930    71.3500    40.2180    39.7320    35.1820    -9.2100 
  162.7500     2.1980    70.5420    40.9190    41.0410    35.5150    -9.3960 
  162.8750     2.2100    71.5520    41.1440    41.8920    35.2010    -9.5120 
  163.0000     2.2260    72.6030    40.3720    41.7400    34.1740    -9.5870 
  163.1250     2.2440    72.4830    38.1140    40.0280    32.1060    -9.5950 
  163.2500     2.2600    73.3720    33.8570    36.0890    29.0920    -9.5580 
  163.3750     2.2760    76.7770    28.2480    30.4880    24.7150    -9.4790 
  163.5000     2.2940    80.6880    22.1120    24.0470    19.6890    -9.3630 
  163.6250     2.3090    82.6830    16.4420    17.8790    14.7350    -9.2100 
  163.7500     2.3140    84.6620    12.3370    13.2200    11.0320    -9.0450 
  163.8750     2.3100    88.8530     9.9750    10.2540     8.5730    -8.9110 
  164.0000     2.3000    91.4490     9.3830     8.9240     7.7820    -8.7910 
  164.1250     2.2870    87.3800    10.4850     9.1180     9.5720    -8.7520 
  164.2500     2.2730    77.3010    13.3250    10.9950    15.4010    -8.7570 
  164.3750     2.2600    68.9300    17.1120    14.0570    23.1830    -8.8560 
  164.5000     2.2540    65.8290    20.9470    17.6880    31.3370    -8.9690 
  164.6250     2.2590    67.3480    23.7220    20.9280    35.8130    -9.1060 
  164.7500     2.2700    71.1380    24.1430    22.3610    29.6820    -9.2860 
  164.8750     2.2800    73.7570    22.6930    21.8670    23.0310    -9.4670 
  165.0000     2.2840    75.1900    20.5600    20.2710    19.0060    -9.6830 
  165.1250     2.2780    77.2410    18.9530    18.7220    17.4630    -9.9000 
  165.2500     2.2640    81.2400    18.4950    17.9600    17.5040   -10.1060 
  165.3750     2.2500    84.7830    18.7630    17.8220    17.5760   -10.3060 
  165.5000     2.2410    84.9800    19.3570    18.0440    17.4040   -10.5010 
  165.6250     2.2390    82.8630    19.9610    18.3730    17.2150   -10.7420 
  165.7500     2.2460    81.8210    20.3530    18.6090    17.1370   -10.9540 
  165.8750     2.2550    82.0800    20.5320    18.7040    17.0610   -11.1480 
  166.0000     2.2630    81.6630    20.5580    18.6910    16.8500   -11.3510 
  166.1250     2.2690    80.4740    20.4840    18.6100    16.5690   -11.4680 
  166.2500     2.2740    79.7910    20.3000    18.4510    16.3330   -11.5690 
  166.3750     2.2820    79.4520    19.9850    18.1840    16.1320   -11.6150 
  166.5000     2.2910    80.3200    19.5060    17.7680    15.8530   -11.6290 
  166.6250     2.3010    82.4610    18.8500    17.1830    15.4610   -11.6390 
  166.7500     2.3080    83.2560    18.0210    16.4270    14.9540   -11.5950 
  166.8750     2.3100    82.1090    17.1230    15.5940    14.3180   -11.5940 
  167.0000     2.3080    81.6980    16.2510    14.7680    13.5730   -11.5690 
  167.1250     2.3020    83.8850    15.5040    14.0350    12.7810   -11.5230 
  167.2500     2.2940    85.9050    15.0110    13.5050    12.1190   -11.5370 
  167.3750     2.2880    86.7160    14.7880    13.2020    11.6940   -11.5720 
  167.5000     2.2880    87.4080    14.8340    13.1370    11.5960   -11.5940 
  167.6250     2.2940    86.7170    15.1020    13.2900    11.7730   -11.6150 
  167.7500     2.2990    84.1680    15.5120    13.6240    12.2080   -11.6700 
  167.8750     2.2990    82.5540    15.9280    14.0240    12.7750   -11.6910 
  168.0000     2.2970    82.6160    16.2590    14.4030    13.3240   -11.7260 
  168.1250     2.2920    83.1110    16.4490    14.6880    13.7070   -11.7860 
  168.2500     2.2860    83.4690    16.4770    14.8220    13.8540   -11.8220 
  168.3750     2.2840    84.9320    16.4250    14.8460    13.8490   -11.9080 
  168.5000     2.2840    86.7890    16.3710    14.8200    13.7040   -12.0300 
  168.6250     2.2840    87.4920    16.3780    14.8070    13.5090   -12.1520 
  168.7500     2.2820    86.0920    16.4740    14.8530    13.4230   -12.2890 
  168.8750     2.2790    84.5450    16.5870    14.9250    13.5910   -12.4730 
  169.0000     2.2750    84.6700    16.6170    14.9490    13.8380   -12.6600 
  169.1250     2.2710    86.0260    16.4660    14.8370    14.0060   -12.8230 
  169.2500     2.2710    87.1210    16.0500    14.4950    13.8850   -13.0040 
  169.3750     2.2780    87.4120    15.4780    13.9840    13.4230   -13.1530 
  169.5000     2.2910    87.2770    14.9030    13.4220    12.7020   -13.2840 
  169.6250     2.3040    86.4510    14.5110    12.9650    11.8970   -13.4220 
  169.7500     2.3070    85.6110    14.5080    12.8070    11.3060   -13.5130 
  169.8750     2.2970    85.7570    14.8680    12.9700    11.2040   -13.5590 
  170.0000     2.2810    86.3190    15.4970    13.4190    11.6680   -13.5820 
  170.1250     2.2680    86.7770    16.2340    14.0510    12.6130   -13.6170 
  170.2500     2.2650    85.5260    16.8700    14.7110    13.7290   -13.6490 
  170.3750     2.2690    83.0240    17.3010    15.2620    14.3380   -13.6540 
  170.5000     2.2790    83.3440    17.5280    15.6620    14.4570   -13.6630 
  170.6250     2.2890    87.0160    17.6410    15.9480    14.3150   -13.6350 
  170.7500     2.2960    89.3050    17.7810    16.2160    14.1620   -13.5770 
  170.8750     2.3000    88.4660    18.0420    16.5600    14.3840   -13.6170 
  171.0000     2.3020    87.0730    18.4380    17.0070    14.7520   -13.6700 
  171.1250     2.2990    85.9670    18.9190    17.5300    15.0850   -13.7150 
  171.2500     2.2890    82.8550    19.3620    18.0340    15.3190   -13.7820 
  171.3750     2.2710    80.5270    19.6200    18.3900    15.5120   -13.8520 
  171.5000     2.2480    80.8710    19.5590    18.4680    15.6460   -13.9630 
  171.6250     2.2260    82.1630    19.0850    18.1660    15.6360   -14.1420 
  171.7500     2.2150    83.3410    18.1700    17.4090    15.1900   -14.3740 
