~V
VERS. 2.00: Ver 2.00
~W
STRT.M 56.0000:
STOP.M 263.0000:
STEP.M 0.1250:
NULL. -999.2500:
UWI. F10207:
~C
DEPT.M :
DEN.GM/CC :
GR.API :
RML.OHMM :
RI. :
RXO.OHMM :
SP.MV :
~A
# ...
  236.2500     2.2680    79.1190    39.4640    37.4640    46.9290   -16.0950 
  236.3750     2.2740    78.2460    35.8890    34.5700    44.4770   -15.7590 
  236.5000     2.2840    78.6110    31.7680    30.9080    38.4030   -15.4330 
  236.6250     2.3020    81.6620    28.0910    27.3950    29.6930   -15.0450 
  236.7500     2.3270    87.7100    25.7870    24.9610    24.0010   -14.6880 
  236.8750     2.3500    93.5880    24.7330    23.6600    22.4660   -14.2700 
  237.0000     2.3620    94.8870    24.5070    23.2320    24.1060   -13.8700 
  237.1250     2.3490    89.8350    24.4710    23.1770    26.5630   -13.4400 
  237.2500     2.3160    82.4690    23.8960    22.8400    26.4050   -13.0950 
  237.3750     2.2910    78.1520    22.5860    21.8780    24.6040   -12.8540 
  237.5000     2.2870    78.5820    20.7550    20.3430    22.0860   -12.6220 
  237.6250     2.3000    82.8860    18.8830    18.6040    19.1300   -12.4940 
  237.7500     2.3170    88.9700    17.5480    17.2070    17.0360   -12.3580 
  237.8750     2.3310    94.6400    16.8490    16.3630    16.8820   -12.2800 
  238.0000     2.3430    99.3440    16.6470    16.0330    17.5350   -12.1610 
  238.1250     2.3580   103.2780    16.6860    16.0340    18.2030   -11.9630 
  238.2500     2.3650   103.5420    16.6740    16.1210    18.5870   -11.7220 
  238.3750     2.3560    99.9400    16.4620    16.0820    18.6210   -11.3770 
  238.5000     2.3350    96.5890    16.0770    15.8750    17.8780   -11.0690 
  238.6250     2.3160    95.9990    15.6770    15.5960    16.4310   -10.7060 
  238.7500     2.3030    95.1700    15.5250    15.4670    16.0600   -10.3700 
  238.8750     2.2900    90.3930    15.7340    15.6340    16.3010   -10.0400 
  239.0000     2.2800    83.7510    16.3000    16.1340    17.1540    -9.7240 
  239.1250     2.2740    78.6820    17.0800    16.8830    18.2810    -9.5030 
  239.2500     2.2740    77.0750    17.7450    17.6160    19.3950    -9.2910 
  239.3750     2.2770    77.9670    17.9460    17.9610    20.0710    -9.1550 
  239.5000     2.2820    78.7350    17.4440    17.6210    19.9570    -8.9970 
  239.6250     2.2940    78.3030    16.2110    16.4820    18.9650    -8.8620 
  239.7500     2.3200    78.2120    14.4540    14.6770    17.1430    -8.7040 
  239.8750     2.3590    80.2770    12.7280    12.7880    14.4850    -8.5300 
  240.0000     2.3990    84.7440    11.4350    11.2350    11.5380    -8.4380 
  240.1250     2.4170    89.7260    10.8170    10.2730     9.6850    -8.3370 
  240.2500     2.4030    92.1990    11.0460    10.0880     9.9370    -8.3450 
  240.3750     2.3810    91.0480    11.9140    10.5280    11.4920    -8.3770 
  240.5000     2.3670    86.7330    13.2980    11.5140    13.7590    -8.4590 
  240.6250     2.3610    81.4060    15.0850    12.9620    16.1490    -8.5880 
  240.7500     2.3540    78.2230    17.2440    14.8490    17.9560    -8.7910 
  240.8750     2.3400    77.5690    19.6770    17.0570    20.1760    -9.0880 
  241.0000     2.3230    76.7060    22.3040    19.5230    23.9470    -9.3490 
  241.1250     2.3010    74.2700    24.9190    22.0930    28.4690    -9.6560 
  241.2500     2.2770    71.9480    27.0600    24.3840    32.6310    -9.9040 
  241.3750     2.2600    70.6950    28.3840    26.0040    36.0190   -10.1470 
  241.5000     2.2560    70.4540    28.7300    26.6890    35.7760   -10.3160 
  241.6250     2.2600    70.4030    28.2590    26.4700    32.3010   -10.4250 
  241.7500     2.2630    69.5170    27.4160    25.6800    29.2390   -10.5120 
  241.8750     2.2600    67.8990    26.7420    24.8970    28.0810   -10.4980 
  242.0000     2.2530    67.1840    26.4160    24.3680    27.9270   -10.5350 
  242.1250     2.2440    68.5860    26.3680    24.1160    28.1190   -10.5290 
  242.2500     2.2380    69.4830    26.3420    23.9820    27.8040   -10.5390 
  242.3750     2.2370    69.1430    26.0790    23.7170    27.0050   -10.5380 
  242.5000     2.2400    68.0540    25.4930    23.1990    26.0240   -10.5540 
  242.6250     2.2470    67.1320    24.6480    22.4390    24.8310   -10.6320 
  242.7500     2.2560    67.0720    23.7300    21.5600    23.0460   -10.6870 
  242.8750     2.2650    67.5340    22.9660    20.7640    20.9240   -10.8030 
  243.0000     2.2790    69.2580    22.5140    20.1960    19.0270   -10.8600 
  243.1250     2.3070    71.5600    22.5140    19.9890    17.5260   -10.9310 
  243.2500     2.3340    71.7300    23.2010    20.3660    16.7360   -10.9560 
  243.3750     2.3300    70.1700    24.5500    21.3390    17.5720   -10.9590 
  243.5000     2.2950    69.6660    26.4780    22.8930    20.5420   -10.9940 
  243.6250     2.2660    70.7370    28.6770    24.8260    25.4620   -10.9740 
  243.7500     2.2690    70.6500    30.4140    26.5790    30.8160   -10.9700 
  243.8750     2.2960    69.3670    30.9480    27.4410    33.8030   -10.8580 
  244.0000     2.3400    68.9930    29.7650    26.8390    33.8730   -10.7380 
  244.1250     2.3930    69.2190    26.8420    24.5910    30.9140   -10.5900 
  244.2500     2.4360    66.8990    22.7570    21.0730    26.1670   -10.4370 
  244.3750     2.4490    63.3870    18.7810    17.4790    21.1390   -10.2840 
  244.5000     2.4320    61.8510    15.6160    14.4960    16.5920   -10.1090 
  244.6250     2.4080    63.0000    13.4980    12.3880    13.3270    -9.9610 
  244.7500     2.3950    65.0830    12.4180    11.2080    12.7500    -9.7300 
  244.8750     2.3930    66.7320    11.8980    10.5890    13.0770    -9.5670 
  245.0000     2.4010    68.4470    11.6580    10.3100    13.4950    -9.3630 
  245.1250     2.4120    70.5570    11.4950    10.1850    12.2980    -9.1610 
  245.2500     2.4150    72.8730    11.2960    10.0810    10.0880    -8.9570 
  245.3750     2.4120    73.7060    11.0660     9.9460     8.7020    -8.7190 
  245.5000     2.4130    72.4990    10.8460     9.8040     8.1140    -8.4810 
  245.6250     2.4170    71.2910    10.6710     9.6890     8.0190    -8.1970 
  245.7500     2.4010    72.9230    10.5350     9.6250     8.0830    -8.0080 
  245.8750     2.3610    75.1660    10.4010     9.5870     8.3880    -7.7880 
  246.0000     2.3170    75.8790    10.2750     9.5520     8.6500    -7.6190 
  246.1250     2.2950    75.9980    10.1690     9.5050     8.7780    -7.4650 
  246.2500     2.3080    77.4370    10.1330     9.4460     8.8300    -7.3120 
  246.3750     2.3430    79.4970    10.1090     9.3920     8.9140    -7.1960 
  246.5000     2.3900    80.1000    10.1000     9.3620     9.1310    -7.0480 
  246.6250     2.4340    78.4200    10.2440     9.3800     9.5480    -6.9460 
  246.7500     2.4590    73.9310    10.5080     9.4830    10.7040    -6.7900 
  246.8750     2.4650    68.9790    10.8700     9.6810    12.3270    -6.7080 
  247.0000     2.4590    66.2270    11.3320     9.9840    13.9860    -6.6390 
  247.1250     2.4520    66.3240    11.8770    10.3800    15.1230    -6.6220 
  247.2500     2.4520    66.7960    12.4630    10.8470    14.8860    -6.6620 
  247.3750     2.4580    65.8690    13.0280    11.3270    14.7420    -6.7380 
  247.5000     2.4650    65.9600    13.5320    11.7780    15.8170    -6.8690 
  247.6250     2.4670    68.3780    13.9490    12.1670    17.6970    -7.0560 
  247.7500     2.4680    69.7700    14.2610    12.4650    19.8170    -7.3030 
  247.8750     2.4710    68.6590    14.4940    12.6850    21.1980    -7.5470 
  248.0000     2.4780    67.7560    14.6630    12.8400    20.9330    -7.8140 
  248.1250     2.4830    68.4270    14.7790    12.9440    18.5280    -8.0510 
  248.2500     2.4690    70.0540    14.8540    13.0140    16.6840    -8.2410 
  248.3750     2.4330    72.1290    14.9130    13.0750    15.7970    -8.3860 
  248.5000     2.3880    73.5230    14.9690    13.1410    15.7890    -8.5080 
  248.6250     2.3610    72.1610    15.0320    13.2200    16.3960    -8.6000 
  248.7500     2.3780    69.7800    15.0960    13.3120    16.9660    -8.6520 
  248.8750     2.4250    70.1070    15.1480    13.4040    17.4210    -8.7100 
  249.0000     2.4790    72.3650    15.1790    13.4800    17.2870    -8.7450 
