~V
VERS. 2.00: Ver 2.00
~W
STRT.M 56.0000:
STOP.M 263.0000:
STEP.M 0.1250:
NULL. -999.2500:
UWI. F10207:
~C
DEPT.M :
DEN.GM/CC :
GR.API :
RML.OHMM :
RI. :
RXO.OHMM :
SP.MV :
~A
# ...
  210.5000     2.3530    76.6620     7.0260     4.9780     5.8930   -14.5630 
  210.6250     2.3380    80.5060     8.4970     5.8000     7.4570   -15.0330 
  210.7500     2.3260    83.9810    10.8460     7.3000    10.2890   -15.5580 
  210.8750     2.3070    86.9360    13.9450     9.4980    14.1140   -16.0860 
  211.0000     2.2820    86.6870    17.6350    12.4000    18.7390   -16.6090 
  211.1250     2.2610    84.2110    21.5950    15.8560    23.6270   -17.0350 
  211.2500     2.2510    83.2270    25.2540    19.4930    28.0320   -17.4060 
  211.3750     2.2440    83.0600    28.0860    22.7210    32.3170   -17.7180 
  211.5000     2.2340    81.0200    29.7030    25.0600    34.6260   -17.9030 
  211.6250     2.2270    77.3540    29.9290    26.1930    34.2430   -18.0300 
  211.7500     2.2370    76.1920    28.6740    25.8470    33.4200   -18.0790 
  211.8750     2.2610    77.9180    26.5330    24.4540    30.9050   -18.0330 
  212.0000     2.2830    80.9910    23.9740    22.3950    26.2710   -17.9780 
  212.1250     2.2940    84.1890    21.4530    20.1080    22.4910   -17.9200 
  212.2500     2.3000    86.1650    19.4270    18.0670    18.9740   -17.8280 
  212.3750     2.3090    87.4750    18.0120    16.5070    16.6200   -17.7430 
  212.5000     2.3210    89.4350    17.1700    15.4700    15.3160   -17.6800 
  212.6250     2.3350    92.1730    16.7350    14.8640    14.2410   -17.6570 
  212.7500     2.3510    92.8370    16.5040    14.5460    14.2970   -17.6970 
  212.8750     2.3600    90.6410    16.3280    14.3360    14.7490   -17.7950 
  213.0000     2.3540    86.5390    16.3250    14.2530    14.6310   -17.9470 
  213.1250     2.3310    83.3840    16.8410    14.5070    13.2810   -18.1580 
  213.2500     2.2920    83.3180    18.7390    15.6990    12.3380   -18.4800 
  213.3750     2.2430    83.1190    22.7320    18.3220    13.1230   -18.8230 
  213.5000     2.1910    80.3300    29.2560    22.9490    16.2110   -19.1210 
  213.6250     2.1470    75.8880    38.3680    29.9280    20.7700   -19.3850 
  213.7500     2.1300    73.4340    49.8580    39.1810    26.3230   -19.6140 
  213.8750     2.1420    72.1500    59.9980    48.8720    29.8850   -19.7940 
  214.0000     2.1820    70.6980    67.4600    56.9280    28.6430   -19.9000 
  214.1250     2.2340    70.8570    70.3410    61.4090    25.9090   -19.8730 
  214.2500     2.2700    73.4460    67.6050    60.9290    26.5470   -19.6670 
  214.3750     2.2700    75.7720    61.8810    57.3130    28.8110   -19.3970 
  214.5000     2.2490    77.1000    55.0950    52.0730    30.7600   -19.1310 
  214.6250     2.2300    78.3730    48.4390    46.3380    29.6560   -18.8720 
  214.7500     2.2220    78.5400    42.6870    40.9300    25.8600   -18.6320 
  214.8750     2.2170    77.0200    38.0790    36.3230    22.4550   -18.4360 
  215.0000     2.2140    76.6760    34.7870    32.8120    20.5950   -18.2070 
  215.1250     2.2180    78.9360    32.8000    30.5020    19.0680   -18.0420 
  215.2500     2.2260    80.2750    32.0280    29.4190    17.4710   -17.9150 
  215.3750     2.2290    78.8950    31.8500    29.0330    16.6420   -17.7670 
  215.5000     2.2250    76.9910    31.8710    28.9760    16.7080   -17.6650 
  215.6250     2.2190    76.9360    31.8980    28.9960    16.8340   -17.4990 
  215.7500     2.2160    78.0970    32.2380    29.2090    17.4110   -17.3630 
  215.8750     2.2130    78.6950    33.6210    30.1560    19.0250   -17.2150 
  216.0000     2.2090    78.2490    36.9630    32.6610    22.9660   -17.1130 
  216.1250     2.2020    76.9700    43.1120    37.6090    30.8160   -17.1200 
  216.2500     2.1970    75.2420    53.0670    46.1670    45.6690   -17.1250 
  216.3750     2.1980    73.1600    65.7890    57.5730    67.2640   -17.2390 
  216.5000     2.2030    70.3720    79.7750    70.5180    91.0010   -17.3860 
  216.6250     2.2090    67.7760    92.7730    82.8820   110.6070   -17.6150 
  216.7500     2.2080    67.8740   101.6440    91.6830   120.5620   -17.9030 
  216.8750     2.2030    69.6470   105.9540    96.3290   114.7620   -18.1460 
  217.0000     2.1960    70.5360   106.8950    97.6980   107.4070   -18.4480 
  217.1250     2.1880    69.2170   106.5220    97.5280   104.3550   -18.7070 
  217.2500     2.1810    67.0690   106.3160    97.2610   102.4860   -18.9940 
  217.3750     2.1740    65.9310   106.4160    97.3060   100.6640   -19.3050 
  217.5000     2.1700    66.2270   106.3760    97.4210   101.1630   -19.5750 
  217.6250     2.1720    67.6950   105.6420    97.1830   104.8130   -19.8360 
  217.7500     2.1770    69.4530   103.4940    95.9900   108.5390   -20.0210 
  217.8750     2.1790    71.4590    99.8920    93.6800   107.2910   -20.2300 
  218.0000     2.1750    73.4710    94.9170    90.2030   100.7710   -20.4160 
  218.1250     2.1670    72.9300    88.8810    85.6940    93.2100   -20.5320 
  218.2500     2.1600    69.7160    82.3030    80.4320    81.4690   -20.6510 
  218.3750     2.1550    67.5830    76.0370    75.1370    69.1870   -20.6210 
  218.5000     2.1540    67.7210    70.8080    70.4830    58.3530   -20.5210 
  218.6250     2.1570    67.5860    67.1880    67.0990    52.1230   -20.3190 
  218.7500     2.1640    65.8830    65.6780    65.6430    53.5720   -20.0360 
  218.8750     2.1700    65.7670    65.6220    65.6840    58.5020   -19.7780 
  219.0000     2.1720    67.5570    66.3140    66.6300    64.9960   -19.4340 
  219.1250     2.1730    69.4680    66.9190    67.6620    71.5490   -19.1530 
  219.2500     2.1790    70.0960    66.5670    67.8230    73.5210   -18.8600 
  219.3750     2.1860    70.9310    65.2060    66.8800    70.5310   -18.6640 
  219.5000     2.1890    72.8600    63.2210    65.0840    64.3990   -18.6160 
  219.6250     2.1890    74.3600    61.2830    63.0430    59.8050   -18.6400 
  219.7500     2.1900    74.0250    60.1930    61.5670    58.7550   -18.8540 
  219.8750     2.1930    72.9600    60.1540    61.0140    59.7420   -19.0800 
  220.0000     2.1990    72.3220    61.1370    61.4540    62.0550   -19.4020 
  220.1250     2.2140    72.2640    62.9630    62.7830    65.1890   -19.7450 
  220.2500     2.2400    71.1280    65.4600    64.8970    67.6810   -20.0970 
  220.3750     2.2570    69.4080    68.2650    67.4480    68.8150   -20.5260 
  220.5000     2.2510    67.2750    71.1300    70.2070    69.5300   -20.8910 
  220.6250     2.2160    64.9220    73.7950    72.9060    68.3530   -21.3010 
  220.7500     2.1610    63.4050    75.9530    75.2040    67.4340   -21.6350 
  220.8750     2.1100    63.2610    77.6090    77.0280    65.1850   -21.9180 
  221.0000     2.0840    64.1430    78.8480    78.4150    61.5680   -22.1910 
  221.1250     2.0880    65.0980    79.7650    79.4330    60.3110   -22.4060 
  221.2500     2.1100    65.8970    80.3080    79.9970    67.7590   -22.6780 
  221.3750     2.1320    66.1000    80.4170    80.0210    79.4230   -22.8820 
  221.5000     2.1510    64.3360    80.0370    79.3850    89.1310   -23.1000 
  221.6250     2.1690    61.2100    79.3630    78.2120    92.9430   -23.2850 
  221.7500     2.1720    58.7520    79.0530    77.0770    87.3390   -23.3920 
  221.8750     2.1590    57.8160    79.7830    76.7400    77.1040   -23.5230 
  222.0000     2.1370    58.1490    81.9560    77.6810    71.9300   -23.5530 
  222.1250     2.1160    59.5780    85.5510    79.9850    74.7660   -23.6140 
  222.2500     2.1020    61.9390    90.1480    83.3560    84.4520   -23.5630 
  222.3750     2.1020    65.2100    94.7360    86.8570    91.2280   -23.4890 
  222.5000     2.1150    68.5090    98.6540    89.8550    90.1070   -23.3980 
  222.6250     2.1340    70.4220   101.6040    92.0380    83.6180   -23.2480 
  222.7500     2.1590    69.8630   103.6480    93.4030    79.1570   -23.1860 
  222.8750     2.1830    67.8850   105.3750    94.4390    78.4740   -23.0590 
  223.0000     2.2000    65.6090   107.1040    95.4390    81.3480   -22.9830 
  223.1250     2.2130    64.3960   108.9260    96.5130    84.7850   -22.8580 
  223.2500     2.2250    66.4320   110.6800    97.5690    86.8680   -22.7980 
