~V
VERS. 2.00: Ver 2.00
~W
STRT.M 56.0000:
STOP.M 263.0000:
STEP.M 0.1250:
NULL. -999.2500:
UWI. F10207:
~C
DEPT.M :
DEN.GM/CC :
GR.API :
RML.OHMM :
RI. :
RXO.OHMM :
SP.MV :
~A
   56.0000  -999.2500  -999.2500  -999.2500  -999.2500  -999.2500     0.0000 
   56.1250  -999.2500  -999.2500  -999.2500  -999.2500  -999.2500     0.0000 
   56.2500  -999.2500  -999.2500  -999.2500  -999.2500  -999.2500     0.0000 
   56.3750  -999.2500  -999.2500  -999.2500  -999.2500  -999.2500    30.0320 
   56.5000  -999.2500  -999.2500  -999.2500  -999.2500  -999.2500    60.3530 
   56.6250  -999.2500  -999.2500  -999.2500  -999.2500  -999.2500    60.7240 
   56.7500  -999.2500  -999.2500  -999.2500  -999.2500  -999.2500    60.9420 
   56.8750  -999.2500  -999.2500  -999.2500  -999.2500  -999.2500    61.0810 
   57.0000  -999.2500  -999.2500  -999.2500  -999.2500  -999.2500    61.0960 
   57.1250  -999.2500  -999.2500  -999.2500  -999.2500  -999.2500    61.0230 
   57.2500  -999.2500  -999.2500  -999.2500  -999.2500  -999.2500    60.9280 
   57.3750  -999.2500  -999.2500  -999.2500  -999.2500  -999.2500    60.7510 
   57.5000  -999.2500  -999.2500  -999.2500  -999.2500  -999.2500    60.5060 
   57.6250  -999.2500    15.2850     1.0210     0.0990     0.1760    60.3210 
   57.7500  -999.2500    15.2850     1.0210     0.0990     0.1760    60.2250 
   57.8750  -999.2500    59.6050     4.0810     0.3920     0.7100    60.1770 
   58.0000  -999.2500    57.2380     4.0480     0.3860     0.7270    60.2490 
   58.1250     0.0000    58.0460     3.9540     0.3740     0.7450    60.3510 
   58.2500     0.0000    60.7920     3.7580     0.3590     0.7580    60.3740 
   58.3750     1.0880    61.9740     3.4650     0.3460     0.7570    60.4000 
   58.5000     2.1760    60.2070     3.0860     0.3350     0.7480    60.5360 
   58.6250     2.1760    57.1700     2.6620     0.3270     0.7390    60.7240 
   58.7500     2.1810    54.7320     2.2720     0.3200     0.7380    61.0300 
   58.8750     2.1920    52.4060     1.9430     0.3120     0.7440    61.4260 
   59.0000     2.1990    49.7690     1.6600     0.3060     0.7570    61.7340 
   59.1250     2.1900    48.4860     1.4090     0.3070     0.7670    61.9260 
   59.2500     2.1630    50.5280     1.2220     0.3180     0.7700    62.0160 
   59.3750     2.1350    53.8940     1.1250     0.3350     0.7650    61.9600 
   59.5000     2.1130    56.5740     1.0990     0.3490     0.7560    61.6740 
   59.6250     2.0960    57.8460     1.0910     0.3540     0.7480    61.2970 
   59.7500     2.0860    57.4940     1.0320     0.3440     0.7470    60.7940 
   59.8750     2.0920    57.2340     0.9170     0.3230     0.7520    60.1160 
   60.0000     2.1220    56.7200     0.7930     0.2990     0.7550    59.3200 
   60.1250     2.1740    54.4520     0.7230     0.2790     0.7610    58.5260 
   60.2500     2.2430    50.7260     0.7330     0.2670     0.7730    57.7600 
   60.3750     2.3090    49.4850     0.7590     0.2560     0.7920    56.9550 
   60.5000     2.3610    51.8530     0.7370     0.2410     0.8120    56.1770 
   60.6250     2.4040    55.8570     0.6210     0.2170     0.8290    55.3220 
   60.7500     2.4670    60.3860     0.3940     0.1840     0.8420    54.1010 
   60.8750     2.5590    64.5610     0.1660     0.1520     0.8540    52.3920 
   61.0000     2.6610    65.9020     0.0330     0.1300     0.8920    50.0430 
   61.1250     2.7010    64.1930     0.0170     0.1270     1.0120    46.8200 
   61.2500     2.5910    64.0950     0.1270     0.1660     1.3950    42.6340 
   61.3750     2.4250    69.5150     0.3710     0.2730     2.1280    37.9700 
   61.5000     2.2940    79.2940     0.7970     0.4970     3.1980    32.9250 
   61.6250     2.2400    90.2400     1.4410     0.8900     4.4750    27.5820 
   61.7500     2.2570    98.4860     2.2960     1.5160     5.5000    22.2750 
   61.8750     2.2870   103.5470     3.1900     2.3140     5.9060    17.3000 
   62.0000     2.3120   107.1430     3.9430     3.2020     5.9730    12.8110 
   62.1250     2.3310   111.1130     4.4260     4.0810     6.0470     8.9970 
   62.2500     2.3510   113.8870     4.7130     4.9020     6.6010     6.0200 
   62.3750     2.3660   113.7640     5.0830     5.7080     7.8530     3.4940 
   62.5000     2.3590   111.2700     5.6170     6.5120     9.8220     1.1840 
   62.6250     2.3170   108.2130     6.2360     7.2540    12.2160    -0.9640 
   62.7500     2.2570   105.8730     6.7530     7.7840    13.7930    -2.9820 
   62.8750     2.2170   103.0300     7.0180     8.0420    13.4150    -5.0110 
   63.0000     2.2050    99.4390     6.9930     8.0410    11.4850    -6.9580 
   63.1250     2.2090    96.8880     6.8010     7.8810     9.6070    -8.7520 
   63.2500     2.2150    96.7330     6.6560     7.7030     8.7460   -10.5380 
   63.3750     2.2150    97.3390     6.6620     7.6140     8.4420   -12.3990 
   63.5000     2.2020    96.6410     6.8040     7.6370     8.4440   -14.2380 
   63.6250     2.1810    92.8840     7.0260     7.7410     8.6500   -16.0160 
   63.7500     2.1640    86.6860     7.2590     7.8670     9.2250   -17.8330 
   63.8750     2.1620    80.8970     7.4660     7.9720     9.7520   -19.5340 
   64.0000     2.1700    75.9710     7.6780     8.0850     9.9600   -21.1300 
   64.1250     2.1770    71.5560     8.0150     8.3300     9.9720   -22.7900 
   64.2500     2.1910    69.6170     8.7710     9.0100    10.0900   -24.4480 
   64.3750     2.2360    70.5360    10.1190    10.3080    10.8500   -25.8820 
   64.5000     2.3270    71.2820    12.0950    12.2660    13.8450   -27.1510 
   64.6250     2.4380    69.6150    14.4110    14.6220    19.9470   -28.2960 
   64.7500     2.4600    67.0840    16.2930    16.6490    27.3800   -29.2330 
   64.8750     2.3580    65.9040    16.9380    17.5620    34.2240   -30.1120 
   65.0000     2.2200    65.8950    15.9030    16.9150    35.0660   -30.9810 
   65.1250     2.1290    66.1840    13.6290    14.9600    23.7230   -31.6770 
   65.2500     2.1020    66.0060    11.3440    12.6210    14.2760   -32.1260 
   65.3750     2.0980    65.2140     9.7520    10.7320    11.3310   -32.5070 
   65.5000     2.0940    64.0350     8.8560     9.4790    10.4250   -32.7420 
   65.6250     2.0870    63.7180     8.4700     8.7940    10.1310   -32.7940 
   65.7500     2.0810    65.7660     8.4090     8.5540    10.1270   -32.7640 
   65.8750     2.0810    67.6280     8.4510     8.5100    10.3440   -32.7060 
   66.0000     2.0820    67.1510     8.5080     8.5440    10.4900   -32.5470 
   66.1250     2.0820    65.5650     8.5430     8.5880    10.5250   -32.3490 
   66.2500     2.0780    65.6240     8.5460     8.6030    10.6260   -32.2650 
   66.3750     2.0680    66.6030     8.5250     8.5800    10.7570   -32.2050 
   66.5000     2.0550    66.9280     8.4860     8.5200    10.8510   -32.1590 
   66.6250     2.0460    66.1330     8.4360     8.4320    10.8700   -32.2080 
   66.7500     2.0440    65.4740     8.3850     8.3280    10.8060   -32.3780 
   66.8750     2.0400    66.2760     8.3410     8.2240    10.6810   -32.5410 
   67.0000     2.0280    68.5120     8.3060     8.1260    10.4680   -32.7270 
   67.1250     2.0070    70.2820     8.2780     8.0340    10.2230   -33.0020 
   67.2500     1.9770    70.3920     8.2530     7.9440     9.8550   -33.2180 
   67.3750     1.9500    70.3540     8.2240     7.8560     9.4360   -33.3400 
   67.5000     1.9480    70.3890     8.1960     7.7710     9.0460   -33.4760 
   67.6250     1.9840    70.2500     8.1780     7.6970     8.8570   -33.6180 
   67.7500     2.0420    69.3540     8.1850     7.6470     9.1640   -33.6000 
   67.8750     2.0840    68.7470     8.2210     7.6230     9.5650   -33.5540 
   68.0000     2.0950    68.6770     8.2850     7.6260     9.8170   -33.5130 
   68.1250     2.0750    68.6230     8.3740     7.6510    10.0530   -33.3620 
   68.2500     2.0230    68.5920     8.4720     7.6830    10.4170   -33.0950 
   68.3750     1.9500    68.5140     8.5510     7.6990    10.8000   -32.8340 
   68.5000     1.8700    68.2280     8.5900     7.6810    11.1010   -32.5040 
   68.6250     1.8100    67.1520     8.5850     7.6250    11.1600   -32.0250 
   68.7500     1.8160    65.7510     8.5430     7.5440    10.8650   -31.5050 
