~V
VERS. 2.00: Ver 2.00
~W
STRT.M 56.0000:
STOP.M 263.0000:
STEP.M 0.1250:
NULL. -999.2500:
UWI. F10207:
~C
DEPT.M :
DEN.GM/CC :
GR.API :
RML.OHMM :
RI. :
RXO.OHMM :
SP.MV :
~A
# ...
  171.8750     2.2150    85.5970    17.0970    16.4190    14.5310   -14.5720 
  172.0000     2.2240    88.5100    16.1910    15.4640    13.5950   -14.7570 
  172.1250     2.2350    90.7900    15.8010    14.8450    12.5100   -14.9900 
  172.2500     2.2360    91.6400    16.4010    14.9480    11.9640   -15.2500 
  172.3750     2.2290    91.7830    18.1190    15.8430    12.7720   -15.5400 
  172.5000     2.2150    91.5520    20.8520    17.5640    15.2200   -15.8660 
  172.6250     2.2030    90.4430    24.3680    20.0380    18.3020   -16.1250 
  172.7500     2.2100    87.8330    28.6220    23.1390    21.4040   -16.4320 
  172.8750     2.2380    85.1220    32.2740    26.4970    23.3210   -16.7110 
  173.0000     2.2730    82.7930    35.9310    29.9410    23.1820   -16.9680 
  173.1250     2.2970    80.2140    39.7620    33.4890    22.6690   -17.2730 
  173.2500     2.3020    75.3490    44.2480    37.4800    24.6930   -17.4710 
  173.3750     2.2980    70.2140    49.6130    42.1720    29.3900   -17.6360 
  173.5000     2.2810    68.0270    55.8490    47.6570    35.5330   -17.7510 
  173.6250     2.2500    68.4560    62.6290    53.7450    41.8610   -17.8160 
  173.7500     2.2170    69.3310    69.2490    59.9010    46.6460   -17.8710 
  173.8750     2.2030    68.7390    75.0000    65.4370    50.0940   -17.9080 
  174.0000     2.2090    68.4450    79.4800    69.9110    52.3690   -17.9670 
  174.1250     2.2260    70.0360    82.6230    73.1770    53.2130   -18.0050 
  174.2500     2.2420    72.1240    84.3890    75.1430    52.3600   -18.0480 
  174.3750     2.2530    73.2370    85.0130    76.0600    50.2850   -18.1340 
  174.5000     2.2610    73.0450    84.2770    75.8020    47.4210   -18.2050 
  174.6250     2.2700    71.3060    81.8730    74.1280    43.5410   -18.3410 
  174.7500     2.2810    68.8350    77.4980    70.7030    40.7700   -18.5070 
  174.8750     2.2930    68.6150    72.1050    66.2290    37.1220   -18.6400 
  175.0000     2.3030    71.0690    66.7540    61.5550    33.3780   -18.7960 
  175.1250     2.3100    74.2850    62.4740    57.5980    29.5310   -18.9570 
  175.2500     2.3020    75.2260    60.2220    55.3140    26.6320   -19.1740 
  175.3750     2.2820    74.4140    59.7630    54.6800    25.3220   -19.4240 
  175.5000     2.2570    74.1980    60.7430    55.4930    24.7820   -19.6750 
  175.6250     2.2380    74.4050    62.6080    57.3270    24.7560   -19.9400 
  175.7500     2.2290    74.3680    64.6760    59.6180    25.4710   -20.1200 
  175.8750     2.2310    73.8750    66.2680    61.6520    27.2680   -20.3430 
  176.0000     2.2440    73.1460    67.0260    62.9940    30.7940   -20.5430 
  176.1250     2.2620    72.0820    66.8960    63.4760    35.3810   -20.6600 
  176.2500     2.2750    70.9880    66.0940    63.1780    39.3000   -20.7730 
  176.3750     2.2770    71.2000    65.2180    62.6460    39.5250   -20.7520 
  176.5000     2.2700    72.2430    64.6460    62.2680    35.1200   -20.6940 
  176.6250     2.2610    72.9780    64.5140    62.2450    29.5770   -20.6240 
  176.7500     2.2570    73.2100    64.5870    62.4490    28.0740   -20.5460 
  176.8750     2.2610    73.4440    64.2730    62.3450    30.7260   -20.4740 
  177.0000     2.2700    73.9580    63.1020    61.4340    37.8190   -20.3610 
  177.1250     2.2760    74.9190    60.9160    59.4520    47.4290   -20.2880 
  177.2500     2.2760    75.4190    58.0290    56.5150    55.0370   -20.2090 
  177.3750     2.2770    74.8250    55.4300    53.5170    55.9040   -20.1510 
  177.5000     2.2860    74.6750    54.0320    51.3150    49.2840   -20.1660 
  177.6250     2.2970    74.9600    54.6540    50.7170    40.2960   -20.1660 
  177.7500     2.2960    73.8780    58.5200    52.9100    34.5510   -20.1920 
  177.8750     2.2820    71.6960    66.1300    58.1740    32.2740   -20.2670 
  178.0000     2.2580    69.5930    78.0500    66.9390    34.9370   -20.3410 
  178.1250     2.2320    68.9590    94.4160    79.2950    43.7010   -20.3980 
  178.2500     2.2080    69.8060   114.5960    95.0380    60.6790   -20.4590 
  178.3750     2.1860    69.3220   135.7080   112.1180    82.7120   -20.5200 
  178.5000     2.1710    66.6070   153.3710   128.8130   102.4310   -20.5540 
  178.6250     2.1630    63.4510   167.8420   143.7850   111.4830   -20.5320 
  178.7500     2.1620    63.8610   177.9250   156.0760    99.4330   -20.5180 
  178.8750     2.1640    65.9290   183.9820   165.6810    77.5580   -20.4040 
  179.0000     2.1700    67.0510   184.4300   171.0440    57.9460   -20.2620 
  179.1250     2.1890    67.6380   176.2010   169.0010    49.0080   -20.1480 
  179.2500     2.2180    68.7700   154.4280   153.8890    48.2170   -19.9230 
  179.3750     2.2490    69.9930   122.7650   127.3590    48.0490   -19.7080 
  179.5000     2.2850    70.7060    88.2950    94.7120    46.7570   -19.4240 
  179.6250     2.3300    72.2220    58.9950    64.0610    41.9740   -19.1590 
  179.7500     2.3780    77.1160    40.2450    42.8550    32.2060   -18.9030 
  179.8750     2.4080    85.1540    29.6080    30.2540    21.3470   -18.6370 
  180.0000     2.4110    93.6720    25.1610    24.2460    13.9980   -18.4720 
  180.1250     2.3890    98.4120    25.5680    23.0510    11.2210   -18.3230 
  180.2500     2.3450    97.5590    30.9810    26.6180    13.6090   -18.2800 
  180.3750     2.2990    95.0100    40.4930    34.4250    19.7000   -18.3110 
  180.5000     2.2640    90.9380    53.4150    46.3610    28.2460   -18.4100 
  180.6250     2.2450    85.0770    67.9740    61.1290    38.3670   -18.6030 
  180.7500     2.2410    80.2500    80.6980    75.3660    43.5120   -18.7470 
  180.8750     2.2440    77.3710    88.6850    85.1540    42.7280   -18.9730 
  181.0000     2.2540    74.5950    90.9760    88.5560    40.3360   -19.1760 
  181.1250     2.2650    71.5110    89.3720    86.7930    37.6250   -19.3240 
  181.2500     2.2630    71.4330    87.5370    83.5250    35.0180   -19.5170 
  181.3750     2.2470    73.5700    87.3340    81.7480    35.0890   -19.6590 
  181.5000     2.2270    75.0380    88.4000    81.6820    38.4410   -19.8200 
  181.6250     2.2120    75.9930    89.3720    82.3640    42.3430   -19.9650 
  181.7500     2.2040    76.4620    88.3640    82.5830    43.8750   -20.1290 
  181.8750     2.1980    76.1440    87.5940    82.0380    43.9830   -20.3280 
  182.0000     2.1960    74.8440    87.2160    81.2270    43.7780   -20.5030 
  182.1250     2.1960    73.9650    88.5020    81.0620    43.9450   -20.7460 
  182.2500     2.1990    76.0960    92.1510    82.5720    45.4260   -20.9350 
  182.3750     2.2030    79.1750    96.7960    85.4930    49.7750   -21.1150 
  182.5000     2.2070    79.9880   100.8880    89.0400    56.0860   -21.2770 
  182.6250     2.2130    77.1370   104.0270    92.0480    63.1690   -21.3620 
  182.7500     2.2170    73.4280   104.7660    93.0350    66.1780   -21.5270 
  182.8750     2.2180    72.7990   103.3820    91.9340    64.7240   -21.5880 
  183.0000     2.2190    74.8100   100.9960    89.5090    59.6840   -21.6490 
  183.1250     2.2230    77.4070    99.3840    87.2490    54.2270   -21.6490 
  183.2500     2.2280    77.8560   100.8730    87.3020    50.7480   -21.5500 
  183.3750     2.2310    76.1170   105.9840    90.5420    48.7520   -21.4780 
  183.5000     2.2350    73.2430   114.3770    97.0420    49.8180   -21.3380 
  183.6250     2.2450    70.5370   124.5410   105.7860    55.6590   -21.2460 
  183.7500     2.2540    69.4370   133.3060   114.3430    60.4380   -21.0780 
  183.8750     2.2550    69.7300   137.4960   119.7150    67.0740   -20.9110 
  184.0000     2.2510    70.8780   134.9900   119.6940    74.4920   -20.7750 
  184.1250     2.2460    72.1700   125.6430   113.5640    78.9410   -20.6240 
  184.2500     2.2470    72.7040   111.5470   102.3380    76.7390   -20.5640 
  184.3750     2.2520    72.8810    97.3340    89.9480    68.3990   -20.5080 
  184.5000     2.2570    72.6690    85.4730    78.8180    59.4220   -20.5020 
  184.6250     2.2590    73.7350    76.9630    70.2560    55.4420   -20.5570 
