~V
VERS. 2.00: Ver 2.00
~W
STRT.M 56.0000:
STOP.M 263.0000:
STEP.M 0.1250:
NULL. -999.2500:
UWI. F10207:
~C
DEPT.M :
DEN.GM/CC :
GR.API :
RML.OHMM :
RI. :
RXO.OHMM :
SP.MV :
~A
# ...
  146.1250     2.3160    99.3020     5.9210     4.6910     4.9880    -6.4700 
  146.2500     2.3100   102.9820     5.8750     4.6500     4.9320    -6.5020 
  146.3750     2.3090   107.8020     5.8600     4.6330     4.9170    -6.5190 
  146.5000     2.3080   109.5130     5.8750     4.6390     4.9330    -6.5310 
  146.6250     2.3090   106.2820     5.9120     4.6610     4.9710    -6.5370 
  146.7500     2.3120   101.2570     5.9520     4.6880     5.0140    -6.5340 
  146.8750     2.3160    98.2280     5.9800     4.7070     5.0510    -6.5920 
  147.0000     2.3220    98.2500     5.9900     4.7110     5.0600    -6.5990 
  147.1250     2.3280   100.5860     5.9830     4.7000     5.0250    -6.6530 
  147.2500     2.3320   101.6900     5.9640     4.6780     4.9870    -6.6990 
  147.3750     2.3300   101.2040     5.9490     4.6570     4.9550    -6.7140 
  147.5000     2.3260   101.5910     5.9460     4.6450     4.9570    -6.7200 
  147.6250     2.3270   102.1350     5.9550     4.6470     4.9940    -6.7140 
  147.7500     2.3290   100.4900     5.9710     4.6610     5.0500    -6.7180 
  147.8750     2.3240    98.7920     5.9850     4.6800     5.0640    -6.6990 
  148.0000     2.3090    99.0160     5.9930     4.6970     5.0600    -6.6560 
  148.1250     2.2940   100.8500     5.9930     4.7050     5.0240    -6.5980 
  148.2500     2.2930   102.8970     5.9840     4.7020     5.0060    -6.5260 
  148.3750     2.3030   103.2870     5.9610     4.6860     5.0090    -6.4790 
  148.5000     2.3140   100.5230     5.9160     4.6560     5.0520    -6.4450 
  148.6250     2.3140    97.9740     5.8450     4.6090     5.1070    -6.4150 
  148.7500     2.3020   100.4580     5.7490     4.5450     5.1180    -6.3750 
  148.8750     2.2910   104.1350     5.6470     4.4720     5.0690    -6.3870 
  149.0000     2.2820   105.0220     5.5580     4.4020     4.9690    -6.4820 
  149.1250     2.2730   104.7950     5.5000     4.3500     4.9060    -6.6590 
  149.2500     2.2730   104.9860     5.4920     4.3350     4.8470    -6.8790 
  149.3750     2.2870   103.8030     5.5220     4.3550     4.8210    -7.1380 
  149.5000     2.3060   101.2840     5.5730     4.4000     4.8270    -7.3930 
  149.6250     2.3130    98.8780     5.6220     4.4540     4.9030    -7.6480 
  149.7500     2.2980    98.6770     5.6420     4.4910     4.9920    -7.9590 
  149.8750     2.2860   100.5210     5.6240     4.4970     5.0250    -8.1630 
  150.0000     2.2880   102.4570     5.5730     4.4710     4.9920    -8.3130 
  150.1250     2.3030   103.2920     5.5040     4.4230     4.8650    -8.3980 
  150.2500     2.3170   103.5140     5.4340     4.3680     4.7890    -8.3400 
  150.3750     2.3260   105.1080     5.3700     4.3170     4.7460    -8.2520 
  150.5000     2.3280   106.5780     5.3080     4.2690     4.7200    -8.1220 
  150.6250     2.3260   106.8200     5.2350     4.2180     4.7030    -7.9770 
  150.7500     2.3220   106.4180     5.1400     4.1570     4.6590    -7.7620 
  150.8750     2.3240   106.2740     5.0310     4.0870     4.5820    -7.4800 
  151.0000     2.3340   106.7270     4.9300     4.0170     4.4960    -7.2070 
  151.1250     2.3480   107.2100     4.8700     3.9670     4.4280    -6.9340 
  151.2500     2.3620   105.6420     4.9090     3.9750     4.4320    -6.7110 
  151.3750     2.3740   101.6870     5.0610     4.0620     4.5540    -6.5610 
  151.5000     2.3840    98.3030     5.3190     4.2380     4.8120    -6.4570 
  151.6250     2.3880    98.6650     5.6380     4.4850     5.2050    -6.3900 
  151.7500     2.3740   100.5750     5.9300     4.7540     5.7890    -6.4270 
  151.8750     2.3460   101.2050     6.1110     4.9760     6.3160    -6.5670 
  152.0000     2.3140   101.7430     6.1410     5.1000     6.4760    -6.7400 
  152.1250     2.2900   103.8080     6.0370     5.1130     6.2990    -6.9460 
  152.2500     2.2840   105.9650     5.8760     5.0420     6.0770    -7.1790 
  152.3750     2.2910   105.6540     5.7780     4.9780     5.8960    -7.3820 
  152.5000     2.3000   103.5720     5.8110     4.9850     5.6630    -7.5350 
  152.6250     2.3050   100.8630     5.9760     5.0930     5.3470    -7.6720 
  152.7500     2.3090    99.3020     6.1850     5.2650     5.3870    -7.7000 
  152.8750     2.3140    98.9710     6.2800     5.3840     5.5500    -7.6600 
  153.0000     2.3210    98.7350     6.1440     5.3460     5.6380    -7.5930 
  153.1250     2.3270    98.4570     5.7440     5.0940     5.5250    -7.4040 
  153.2500     2.3240    97.7470     5.1520     4.6420     4.9050    -7.2100 
  153.3750     2.3150    95.6030     4.5830     4.1490     4.1770    -7.0160 
  153.5000     2.3110    94.1400     4.1800     3.7350     3.7370    -6.8180 
  153.6250     2.3170    95.3680     4.0030     3.4680     3.7590    -6.6710 
  153.7500     2.3310    97.0460     4.0450     3.3780     4.1000    -6.5630 
  153.8750     2.3430    96.0760     4.1900     3.4010     4.4790    -6.4910 
  154.0000     2.3540    93.2800     4.4000     3.4970     4.7710    -6.4650 
  154.1250     2.3730    89.9370     4.6520     3.6430     4.8540    -6.4940 
  154.2500     2.3990    88.2560     5.0350     3.8670     4.6100    -6.5490 
  154.3750     2.4250    89.6190     5.6100     4.2060     4.6910    -6.6040 
  154.5000     2.4430    92.4640     6.3420     4.6970     5.2720    -6.6270 
  154.6250     2.4440    93.0990     7.1820     5.3360     6.3050    -6.6100 
  154.7500     2.4070    90.6930     8.0780     6.0710     7.5690    -6.5410 
  154.8750     2.3430    89.0600     8.8660     6.7760     8.6400    -6.4790 
  155.0000     2.2800    89.5000     9.4490     7.3510     8.9650    -6.4250 
  155.1250     2.2380    91.1250     9.8180     7.7490     8.4380    -6.3600 
  155.2500     2.2200    91.1850    10.0590     7.9870     8.6810    -6.2710 
  155.3750     2.2150    88.5330    10.3270     8.1920     9.4240    -6.2130 
  155.5000     2.2220    84.6730    10.6840     8.4370    10.2270    -6.2190 
  155.6250     2.2380    82.5890    11.1110     8.7440    11.1910    -6.2870 
  155.7500     2.2570    82.9770    11.5270     9.0770    11.9250    -6.4100 
  155.8750     2.2770    83.7260    11.8540     9.3680    12.3020    -6.5770 
  156.0000     2.2960    84.3840    12.0700     9.5840    11.5360    -6.7200 
  156.1250     2.3100    85.6940    12.2020     9.7330    10.7620    -6.8540 
  156.2500     2.3130    88.2450    12.3070     9.8490    10.3570    -6.9850 
  156.3750     2.3090    90.8550    12.4340     9.9770    10.6810    -7.0680 
  156.5000     2.3070    91.9270    12.5870    10.1320    11.7120    -7.1270 
  156.6250     2.3130    91.1500    12.7320    10.3020    12.5740    -7.1040 
  156.7500     2.3190    89.6210    12.7890    10.4420    12.9700    -7.0770 
  156.8750     2.3170    87.5080    12.7170    10.5130    12.8050    -6.9670 
  157.0000     2.3070    84.3140    12.5220    10.5060    12.4180    -6.8480 
  157.1250     2.2950    81.9670    12.2610    10.4500    11.9320    -6.7570 
  157.2500     2.2840    82.9740    12.0630    10.4320    11.4460    -6.6570 
  157.3750     2.2770    84.7160    12.0320    10.5430    10.6890    -6.5220 
  157.5000     2.2770    84.9530    12.1960    10.8300    10.3970    -6.3580 
  157.6250     2.2790    85.2100    12.4740    11.2560    10.6610    -6.1950 
  157.7500     2.2820    86.3020    12.6080    11.6290    10.9350    -5.9860 
  157.8750     2.2830    86.5070    12.3210    11.6690    11.3850    -5.8560 
  158.0000     2.2790    85.7410    11.4370    11.1470    11.3940    -5.6850 
  158.1250     2.2650    84.8450     9.9830    10.0040    10.6100    -5.5420 
  158.2500     2.2470    84.0570     8.2260     8.4120     8.8950    -5.4110 
  158.3750     2.2400    85.8840     6.6240     6.8420     6.8650    -5.3500 
  158.5000     2.2500    91.0270     5.4230     5.5630     5.1730    -5.3570 
  158.6250     2.2680    96.0040     4.6940     4.6830     4.1820    -5.4320 
  158.7500     2.2760    98.0160     4.4430     4.2440     3.8450    -5.5530 
  158.8750     2.2760    99.8410     4.5050     4.1170     3.7700    -5.7070 
