~V
VERS. 2.00: Ver 2.00
~W
STRT.M 60.0000:
STOP.M 392.0000:
STEP.M 0.1250:
NULL. -999.2500:
UWI. F10306:
~C
DEPT.M :
DEN.GM/CC :
GR.API :
RML.OHMM :
RI. :
RXO.OHMM :
SP.MV :
~A
   60.0000     2.1650    40.9010     1.5880     0.4490     1.8980    58.4880 
   60.1250     2.1430    42.8420     1.5780     0.4670     1.9380    56.1770 
   60.2500     2.1130    48.2350     1.5600     0.4750     1.9050    53.6560 
   60.3750     2.0760    54.0530     1.5410     0.4700     1.7900    50.9580 
   60.5000     2.0390    56.8340     1.5200     0.4560     1.6540    48.2380 
   60.6250     2.0170    55.4700     1.4900     0.4410     1.5760    45.7470 
   60.7500     2.0170    52.5090     1.4650     0.4300     1.4890    43.5260 
   60.8750     2.0410    48.8060     1.4600     0.4210     1.3530    41.6440 
   61.0000     2.0810    44.3050     1.4770     0.4100     1.2590    40.1550 
   61.1250     2.1220    40.3290     1.4790     0.3930     1.1870    39.1210 
   61.2500     2.1500    38.6990     1.4030     0.3730     1.0720    38.4810 
   61.3750     2.1610    39.9690     1.2060     0.3520     0.9180    38.2320 
   61.5000     2.1570    42.5630     0.9010     0.3320     0.7140    38.2350 
   61.6250     2.1590    44.2060     0.5800     0.3110     0.4880    38.2730 
   61.7500     2.1910    44.0710     0.3480     0.2870     0.5040    38.0770 
   61.8750     2.2610    45.4470     0.2480     0.2700     0.9120    37.3350 
   62.0000     2.3540    52.5160     0.3160     0.2850     1.8120    35.7460 
   62.1250     2.4260    63.3780     0.6420     0.3990     3.3900    33.1010 
   62.2500     2.4550    74.4230     1.2120     0.6510     4.4880    29.7790 
   62.3750     2.4440    85.1240     1.9640     1.0570     5.3940    26.0130 
   62.5000     2.4120    95.1040     2.7390     1.5820     5.4010    21.9090 
   62.6250     2.3800   100.9200     3.2630     2.1290     4.7800    17.5440 
   62.7500     2.3590   100.6260     3.4600     2.5940     4.3730    13.2030 
   62.8750     2.3510    97.7390     3.4790     2.9720     4.2680     9.2180 
   63.0000     2.3520    95.4610     3.6040     3.3620     4.2870     5.8420 
   63.1250     2.3650    94.1830     4.1290     3.9450     4.6630     3.2470 
   63.2500     2.3870    90.4300     5.0390     4.7700     5.9290     1.0330 
   63.3750     2.4170    81.6300     6.2100     5.7870     8.1260    -1.0580 
   63.5000     2.4440    71.6970     7.3970     6.8280    10.8520    -3.1130 
   63.6250     2.4480    68.0380     8.1960     7.5800    12.9930    -5.1140 
   63.7500     2.4190    67.5700     8.4210     7.8730    12.7390    -7.0250 
   63.8750     2.3640    66.3670     8.1250     7.7140    10.2910    -8.7460 
   64.0000     2.2960    65.8740     7.5780     7.2820     8.6600   -10.2180 
   64.1250     2.2380    68.9650     7.1200     6.8360     8.2360   -11.3370 
   64.2500     2.1980    71.4360     6.8880     6.5360     8.1010   -12.1380 
   64.3750     2.1790    71.4270     6.8610     6.4060     7.9940   -12.6370 
   64.5000     2.1770    72.3300     6.9660     6.4020     7.9650   -12.8630 
   64.6250     2.1890    72.9210     7.1250     6.4670     8.0650   -12.8220 
   64.7500     2.2060    70.7570     7.2750     6.5400     8.1280   -12.6380 
   64.8750     2.2240    71.3650     7.3860     6.5940     8.2040   -12.4150 
   65.0000     2.2410    77.3260     7.4290     6.6090     8.3140   -12.2060 
   65.1250     2.2520    82.4040     7.3790     6.5670     8.3060   -12.0340 
   65.2500     2.2600    82.2410     7.2710     6.4830     8.1120   -11.9030 
   65.3750     2.2660    81.5450     7.1470     6.3770     7.8580   -11.7960 
   65.5000     2.2740    83.5500     7.0430     6.2690     7.5710   -11.7150 
   65.6250     2.2870    87.2510     6.9890     6.1830     7.4400   -11.7760 
   65.7500     2.3050    91.0510     7.0010     6.1420     7.3820   -11.9520 
   65.8750     2.3250    94.4480     7.1100     6.1760     7.2610   -12.2310 
   66.0000     2.3470    95.8700     7.3320     6.3110     7.1040   -12.6400 
   66.1250     2.3720    92.4310     7.6480     6.5490     7.2160   -13.2580 
   66.2500     2.3940    85.6150     7.9450     6.8080     8.2620   -14.0420 
   66.3750     2.4010    77.4100     8.1170     7.0090     9.9070   -14.9840 
   66.5000     2.3810    70.4450     8.0990     7.0870    11.2740   -15.9790 
   66.6250     2.3320    68.4270     7.9110     7.0290    11.3540   -16.8430 
   66.7500     2.2790    69.8180     7.7270     6.9390     9.5490   -17.5360 
   66.8750     2.2430    71.5000     7.6790     6.9060     8.7980   -18.0710 
   67.0000     2.2390    71.3090     7.8100     6.9780     9.1060   -18.4010 
   67.1250     2.2640    70.1760     8.0620     7.1390     9.8430   -18.5030 
   67.2500     2.2910    68.1020     8.2660     7.2920    10.3440   -18.4330 
   67.3750     2.2980    64.7580     8.3170     7.3640    10.1170   -18.1860 
   67.5000     2.2790    62.1420     8.1990     7.3300     9.1840   -17.7960 
   67.6250     2.2430    63.6870     7.9970     7.2320     8.5330   -17.3130 
   67.7500     2.2080    67.0040     7.8380     7.1530     8.0960   -16.7800 
   67.8750     2.1840    68.9710     7.7540     7.1180     7.7610   -16.1930 
   68.0000     2.1720    71.0360     7.6940     7.0940     7.4620   -15.5450 
   68.1250     2.1740    77.1080     7.5410     6.9860     7.1650   -14.7830 
   68.2500     2.1910    84.6040     7.2380     6.7400     6.7540   -13.9130 
   68.3750     2.2250    88.8880     6.8070     6.3590     6.1960   -12.9690 
   68.5000     2.2720    90.4610     6.3360     5.9050     5.4880   -12.0670 
   68.6250     2.3210    93.9270     5.9610     5.4820     4.7940   -11.3090 
   68.7500     2.3590    97.2770     5.7420     5.1540     4.4950   -10.7220 
   68.8750     2.3810    98.7900     5.6660     4.9330     4.5740   -10.3250 
   69.0000     2.3890    99.2070     5.6720     4.7900     4.7730   -10.1310 
   69.1250     2.3910    97.7880     5.6720     4.6850     4.9190   -10.2030 
   69.2500     2.3890    93.9240     5.6480     4.6020     5.0340   -10.5020 
   69.3750     2.3860    90.5920     5.7110     4.6000     5.1450   -11.0410 
   69.5000     2.3830    92.1660     6.0870     4.8160     5.4030   -11.8110 
   69.6250     2.3900    95.4840     7.1350     5.4910     6.5740   -12.7950 
   69.7500     2.4140    94.8590     8.8360     6.6240     9.9150   -13.9610 
   69.8750     2.4540    87.0840    10.9400     8.0830    15.0770   -15.3090 
   70.0000     2.4930    74.0590    12.9010     9.5410    20.6510   -16.8040 
   70.1250     2.4950    64.1460    13.8590    10.4210    24.9650   -18.3820 
   70.2500     2.4500    60.8800    13.5170    10.4670    21.5730   -19.9430 
   70.3750     2.3690    60.6020    12.1200     9.7720    13.7350   -21.4240 
   70.5000     2.2820    58.9570    10.3460     8.7420    10.0800   -22.7420 
   70.6250     2.2180    57.2700     8.9640     7.8660     9.4760   -23.8490 
   70.7500     2.1820    57.2580     8.3950     7.3270     9.5220   -24.7400 
   70.8750     2.1680    56.6730     8.2570     7.0950     9.6330   -25.3710 
   71.0000     2.1640    55.9770     8.3320     7.0570     9.6980   -25.7270 
   71.1250     2.1620    57.3980     8.4160     7.0870     9.5720   -25.8340 
   71.2500     2.1560    60.2380     8.4110     7.0960     9.3940   -25.7730 
   71.3750     2.1490    62.6010     8.3170     7.0660     9.2680   -25.5750 
   71.5000     2.1440    62.9930     8.1740     7.0130     9.1810   -25.2580 
   71.6250     2.1420    63.2200     8.0490     6.9750     9.1470   -24.7860 
   71.7500     2.1450    63.6420     8.0000     6.9870     9.0770   -24.1860 
   71.8750     2.1500    63.7470     8.0500     7.0630     8.9240   -23.4720 
   72.0000     2.1570    62.8880     8.1760     7.1870     8.7510   -22.6530 
   72.1250     2.1620    60.9690     8.2810     7.2850     8.6730   -21.6530 
   72.2500     2.1660    62.1320     8.2360     7.2620     8.6660   -20.5170 
   72.3750     2.1700    67.0380     7.9570     7.0510     8.5140   -19.2460 
   72.5000     2.1770    74.3980     7.4370     6.6410     8.1660   -17.8480 
   72.6250     2.1940    83.7370     6.7630     6.0910     7.5870   -16.3650 
   72.7500     2.2240    92.1560     6.1220     5.5480     6.6880   -14.8650 
