~V
VERS. 2.00: Ver 2.00
~W
STRT.M 53.0000:
STOP.M 371.0000:
STEP.M 0.1250:
NULL. -999.2500:
UWI. F10327:
~C
DEPT.M :
DEN.GM/CC :
GR.API :
RML.OHMM :
RI. :
RXO.OHMM :
SP.MV :
~A
# ...
  156.0000     2.3330    81.4470     5.9370     5.7100     5.9160    -4.2440 
  156.1250     2.3420    81.6700     5.7270     5.5140     5.7750    -4.1820 
  156.2500     2.3490    83.2400     5.5210     5.3060     5.6300    -4.1630 
  156.3750     2.3510    84.1240     5.3530     5.1210     5.6070    -4.2430 
  156.5000     2.3490    84.9820     5.2730     5.0030     5.6180    -4.4660 
  156.6250     2.3420    86.2040     5.3200     4.9890     5.5510    -4.7950 
  156.7500     2.3320    85.1490     5.5400     5.1160     5.4880    -5.2030 
  156.8750     2.3220    80.8240     5.9750     5.4220     5.6100    -5.6880 
  157.0000     2.3150    76.6440     6.6560     5.9480     6.0480    -6.2630 
  157.1250     2.3120    72.5410     7.4920     6.6330     6.6200    -6.9080 
  157.2500     2.3120    66.4190     8.3410     7.3800     7.2720    -7.5940 
  157.3750     2.3100    60.9870     9.0350     8.0560     7.8800    -8.2640 
  157.5000     2.3030    61.2960     9.3820     8.4880     8.3150    -8.8570 
  157.6250     2.2890    65.5220     9.3880     8.6310     8.0360    -9.3990 
  157.7500     2.2720    70.2460     9.1590     8.5340     7.7180    -9.8770 
  157.8750     2.2560    73.7790     8.8450     8.3050     7.6450   -10.2520 
  158.0000     2.2430    73.9780     8.5620     8.0410     7.7200   -10.4810 
  158.1250     2.2350    70.4910     8.3130     7.7800     7.7420   -10.5850 
  158.2500     2.2300    65.8040     8.0530     7.5020     7.8260   -10.5980 
  158.3750     2.2300    64.3060     7.7470     7.1870     7.9010   -10.5550 
  158.5000     2.2340    67.2230     7.4380     6.8670     7.5850   -10.4840 
  158.6250     2.2400    70.0470     7.2270     6.6190     6.8840   -10.3950 
  158.7500     2.2450    70.1570     7.2140     6.5270     6.1330   -10.3260 
  158.8750     2.2480    68.8940     7.4570     6.6490     5.8100   -10.2980 
  159.0000     2.2560    68.8200     7.9640     7.0200     6.1140   -10.3200 
  159.1250     2.2720    69.3660     8.6020     7.5510     6.6840   -10.3680 
  159.2500     2.2960    68.3190     9.2140     8.1220     7.0830   -10.4110 
  159.3750     2.3210    66.7760     9.6540     8.6030     7.2340   -10.4160 
  159.5000     2.3330    67.4230     9.7870     8.8540     7.2920   -10.3730 
  159.6250     2.3270    69.7500     9.6460     8.8620     7.3960   -10.2760 
  159.7500     2.3080    70.9290     9.3220     8.6720     7.5680   -10.1000 
  159.8750     2.2860    69.1150     8.8950     8.3460     7.7120    -9.8160 
  160.0000     2.2720    66.4630     8.4000     7.9120     7.8070    -9.4310 
  160.1250     2.2690    65.5770     7.8450     7.3990     7.8260    -9.0070 
  160.2500     2.2740    66.6600     7.2540     6.8410     7.6950    -8.6060 
  160.3750     2.2820    68.8070     6.6930     6.2960     7.3520    -8.2770 
  160.5000     2.2880    71.1730     6.3010     5.8780     6.7050    -8.0650 
  160.6250     2.2860    72.0840     6.1720     5.6690     6.0620    -8.0020 
  160.7500     2.2760    70.4690     6.3300     5.7040     5.9130    -8.1000 
  160.8750     2.2610    68.2930     6.7310     5.9700     6.4130    -8.3610 
  161.0000     2.2450    68.2250     7.2840     6.4170     7.1610    -8.7500 
  161.1250     2.2320    67.8560     7.8460     6.9270     7.7330    -9.1870 
  161.2500     2.2230    64.1440     8.3070     7.3940     8.1150    -9.6320 
  161.3750     2.2170    57.6630     8.5990     7.7420     8.3420   -10.0720 
  161.5000     2.2170    53.6940     8.6840     7.9120     8.4620   -10.4380 
  161.6250     2.2230    54.4810     8.6220     7.9400     8.5360   -10.6630 
  161.7500     2.2350    59.0650     8.4910     7.8780     8.6450   -10.7190 
  161.8750     2.2490    63.3680     8.3630     7.7810     8.7430   -10.6520 
  162.0000     2.2620    63.3230     8.2850     7.6920     8.6580   -10.5280 
  162.1250     2.2700    60.7940     8.2440     7.6150     8.3820   -10.3840 
  162.2500     2.2740    59.0150     8.1890     7.5260     8.2200   -10.1980 
  162.3750     2.2770    58.4330     8.0640     7.3860     8.3470    -9.9410 
  162.5000     2.2830    59.5250     7.8330     7.1700     8.4780    -9.6520 
  162.6250     2.2890    63.0950     7.5430     6.9060     8.4370    -9.3960 
  162.7500     2.2940    67.2420     7.2740     6.6550     8.1150    -9.2390 
  162.8750     2.2960    68.2420     7.1130     6.4840     7.5740    -9.1980 
  163.0000     2.2940    66.3410     7.1480     6.4680     7.0980    -9.2410 
  163.1250     2.2870    65.1340     7.3630     6.6110     7.0190    -9.3450 
  163.2500     2.2800    64.6320     7.6880     6.8760     7.2960    -9.5210 
  163.3750     2.2720    63.0890     8.0200     7.1880     7.8780    -9.7680 
  163.5000     2.2640    60.5600     8.2140     7.4320     8.4020   -10.0340 
  163.6250     2.2580    58.5330     8.1960     7.5190     8.5560   -10.2570 
  163.7500     2.2550    57.8760     7.9650     7.4150     8.3140   -10.3850 
  163.8750     2.2570    58.5730     7.5880     7.1520     7.9640   -10.4190 
  164.0000     2.2610    59.7830     7.1880     6.8160     7.5340   -10.4180 
  164.1250     2.2650    60.5470     6.8720     6.5090     7.0480   -10.4110 
  164.2500     2.2660    61.6300     6.6910     6.2900     6.5590   -10.4070 
  164.3750     2.2640    63.5010     6.6460     6.1800     6.2740   -10.4180 
  164.5000     2.2590    64.6440     6.7270     6.1930     6.2780   -10.5020 
  164.6250     2.2540    64.5850     6.8900     6.3030     6.4390   -10.6640 
  164.7500     2.2500    63.8240     7.0990     6.4830     6.5070   -10.8810 
  164.8750     2.2460    61.9010     7.3240     6.7040     6.6200   -11.0960 
  165.0000     2.2430    59.9820     7.5240     6.9230     7.0120   -11.2580 
  165.1250     2.2420    59.4950     7.6730     7.1040     7.6410   -11.3480 
  165.2500     2.2440    60.4840     7.7590     7.2300     8.0290   -11.3820 
  165.3750     2.2480    61.1390     7.7820     7.2890     7.9690   -11.3660 
  165.5000     2.2510    59.9460     7.7300     7.2620     7.7370   -11.2420 
  165.6250     2.2530    57.7840     7.5950     7.1410     7.7380   -11.0210 
  165.7500     2.2580    56.5350     7.3590     6.9150     7.8970   -10.7440 
  165.8750     2.2700    57.6910     7.0220     6.5870     7.7920   -10.4650 
  166.0000     2.2910    60.4750     6.6340     6.2030     7.4150   -10.2430 
  166.1250     2.3160    63.9070     6.3140     5.8670     6.8720   -10.1010 
  166.2500     2.3350    67.2710     6.1810     5.6760     6.3080   -10.0640 
  166.3750     2.3410    68.4840     6.3240     5.7080     5.8930   -10.1690 
  166.5000     2.3270    65.6760     6.8100     6.0350     6.1360   -10.4580 
  166.6250     2.3040    61.6290     7.5550     6.6100     6.9930   -10.8900 
  166.7500     2.2800    60.8220     8.4360     7.3490     7.8540   -11.4120 
  166.8750     2.2630    63.2710     9.2990     8.1350     8.1970   -11.9920 
  167.0000     2.2550    66.2940     9.9270     8.7870     8.1460   -12.6210 
  167.1250     2.2520    65.8710    10.2080     9.1760     7.9920   -13.2660 
  167.2500     2.2480    61.7050    10.1170     9.2440     7.8300   -13.8570 
  167.3750     2.2410    57.8670     9.7300     9.0220     7.7370   -14.3400 
  167.5000     2.2330    56.7020     9.1950     8.6080     7.7750   -14.6970 
  167.6250     2.2240    57.4260     8.6850     8.1560     7.8290   -14.9990 
  167.7500     2.2170    59.1760     8.2990     7.7670     7.8490   -15.2780 
  167.8750     2.2140    61.7500     8.0690     7.4910     7.8520   -15.5090 
  168.0000     2.2110    63.4960     7.9880     7.3460     7.8380   -15.6670 
  168.1250     2.2090    64.1950     8.0000     7.3040     7.8380   -15.7910 
  168.2500     2.2070    64.4280     8.0580     7.3330     7.9110   -15.9080 
  168.3750     2.2040    63.2470     8.1270     7.4040     8.0370   -16.0210 
  168.5000     2.2000    59.0160     8.1670     7.4780     8.2430   -16.0970 
  168.6250     2.1950    54.1420     8.1520     7.5160     8.4890   -16.1070 
  168.7500     2.1890    51.6330     8.0630     7.4870     8.6830   -16.0660 
