~V
VERS. 2.00: Ver 2.00
~W
STRT.M 53.0000:
STOP.M 371.0000:
STEP.M 0.1250:
NULL. -999.2500:
UWI. F10327:
~C
DEPT.M :
DEN.GM/CC :
GR.API :
RML.OHMM :
RI. :
RXO.OHMM :
SP.MV :
~A
# ...
  323.3750     2.1640    51.9310    36.3940    33.9050    27.9170   -19.4170 
  323.5000     2.1510    54.0930    35.7080    32.8650    24.1740   -19.2210 
  323.6250     2.1630    54.4250    36.1250    32.6670    22.2550   -18.9980 
  323.7500     2.2020    53.0900    38.2650    33.8410    21.4290   -18.7700 
  323.8750     2.2700    51.3030    42.5900    36.8320    21.0920   -18.5550 
  324.0000     2.3630    50.1800    49.5700    42.2240    22.0310   -18.3670 
  324.1250     2.4600    48.7680    58.4180    49.5900    24.2490   -18.2300 
  324.2500     2.5430    46.7040    67.6180    57.8330    29.7450   -18.1430 
  324.3750     2.5980    45.6430    74.9560    65.0870    41.7580   -18.0900 
  324.5000     2.6170    47.4810    77.2080    68.3290    61.8700   -18.0740 
  324.6250     2.6030    50.7350    73.6150    66.3460    86.7760   -18.0940 
  324.7500     2.5580    52.0630    65.5580    59.9260    98.0900   -18.1420 
  324.8750     2.4870    50.3420    56.0250    51.5910    93.4140   -18.1980 
  325.0000     2.4040    47.9210    48.3500    44.4150    64.9410   -18.2440 
  325.1250     2.3270    48.1340    43.6030    39.6250    41.0460   -18.2730 
  325.2500     2.2720    52.1360    41.4010    37.0830    31.7870   -18.3000 
  325.3750     2.2440    57.3790    40.8240    36.1120    31.4370   -18.3290 
  325.5000     2.2410    59.1700    40.9190    35.9970    32.4440   -18.3610 
  325.6250     2.2510    57.8520    41.0100    36.1140    31.6120   -18.3810 
  325.7500     2.2600    56.0270    40.9660    36.2570    29.2150   -18.3790 
  325.8750     2.2610    54.9610    40.9950    36.5110    28.6940   -18.3640 
  326.0000     2.2550    54.2050    41.4110    37.0890    29.4660   -18.3410 
  326.1250     2.2480    54.2980    42.1550    37.9470    31.7490   -18.2980 
  326.2500     2.2450    56.2220    42.8650    38.7950    35.6070   -18.2170 
  326.3750     2.2460    58.6910    43.0510    39.2060    37.0800   -18.0970 
  326.5000     2.2520    58.0460    42.2050    38.6810    36.1030   -17.9540 
  326.6250     2.2640    53.9860    40.4290    37.2490    33.1970   -17.7960 
  326.7500     2.2810    49.7980    38.1030    35.2180    30.2600   -17.6340 
  326.8750     2.2990    49.4590    35.7040    33.0200    27.5860   -17.4800 
  327.0000     2.3130    52.3460    33.6880    31.0800    28.5620   -17.3490 
  327.1250     2.3210    54.1250    32.1850    29.5600    28.9150   -17.2520 
  327.2500     2.3220    53.3760    31.1880    28.4820    27.9480   -17.1900 
  327.3750     2.3210    52.6770    30.6550    27.8250    26.6040   -17.1530 
  327.5000     2.3220    53.3360    30.5690    27.5880    26.2580   -17.1090 
  327.6250     2.3240    53.1940    30.7930    27.6530    25.7280   -17.0540 
  327.7500     2.3280    52.7680    31.1860    27.9030    24.4980   -16.9820 
  327.8750     2.3320    54.7740    31.6080    28.2190    23.5850   -16.8870 
  328.0000     2.3340    57.8840    31.9530    28.4990    23.7160   -16.7660 
  328.1250     2.3300    58.2370    32.2550    28.7420    25.8540   -16.6470 
  328.2500     2.3220    56.1270    32.6400    29.0330    29.4260   -16.5500 
  328.3750     2.3090    54.1060    33.2510    29.4920    31.5920   -16.4920 
  328.5000     2.2950    53.9860    34.2020    30.2300    33.1210   -16.4870 
  328.6250     2.2860    55.2990    35.3830    31.1820    31.8920   -16.5210 
  328.7500     2.2820    56.4810    36.5930    32.1980    31.6000   -16.5890 
  328.8750     2.2870    55.8330    37.6080    33.0930    31.8580   -16.6750 
  329.0000     2.2940    53.7760    38.1830    33.6520    32.2500   -16.7520 
  329.1250     2.3010    52.3160    38.2640    33.8160    32.6750   -16.8010 
  329.2500     2.3040    52.2560    37.9060    33.6110    32.0450   -16.8110 
  329.3750     2.3050    54.1810    37.2780    33.1630    30.4060   -16.7670 
  329.5000     2.3100    57.1600    36.7170    32.7310    29.7990   -16.6670 
  329.6250     2.3210    58.6640    36.5570    32.5970    28.2030   -16.5100 
  329.7500     2.3350    57.2740    36.9410    32.9050    26.3160   -16.2950 
  329.8750     2.3430    54.6970    37.7020    33.5550    26.8300   -16.0420 
  330.0000     2.3380    52.4490    38.2260    34.0750    29.6610   -15.7630 
  330.1250     2.3220    50.0160    37.8450    33.8830    31.6760   -15.4620 
  330.2500     2.3040    48.0050    36.2260    32.6290    31.7360   -15.1510 
  330.3750     2.2890    48.9490    33.5610    30.4110    28.6480   -14.8470 
  330.5000     2.2800    54.5750    30.6380    27.8630    23.9900   -14.5620 
  330.6250     2.2760    61.1720    28.4060    25.8280    19.3790   -14.3080 
  330.7500     2.2720    64.5290    27.3800    24.7860    17.3120   -14.0640 
  330.8750     2.2670    63.4840    27.6020    24.8380    17.6570   -13.8140 
  331.0000     2.2610    59.6190    28.8940    25.9320    19.6680   -13.5620 
  331.1250     2.2550    55.2970    30.7720    27.6950    22.1260   -13.2910 
  331.2500     2.2560    51.2060    32.8870    29.8140    23.8110   -12.9860 
  331.3750     2.2720    47.6060    34.9620    32.0080    24.4800   -12.6390 
  331.5000     2.3140    46.4620    36.5950    33.8750    23.9690   -12.2480 
  331.6250     2.3780    48.3100    37.3890    35.0090    22.7640   -11.8410 
  331.7500     2.4430    50.7350    36.9650    34.9990    23.8950   -11.4530 
  331.8750     2.4860    51.3440    35.1470    33.5960    27.9690   -11.1020 
  332.0000     2.4880    49.6640    32.1200    30.8660    32.0070   -10.8080 
  332.1250     2.4650    47.6460    28.7800    27.6520    30.4100   -10.5880 
  332.2500     2.4360    46.8780    26.0110    24.8030    22.6100   -10.4530 
  332.3750     2.4090    47.1170    24.4850    22.9410    16.4870   -10.4120 
  332.5000     2.3810    47.1180    24.8890    22.6620    14.3780   -10.4530 
  332.6250     2.3450    48.0040    27.3280    24.0810    15.6030   -10.5350 
  332.7500     2.3080    51.6770    31.9700    27.4000    18.8710   -10.6380 
  332.8750     2.2860    55.7530    39.0010    32.8780    24.1900   -10.7490 
  333.0000     2.2990    54.6940    48.5790    40.8650    33.7040   -10.8390 
  333.1250     2.3480    50.7300    59.5640    50.5150    49.1990   -10.8910 
  333.2500     2.4190    47.9480    70.1900    60.3390    73.7810   -10.9010 
  333.3750     2.4900    47.1340    78.3240    68.3660   102.2150   -10.8660 
  333.5000     2.5330    47.6290    81.5110    72.1500   110.7020   -10.8170 
  333.6250     2.5420    49.2880    80.1510    71.7180   102.0540   -10.7710 
  333.7500     2.5280    50.4450    76.1070    68.5310    87.1770   -10.7290 
  333.8750     2.5080    49.3840    71.3240    64.3140    68.2350   -10.6820 
  334.0000     2.4900    46.9870    66.5140    59.8690    55.3080   -10.6290 
  334.1250     2.4730    45.2760    60.9790    54.8120    51.2320   -10.5820 
  334.2500     2.4510    45.6920    53.9580    48.5760    52.8390   -10.5340 
  334.3750     2.4160    47.1370    45.6050    41.3050    52.0930   -10.4760 
  334.5000     2.3620    48.2450    37.4850    34.3410    41.2970   -10.4050 
  334.6250     2.3050    49.1060    31.4620    29.1950    26.8170   -10.3260 
  334.7500     2.2600    49.4210    28.6280    26.7060    17.1190   -10.2400 
  334.8750     2.2460    48.0910    29.1600    27.0670    14.5310   -10.1520 
  335.0000     2.2730    45.3930    32.5880    30.1370    17.4410   -10.0780 
  335.1250     2.3260    44.6310    37.0370    34.4840    23.5160   -10.0110 
  335.2500     2.3810    45.6900    40.5150    38.3380    31.5460    -9.9600 
  335.3750     2.4130    46.0010    41.2730    39.8470    39.3390    -9.9280 
  335.5000     2.3990    46.0320    38.0590    37.3050    38.9220    -9.8990 
  335.6250     2.3490    47.3610    32.3550    31.9080    33.4080    -9.8700 
  335.7500     2.2840    49.3090    26.3620    25.9030    25.1650    -9.8340 
  335.8750     2.2190    50.0990    21.7430    21.0320    17.1030    -9.7750 
  336.0000     2.1750    49.7500    19.5920    18.3080    13.0700    -9.6800 
  336.1250     2.1640    49.1630    19.9910    17.7340    11.9610    -9.5620 
