~V
VERS. 2.00: Ver 2.00
~W
STRT.M 60.0000:
STOP.M 392.0000:
STEP.M 0.1250:
NULL. -999.2500:
UWI. F10306:
~C
DEPT.M :
DEN.GM/CC :
GR.API :
RML.OHMM :
RI. :
RXO.OHMM :
SP.MV :
~A
# ...
  124.3750     2.5030    58.6400    34.3590    28.3670    56.9000   -14.1280 
  124.5000     2.5840    55.7830    43.3320    37.5280    71.6310   -13.9400 
  124.6250     2.6340    51.4820    48.2540    43.2880    76.7700   -13.7500 
  124.7500     2.6600    50.2340    48.9250    44.5630    76.2210   -13.5720 
  124.8750     2.6680    49.4840    47.4540    44.6450    71.7280   -13.4480 
  125.0000     2.6570    51.8110    40.3750    38.9430    62.1500   -13.4060 
  125.1250     2.6180    54.7870    30.3140    29.7790    48.6270   -13.4050 
  125.2500     2.5560    60.6240    21.1630    21.1700    33.0580   -13.3720 
  125.3750     2.4820    70.0420    14.3980    14.6450    18.8330   -13.2810 
  125.5000     2.4060    80.4240    10.1230    10.3400     9.7960   -13.1400 
  125.6250     2.3410    87.4560     8.0100     7.9940     7.0750   -13.0140 
  125.7500     2.2930    89.3050     7.0380     6.7450     6.3200   -12.8780 
  125.8750     2.2640    85.9520     6.7380     6.2150     6.2590   -12.7040 
  126.0000     2.2540    80.5200     6.7840     6.1320     6.2430   -12.4870 
  126.1250     2.2600    79.3370     6.9690     6.3220     6.1870   -12.3120 
  126.2500     2.2750    83.5580     7.1580     6.6040     6.0540   -12.2270 
  126.3750     2.2930    89.1590     7.3130     6.8990     6.0090   -12.2360 
  126.5000     2.3100    91.9940     7.4160     7.1550     6.0860   -12.3400 
  126.6250     2.3240    89.7730     7.4260     7.2990     6.2550   -12.5690 
  126.7500     2.3320    85.0510     7.3370     7.3050     6.3470   -12.9290 
  126.8750     2.3340    82.0170     7.1710     7.1750     6.3490   -13.4060 
  127.0000     2.3280    82.1340     6.9980     6.9640     6.3050   -14.0270 
  127.1250     2.3140    84.7050     6.9590     6.7860     6.2580   -14.8030 
  127.2500     2.2950    85.8090     7.1340     6.7430     6.3020   -15.6530 
  127.3750     2.2730    82.6150     7.5360     6.8820     6.5850   -16.5540 
  127.5000     2.2480    76.6030     8.0930     7.1850     7.1940   -17.4600 
  127.6250     2.2220    70.8410     8.6390     7.5730     8.1020   -18.2930 
  127.7500     2.1970    67.6280     9.0310     7.9170     8.9370   -19.0420 
  127.8750     2.1750    65.9590     9.2730     8.1720     9.4350   -19.7220 
  128.0000     2.1600    64.6880     9.5690     8.4170     9.6550   -20.2720 
  128.1250     2.1630    66.0170    10.4470     8.9870     9.9890   -20.6020 
  128.2500     2.1920    66.4080    12.2320    10.1870    11.1610   -20.7740 
  128.3750     2.2540    63.3780    14.9460    12.1490    14.0410   -20.8550 
  128.5000     2.3430    56.5350    18.1250    14.6620    18.8950   -20.9200 
  128.6250     2.4260    51.9770    20.6180    16.9650    24.6420   -21.0100 
  128.7500     2.4640    53.1120    21.4180    18.1250    28.7970   -21.1180 
  128.8750     2.4370    56.5160    20.1240    17.5950    27.7100   -21.2720 
  129.0000     2.3600    58.8560    17.2320    15.5680    21.2950   -21.5090 
  129.1250     2.2740    59.0830    14.0030    12.9760    14.7850   -21.8140 
  129.2500     2.2100    59.6020    11.5300    10.8250    10.8580   -22.1380 
  129.3750     2.1760    61.6550    10.0540     9.3940     9.2510   -22.4640 
  129.5000     2.1640    64.5450     9.4000     8.6300     8.7940   -22.7760 
  129.6250     2.1620    67.9870     9.2960     8.4050     8.7700   -23.0890 
  129.7500     2.1600    69.7900     9.3710     8.4260     8.7920   -23.3750 
  129.8750     2.1570    68.7120     9.4700     8.5490     8.8360   -23.5820 
  130.0000     2.1550    66.4560     9.5290     8.6810     8.8680   -23.7160 
  130.1250     2.1560    65.9720     9.5460     8.7760     8.8770   -23.8470 
  130.2500     2.1590    67.4020     9.5570     8.8370     8.9010   -23.9810 
  130.3750     2.1630    68.1400     9.5730     8.8680     8.9660   -24.0760 
  130.5000     2.1660    67.4240     9.5880     8.8720     9.0610   -24.1280 
  130.6250     2.1690    68.1330     9.5810     8.8460     9.2050   -24.1340 
  130.7500     2.1730    69.0190     9.5520     8.8050     9.3440   -24.1330 
  130.8750     2.1810    69.4100     9.5250     8.7670     9.4770   -24.1350 
  131.0000     2.1920    68.9300     9.5370     8.7490     9.7460   -24.1350 
  131.1250     2.2020    65.6570     9.6320     8.7620    10.3860   -24.1180 
  131.2500     2.2100    62.2070     9.7950     8.7910    11.3280   -24.1240 
  131.3750     2.2120    61.1930     9.9900     8.8210    12.3240   -24.1790 
  131.5000     2.2080    61.3210    10.1650     8.8360    12.7910   -24.2360 
  131.6250     2.1990    60.3380    10.2500     8.8280    12.0040   -24.2470 
  131.7500     2.1890    59.7280    10.2240     8.8030    10.1030   -24.2300 
  131.8750     2.1800    61.7870    10.1040     8.7670     9.1710   -24.2110 
  132.0000     2.1750    64.2750     9.9430     8.7220     8.9470   -24.2090 
  132.1250     2.1740    63.9980     9.8170     8.6690     8.9370   -24.2180 
  132.2500     2.1740    62.5880     9.7550     8.6120     8.9000   -24.1960 
  132.3750     2.1730    61.2910     9.7390     8.5540     8.8150   -24.1360 
  132.5000     2.1710    61.0290     9.7280     8.4960     8.7040   -24.0840 
  132.6250     2.1690    61.0780     9.6970     8.4460     8.5570   -24.0790 
  132.7500     2.1700    61.1710     9.6660     8.4130     8.4180   -24.0940 
  132.8750     2.1730    61.6860     9.6730     8.4050     8.3390   -24.1110 
  133.0000     2.1780    61.6260     9.7390     8.4230     8.3070   -24.1240 
  133.1250     2.1810    60.1650     9.8480     8.4630     8.3360   -24.1340 
  133.2500     2.1820    58.9880     9.9410     8.5000     8.4660   -24.1440 
  133.3750     2.1790    59.0050     9.9750     8.5160     8.6510   -24.1510 
  133.5000     2.1760    59.7800     9.9420     8.5060     8.7450   -24.1410 
  133.6250     2.1720    60.1420     9.8760     8.4780     8.7290   -24.1320 
  133.7500     2.1680    61.1500     9.8390     8.4550     8.7130   -24.1340 
  133.8750     2.1670    63.5910     9.8580     8.4540     8.7400   -24.1310 
  134.0000     2.1680    65.2690     9.9170     8.4770     8.9060   -24.1000 
  134.1250     2.1720    62.4720     9.9570     8.5120     9.1430   -24.0520 
  134.2500     2.1770    58.7160     9.9340     8.5340     9.3360   -24.0210 
  134.3750     2.1820    58.0230     9.8480     8.5330     9.4170   -24.0210 
  134.5000     2.1840    58.5220     9.7350     8.5060     9.4090   -24.0290 
  134.6250     2.1840    59.0620     9.6520     8.4620     9.3580   -23.9880 
  134.7500     2.1820    59.9180     9.6250     8.4170     9.3230   -23.9280 
  134.8750     2.1820    59.7770     9.6480     8.3760     9.3490   -23.8960 
  135.0000     2.1830    58.4820     9.6900     8.3410     9.4070   -23.8860 
  135.1250     2.1830    58.0400     9.7160     8.3130     9.5160   -23.8570 
  135.2500     2.1820    58.3540     9.7070     8.2930     9.6230   -23.7890 
  135.3750     2.1800    56.3650     9.6660     8.2860     9.6980   -23.6970 
  135.5000     2.1770    53.5510     9.6110     8.2950     9.7410   -23.6340 
  135.6250     2.1750    55.9040     9.5800     8.3150     9.7120   -23.6220 
  135.7500     2.1740    59.4740     9.5980     8.3330     9.6580   -23.5890 
  135.8750     2.1740    60.3460     9.6570     8.3430     9.6050   -23.5080 
  136.0000     2.1730    57.1300     9.7260     8.3400     9.5860   -23.4050 
  136.1250     2.1730    53.0450     9.7600     8.3230     9.6160   -23.3200 
  136.2500     2.1750    53.0790     9.7540     8.2930     9.6710   -23.2480 
  136.3750     2.1770    56.8910     9.7300     8.2560     9.7180   -23.1430 
  136.5000     2.1780    59.1010     9.7190     8.2220     9.7480   -22.9830 
  136.6250     2.1750    55.6690     9.7540     8.2200     9.7690   -22.7890 
  136.7500     2.1710    51.9810     9.8290     8.2730     9.7800   -22.5920 
  136.8750     2.1730    51.7810     9.9300     8.3840     9.8160   -22.3720 
  137.0000     2.1870    55.0840    10.0340     8.5310     9.8480   -22.1420 
  137.1250     2.2130    60.3590    10.1030     8.6580     9.8360   -21.8880 
