~V
VERS. 2.00: Ver 2.00
~W
STRT.M 53.0000:
STOP.M 371.0000:
STEP.M 0.1250:
NULL. -999.2500:
UWI. F10327:
~C
DEPT.M :
DEN.GM/CC :
GR.API :
RML.OHMM :
RI. :
RXO.OHMM :
SP.MV :
~A
# ...
  181.7500     2.3010    84.6580     5.5360     5.1800     5.9530    -2.6330 
  181.8750     2.3080    87.1430     5.4260     5.0780     5.7960    -2.6170 
  182.0000     2.3200    89.7820     5.3590     5.0100     5.5630    -2.6490 
  182.1250     2.3290    89.4580     5.3540     5.0010     5.4780    -2.7050 
  182.2500     2.3300    85.4150     5.4080     5.0570     5.5370    -2.7730 
  182.3750     2.3200    80.0980     5.5070     5.1660     5.6820    -2.8800 
  182.5000     2.3040    75.3180     5.6290     5.3090     5.9050    -3.0750 
  182.6250     2.2860    73.2310     5.7550     5.4610     5.9990    -3.3370 
  182.7500     2.2740    75.1190     5.8850     5.6070     5.9970    -3.6260 
  182.8750     2.2700    78.1390     6.0220     5.7440     6.0090    -3.9210 
  183.0000     2.2690    78.2410     6.1640     5.8610     6.0620    -4.2180 
  183.1250     2.2680    76.8180     6.2780     5.9360     6.0520    -4.5200 
  183.2500     2.2660    75.4270     6.3210     5.9350     6.1600    -4.8130 
  183.3750     2.2670    74.0920     6.2480     5.8250     6.3510    -5.0470 
  183.5000     2.2750    72.6070     6.0350     5.5890     6.3860    -5.1790 
  183.6250     2.2900    73.7930     5.7500     5.2880     6.1990    -5.2780 
  183.7500     2.3070    79.4450     5.5170     5.0210     5.8220    -5.4000 
  183.8750     2.3220    86.3840     5.5010     4.9140     5.4810    -5.5510 
  184.0000     2.3370    87.3870     5.9900     5.1810     5.5140    -5.7270 
  184.1250     2.3600    82.5050     7.1600     5.9670     6.0760    -5.9440 
  184.2500     2.3990    77.1850     9.1190     7.3990     7.3300    -6.2460 
  184.3750     2.4530    73.4320    11.7730     9.4840     9.6250    -6.6960 
  184.5000     2.5060    68.9490    14.6150    11.9500    13.9220    -7.3070 
  184.6250     2.5380    63.7290    16.7740    14.1080    19.9270    -8.0120 
  184.7500     2.5360    59.3190    17.4600    15.2150    24.9840    -8.7870 
  184.8750     2.4960    56.5150    16.3260    14.7850    27.2110    -9.6340 
  185.0000     2.4280    56.0180    13.7710    12.9190    24.0380   -10.5290 
  185.1250     2.3530    56.7920    11.0330    10.6480    17.3550   -11.4090 
  185.2500     2.2860    57.7740     8.9170     8.7270    11.8880   -12.2090 
  185.3750     2.2320    58.7050     7.6330     7.4230     9.2440   -12.8820 
  185.5000     2.1960    59.1390     7.1060     6.7570     8.3000   -13.4280 
  185.6250     2.1750    59.0640     7.0130     6.5090     7.8720   -13.8830 
  185.7500     2.1630    60.3250     7.1200     6.5030     7.6500   -14.2120 
  185.8750     2.1580    63.3040     7.2700     6.6020     7.6020   -14.3720 
  186.0000     2.1550    65.4000     7.3420     6.6920     7.6090   -14.3870 
  186.1250     2.1540    66.3080     7.3090     6.7160     7.6240   -14.3310 
  186.2500     2.1550    67.4950     7.1890     6.6670     7.6390   -14.2390 
  186.3750     2.1580    68.2590     7.0290     6.5640     7.6170   -14.1360 
  186.5000     2.1630    66.8100     6.8850     6.4450     7.4850   -14.0350 
  186.6250     2.1660    66.1040     6.7900     6.3410     7.3350   -13.9530 
  186.7500     2.1600    68.2710     6.7550     6.2700     7.2730   -13.9240 
  186.8750     2.1450    71.3390     6.7690     6.2370     7.3200   -13.9590 
  187.0000     2.1230    71.0550     6.8170     6.2400     7.4720   -14.0480 
  187.1250     2.1040    68.0210     6.8770     6.2650     7.6930   -14.1620 
  187.2500     2.0970    66.0450     6.9350     6.3030     8.0060   -14.2910 
  187.3750     2.1030    66.1830     6.9910     6.3520     8.3640   -14.4330 
  187.5000     2.1210    66.8120     7.0730     6.4320     8.6390   -14.5270 
  187.6250     2.1420    66.1890     7.2230     6.5750     8.6590   -14.5140 
  187.7500     2.1620    64.3300     7.4780     6.8050     8.5660   -14.3890 
  187.8750     2.1760    62.6230     7.8370     7.1240     8.4680   -14.1740 
  188.0000     2.1840    62.7430     8.2350     7.4850     8.3910   -13.8570 
  188.1250     2.1870    63.8940     8.5400     7.7840     8.2940   -13.4440 
  188.2500     2.1880    64.8320     8.6690     7.9170     8.1720   -12.9320 
  188.3750     2.1930    65.5150     8.5540     7.8240     7.9840   -12.3390 
  188.5000     2.2040    68.0620     8.2590     7.5060     7.6920   -11.7510 
  188.6250     2.2190    71.8580     7.9550     7.1010     7.2150   -11.2410 
  188.7500     2.2320    73.8090     7.6590     6.7410     6.6980   -10.8050 
  188.8750     2.2370    71.8430     7.4020     6.5090     6.5980   -10.4010 
  189.0000     2.2300    68.1110     7.2960     6.4300     6.9330    -9.9890 
  189.1250     2.2180    66.3130     7.2670     6.4400     7.2940    -9.5680 
  189.2500     2.2120    66.6440     7.2250     6.4650     7.4260    -9.1470 
  189.3750     2.2170    68.0710     7.1280     6.4530     7.3170    -8.7300 
  189.5000     2.2370    70.0250     6.9770     6.3810     6.9460    -8.2740 
  189.6250     2.2620    72.9010     6.8230     6.2750     6.3990    -7.7730 
  189.7500     2.2850    77.0920     6.7100     6.1720     5.9380    -7.2780 
  189.8750     2.3010    81.7540     6.6620     6.0990     5.7640    -6.8450 
  190.0000     2.3100    83.3720     6.6650     6.0590     5.7950    -6.5190 
  190.1250     2.3160    80.4360     6.6530     6.0060     5.8000    -6.2810 
  190.2500     2.3220    75.6050     6.5630     5.8890     5.7930    -6.1320 
  190.3750     2.3300    73.2500     6.3500     5.6680     5.8090    -6.0940 
  190.5000     2.3420    77.2820     6.0320     5.3510     5.8020    -6.2170 
  190.6250     2.3580    83.9290     5.7530     5.0450     5.6330    -6.4580 
  190.7500     2.3770    87.8570     5.7290     4.9030     5.3260    -6.7950 
  190.8750     2.3990    87.9180     6.2070     5.1090     5.2140    -7.2390 
  191.0000     2.4210    85.7800     7.5350     5.9300     5.8010    -7.8550 
  191.1250     2.4330    82.2050     9.7300     7.4450     7.5000    -8.6580 
  191.2500     2.4230    76.4350    12.6090     9.6150    10.6140    -9.6130 
  191.3750     2.3850    68.8420    15.7310    12.2070    15.8350   -10.6380 
  191.5000     2.3260    61.7770    18.2960    14.6830    23.3250   -11.6500 
  191.6250     2.2650    57.2760    19.7170    16.4530    24.8330   -12.6200 
  191.7500     2.2190    56.3750    19.8690    17.2120    21.3400   -13.5190 
  191.8750     2.1940    57.1680    19.1490    17.1020    18.5900   -14.2910 
  192.0000     2.1880    57.0260    18.2450    16.5860    17.8380   -14.8460 
  192.1250     2.1920    56.5490    17.6090    16.1130    17.8650   -15.1970 
  192.2500     2.1990    56.8690    17.2950    15.8210    18.0480   -15.3850 
  192.3750     2.2020    58.8490    17.1650    15.6720    17.4870   -15.4610 
  192.5000     2.2030    62.4210    17.0610    15.5770    15.6470   -15.4360 
  192.6250     2.2010    63.8070    16.8940    15.4700    13.9200   -15.3240 
  192.7500     2.1990    61.2060    16.6520    15.3340    13.6260   -15.1320 
  192.8750     2.1960    57.4610    16.3870    15.2000    14.4960   -14.8840 
  193.0000     2.1940    57.4120    16.2180    15.1470    14.9790   -14.5620 
  193.1250     2.1900    59.2400    16.1950    15.2110    14.6110   -14.1360 
  193.2500     2.1870    58.8690    16.2170    15.3070    14.4740   -13.5780 
  193.3750     2.1910    56.0060    16.0230    15.2130    14.9570   -12.8760 
  193.5000     2.2080    53.5370    15.1810    14.5330    15.4510   -12.0370 
  193.6250     2.2390    55.3440    13.5800    13.1320    15.4790   -11.0740 
  193.7500     2.2800    61.7360    11.4070    11.1440    14.5200    -9.9960 
  193.8750     2.3230    67.7340     9.0910     8.9490    11.9950    -8.8690 
  194.0000     2.3580    68.7480     7.1760     7.0550     8.9020    -7.8060 
  194.1250     2.3830    67.9420     5.8720     5.6830     6.7040    -6.8830 
  194.2500     2.3970    69.8270     5.1710     4.8530     5.7340    -6.1350 
  194.3750     2.4010    75.1280     4.9720     4.5030     5.4320    -5.5620 
  194.5000     2.3950    80.7450     5.2050     4.5930     5.3460    -5.2060 
