~V
VERS. 2.00: Ver 2.00
~W
STRT.M 60.0000:
STOP.M 392.0000:
STEP.M 0.1250:
NULL. -999.2500:
UWI. F10306:
~C
DEPT.M :
DEN.GM/CC :
GR.API :
RML.OHMM :
RI. :
RXO.OHMM :
SP.MV :
~A
# ...
  227.3750     2.4260    71.3440    24.2680    23.2440    26.6630   -14.2150 
  227.5000     2.4250    68.7070    23.6990    22.7970    26.7740   -14.3000 
  227.6250     2.4220    68.6090    23.1370    22.3390    26.6050   -14.3350 
  227.7500     2.4170    72.1590    22.6160    21.8710    25.4630   -14.3280 
  227.8750     2.4150    74.6360    22.1780    21.4460    24.1900   -14.2820 
  228.0000     2.4200    73.3990    21.8940    21.1610    24.0160   -14.1950 
  228.1250     2.4300    71.6280    21.9440    21.1810    23.6350   -14.0750 
  228.2500     2.4390    71.3550    22.4340    21.5530    23.4880   -13.9360 
  228.3750     2.4440    72.0620    23.4500    22.3090    23.6620   -13.7680 
  228.5000     2.4410    72.8200    24.9820    23.4300    24.7060   -13.5950 
  228.6250     2.4340    73.0570    26.9310    24.8800    26.9220   -13.4600 
  228.7500     2.4280    73.6280    28.9670    26.4660    29.6130   -13.3750 
  228.8750     2.4230    76.2570    30.8300    28.0300    32.6940   -13.3360 
  229.0000     2.4190    80.5680    32.3140    29.4200    35.3440   -13.3280 
  229.1250     2.4130    82.4780    33.2410    30.4740    36.6020   -13.3430 
  229.2500     2.4050    81.5340    33.7440    31.2230    36.3720   -13.3730 
  229.3750     2.3950    78.8890    33.9650    31.7310    35.6730   -13.4420 
  229.5000     2.3850    75.5780    34.0770    32.0980    34.2960   -13.5360 
  229.6250     2.3740    72.4240    34.2610    32.4380    33.4010   -13.6200 
  229.7500     2.3620    70.2990    34.5960    32.8210    32.6080   -13.6810 
  229.8750     2.3520    69.2360    35.0680    33.2370    32.0540   -13.7240 
  230.0000     2.3440    70.1650    35.6000    33.6380    32.4600   -13.7400 
  230.1250     2.3420    72.9660    36.0710    33.9700    33.7980   -13.7500 
  230.2500     2.3460    73.6040    36.4270    34.2480    35.7180   -13.7690 
  230.3750     2.3500    72.0310    36.6900    34.5170    37.3520   -13.7930 
  230.5000     2.3500    72.2220    36.9190    34.8310    39.7640   -13.8180 
  230.6250     2.3430    74.2800    37.1660    35.2250    41.8280   -13.8440 
  230.7500     2.3330    74.5190    37.4260    35.6590    41.6120   -13.8550 
  230.8750     2.3280    73.6680    37.6610    36.0850    39.4980   -13.8370 
  231.0000     2.3310    73.6700    37.8270    36.4660    38.5600   -13.8280 
  231.1250     2.3440    71.0630    37.8930    36.7520    38.6680   -13.8110 
  231.2500     2.3600    66.1980    37.8840    36.9170    38.0600   -13.7770 
  231.3750     2.3720    62.9770    37.7960    36.9330    37.6750   -13.7120 
  231.5000     2.3780    63.3180    37.6000    36.7890    37.1980   -13.6410 
  231.6250     2.3760    64.4250    37.2610    36.4970    37.4100   -13.5490 
  231.7500     2.3720    63.1760    36.8510    36.1730    36.8750   -13.4420 
  231.8750     2.3670    62.2630    36.4830    35.9250    36.4660   -13.3410 
  232.0000     2.3630    65.2610    36.2920    35.8400    36.3800   -13.2320 
  232.1250     2.3590    69.9440    36.4040    35.9760    36.3550   -13.1310 
  232.2500     2.3570    71.4920    36.7350    36.2600    37.1590   -13.0350 
  232.3750     2.3600    70.4180    37.1680    36.6170    37.9400   -12.9530 
  232.5000     2.3710    69.9130    37.5830    36.9660    37.7860   -12.8580 
  232.6250     2.3880    70.2910    37.8880    37.2310    37.8840   -12.7720 
  232.7500     2.4040    69.6690    38.0810    37.4000    38.1460   -12.7090 
  232.8750     2.4140    69.5930    38.1400    37.4540    39.2990   -12.6550 
  233.0000     2.4180    69.7060    38.0120    37.3590    41.3260   -12.5980 
  233.1250     2.4190    70.0100    37.5970    37.0500    42.2050   -12.5420 
  233.2500     2.4230    70.3330    36.9610    36.5720    43.4170   -12.4950 
  233.3750     2.4260    71.0130    36.2290    35.9930    43.7200   -12.4530 
  233.5000     2.4270    73.8650    35.5580    35.3950    40.5140   -12.4410 
  233.6250     2.4250    76.6710    35.0750    34.8450    38.3750   -12.4370 
  233.7500     2.4230    76.8760    34.6770    34.3180    37.7850   -12.4290 
  233.8750     2.4230    74.9210    34.1530    33.7150    38.0130   -12.4080 
  234.0000     2.4260    73.5540    33.2670    32.8960    36.8280   -12.3770 
  234.1250     2.4280    75.1610    31.8100    31.6750    34.8260   -12.3330 
  234.2500     2.4250    76.6320    29.9680    30.0990    32.6550   -12.2950 
  234.3750     2.4180    77.3460    27.9940    28.3000    30.5920   -12.2750 
  234.5000     2.4100    77.3660    26.1770    26.5020    27.9720   -12.2510 
  234.6250     2.4030    75.8900    24.8300    25.0240    24.5800   -12.2210 
  234.7500     2.3940    72.5960    23.9940    24.0060    22.0600   -12.1700 
  234.8750     2.3850    69.5250    23.6570    23.4990    20.8810   -12.1320 
  235.0000     2.3760    70.3830    23.7370    23.4570    21.0490   -12.1060 
  235.1250     2.3740    74.5340    24.1140    23.7770    22.3100   -12.0770 
  235.2500     2.3800    75.0250    24.5370    24.1930    23.7970   -12.0110 
  235.3750     2.3910    72.2970    24.8210    24.5100    25.3760   -11.8840 
  235.5000     2.4030    71.6100    24.8230    24.5780    26.9610   -11.7120 
  235.6250     2.4130    74.5200    24.4180    24.2660    27.5200   -11.5200 
  235.7500     2.4220    75.1370    23.6950    23.6440    27.3040   -11.3440 
  235.8750     2.4320    72.9700    22.7520    22.7850    26.0510   -11.1820 
  236.0000     2.4430    71.8620    21.7240    21.7980    24.2110   -11.0350 
  236.1250     2.4540    74.2390    20.7870    20.8260    22.3540   -10.9270 
  236.2500     2.4630    75.6280    20.0510    19.9890    20.7560   -10.8900 
  236.3750     2.4660    74.1990    19.5550    19.3490    19.7070   -10.9550 
  236.5000     2.4620    71.8860    19.2690    18.9130    19.4520   -11.1250 
  236.6250     2.4500    70.1770    19.1340    18.6570    19.5770   -11.3800 
  236.7500     2.4350    69.0010    19.0590    18.4880    19.7560   -11.6610 
  236.8750     2.4190    68.7310    19.0320    18.3680    19.4840   -11.9310 
  237.0000     2.4050    71.0320    19.0770    18.2970    18.7340   -12.1720 
  237.1250     2.3930    74.2600    19.2450    18.3280    18.3660   -12.3870 
  237.2500     2.3860    75.1920    19.5090    18.4720    19.0590   -12.5540 
  237.3750     2.3860    74.5120    19.8000    18.6990    20.6690   -12.6740 
  237.5000     2.3950    74.5600    20.0220    18.9210    21.9030   -12.7430 
  237.6250     2.4130    76.9620    20.0570    18.9940    21.5240   -12.7470 
  237.7500     2.4370    77.8970    19.9270    18.8780    20.8960   -12.7180 
  237.8750     2.4580    76.8970    19.7310    18.6220    20.0320   -12.6570 
  238.0000     2.4700    74.3500    19.6310    18.3570    19.0150   -12.5610 
  238.1250     2.4690    70.5390    19.8310    18.2800    18.5440   -12.4130 
  238.2500     2.4610    67.4570    20.3090    18.4340    18.5070   -12.2450 
  238.3750     2.4540    67.5070    20.9230    18.7380    19.1430   -12.0380 
  238.5000     2.4540    70.5390    21.4260    19.0050    20.2120   -11.7810 
  238.6250     2.4650    73.4470    21.4780    18.9520    20.9040   -11.4660 
  238.7500     2.4770    76.5370    21.0170    18.4990    21.5680   -11.1170 
  238.8750     2.4840    78.4260    20.1240    17.7080    21.1430   -10.7830 
  239.0000     2.4830    76.5530    19.0400    16.7920    18.8720   -10.4820 
  239.1250     2.4780    71.8860    18.1640    16.0980    16.7480   -10.2210 
  239.2500     2.4760    69.3680    17.7540    15.8300    16.2510    -9.9450 
  239.3750     2.4810    69.5430    17.8680    16.0330    16.3770    -9.6450 
  239.5000     2.4900    69.8640    18.3320    16.5650    16.5320    -9.3460 
  239.6250     2.4970    69.6680    18.6740    17.0400    17.0000    -9.0980 
  239.7500     2.4950    70.8180    18.3760    16.9860    17.3450    -8.8640 
  239.8750     2.4850    75.1320    17.1390    16.0930    17.2780    -8.6040 
  240.0000     2.4670    79.9440    15.0010    14.3360    16.5860    -8.3030 
  240.1250     2.4390    79.8530    12.3540    12.0030    14.4850    -7.9660 
