~V
VERS. 2.00: Ver 2.00
~W
STRT.M 53.0000:
STOP.M 371.0000:
STEP.M 0.1250:
NULL. -999.2500:
UWI. F10327:
~C
DEPT.M :
DEN.GM/CC :
GR.API :
RML.OHMM :
RI. :
RXO.OHMM :
SP.MV :
~A
# ...
  117.3750     2.3740    79.1150     6.7720     5.5960     6.5370    -1.4460 
  117.5000     2.3830    78.0420     7.0500     5.7320     6.1740    -1.3840 
  117.6250     2.3980    75.5690     7.7260     6.1680     6.2760    -1.3690 
  117.7500     2.4190    73.5850     8.6920     6.8660     7.1730    -1.4420 
  117.8750     2.4430    70.5500     9.7030     7.6770     8.7020    -1.6190 
  118.0000     2.4530    64.6010    10.3540     8.3220    10.9030    -1.8760 
  118.1250     2.4390    61.0300    10.4040     8.5650    12.8400    -2.1520 
  118.2500     2.4030    63.3050     9.8310     8.3200    12.6890    -2.4330 
  118.3750     2.3570    68.0440     8.8560     7.6930    10.0220    -2.7360 
  118.5000     2.3180    69.0420     7.8640     6.9510     7.5160    -3.0620 
  118.6250     2.2920    66.4010     7.1370     6.3420     6.4520    -3.3800 
  118.7500     2.2810    64.7750     6.7580     5.9680     6.2090    -3.6860 
  118.8750     2.2810    67.3870     6.6850     5.8290     6.1370    -3.9900 
  119.0000     2.2840    72.5540     6.8430     5.8940     6.1170    -4.3350 
  119.1250     2.2850    76.2150     7.1090     6.0740     6.1010    -4.7310 
  119.2500     2.2810    76.4230     7.3860     6.2930     6.1730    -5.1340 
  119.3750     2.2740    74.4130     7.5970     6.4810     6.2780    -5.4820 
  119.5000     2.2700    71.5050     7.6690     6.5660     6.5170    -5.7640 
  119.6250     2.2730    69.0380     7.6030     6.5290     6.8330    -6.0310 
  119.7500     2.2830    67.2140     7.4350     6.3900     6.9250    -6.2810 
  119.8750     2.2930    66.2790     7.2310     6.1900     6.6220    -6.4910 
  120.0000     2.2970    67.2560     7.0620     5.9930     6.2140    -6.6390 
  120.1250     2.2940    69.4510     6.9720     5.8480     6.1570    -6.7480 
  120.2500     2.2850    70.5400     6.9990     5.7960     6.3090    -6.8620 
  120.3750     2.2730    69.7080     7.2130     5.8880     6.4820    -7.0190 
  120.5000     2.2650    68.4190     7.7980     6.2470     6.6930    -7.2010 
  120.6250     2.2650    67.0540     8.8910     6.9700     6.9720    -7.3560 
  120.7500     2.2850    63.6240    10.5730     8.1420     7.5690    -7.4800 
  120.8750     2.3340    56.7050    12.7400     9.7460     8.9120    -7.5900 
  121.0000     2.4060    49.5770    14.9200    11.5250    11.3570    -7.6800 
  121.1250     2.4730    46.8600    16.3960    12.9510    15.3570    -7.7590 
  121.2500     2.5030    48.7430    16.5810    13.5030    20.9440    -7.8130 
  121.3750     2.4760    52.1440    15.3190    12.9130    23.5860    -7.8270 
  121.5000     2.4010    53.5870    13.1140    11.4000    18.7460    -7.8320 
  121.6250     2.3180    54.1080    11.0320     9.7830    12.3470    -7.8380 
  121.7500     2.2580    54.9790     9.7050     8.6180     8.7890    -7.8050 
  121.8750     2.2400    54.5300     9.2220     8.0590     7.8080    -7.7000 
  122.0000     2.2690    53.4090     9.3450     8.0150     8.1260    -7.5100 
  122.1250     2.3230    54.4210     9.5920     8.1570     8.8370    -7.2520 
  122.2500     2.3730    58.0850     9.6030     8.2000     9.8930    -6.9490 
  122.3750     2.3960    61.9890     9.2010     7.9610    11.3740    -6.6110 
  122.5000     2.3850    65.8050     8.4220     7.4010     9.7920    -6.2600 
  122.6250     2.3600    71.4290     7.5740     6.7280     7.8170    -5.9480 
  122.7500     2.3330    77.0950     6.9190     6.1540     6.5170    -5.7260 
  122.8750     2.3100    79.1600     6.5750     5.7990     5.8860    -5.5990 
  123.0000     2.2890    77.7120     6.5330     5.6970     6.0130    -5.5510 
  123.1250     2.2690    75.6370     6.6370     5.7490     6.4560    -5.5330 
  123.2500     2.2540    73.7560     6.7670     5.8610     6.8010    -5.5300 
  123.3750     2.2430    72.8670     6.8710     5.9750     6.8300    -5.5730 
  123.5000     2.2350    72.5250     6.9400     6.0640     6.4930    -5.6410 
  123.6250     2.2230    70.7790     6.9820     6.1260     6.1260    -5.6640 
  123.7500     2.2080    66.7870     6.9840     6.1480     6.0680    -5.5830 
  123.8750     2.1990    63.4510     6.9120     6.1050     6.4820    -5.3750 
  124.0000     2.2050    65.1740     6.7090     5.9440     6.9960    -5.0740 
  124.1250     2.2290    70.2350     6.3830     5.6670     7.2580    -4.7670 
  124.2500     2.2650    75.8800     5.9780     5.3040     7.0210    -4.4910 
  124.3750     2.3010    80.5440     5.5670     4.9130     5.9900    -4.2520 
  124.5000     2.3260    84.7200     5.2650     4.5880     5.2550    -4.1080 
  124.6250     2.3370    87.9670     5.1640     4.4080     4.8460    -4.1280 
  124.7500     2.3390    88.4640     5.3390     4.4390     4.7410    -4.3810 
  124.8750     2.3330    85.3990     5.8360     4.7240     4.8200    -4.8920 
  125.0000     2.3180    80.0500     6.6700     5.2950     5.2870    -5.6240 
  125.1250     2.2930    74.0310     7.6900     6.0570     6.2570    -6.4790 
  125.2500     2.2610    67.4040     8.7010     6.8780     7.8090    -7.3980 
  125.3750     2.2250    61.1940     9.4940     7.5980     9.6070    -8.3350 
  125.5000     2.1960    58.3220     9.8450     8.0250    10.7600    -9.1930 
  125.6250     2.1770    57.7600     9.7650     8.1150    10.1110    -9.8510 
  125.7500     2.1720    57.7280     9.3700     7.9150     8.9310   -10.2550 
  125.8750     2.1770    58.0270     8.8230     7.5380     8.2480   -10.4230 
  126.0000     2.1900    59.8520     8.2840     7.1030     7.9900   -10.3630 
  126.1250     2.2070    61.7840     7.8360     6.7010     7.7770   -10.1080 
  126.2500     2.2220    64.1760     7.4970     6.3670     7.4570    -9.6980 
  126.3750     2.2320    69.1100     7.2680     6.1130     6.9900    -9.1880 
  126.5000     2.2330    74.3020     7.1520     5.9540     6.4970    -8.6770 
  126.6250     2.2270    75.6770     7.1270     5.8840     6.2150    -8.2470 
  126.7500     2.2150    73.0720     7.1780     5.8950     6.2210    -7.9020 
  126.8750     2.2030    69.3850     7.2890     5.9750     6.4190    -7.6090 
  127.0000     2.1930    67.3740     7.4430     6.1010     6.5570    -7.3520 
  127.1250     2.1850    67.7060     7.5980     6.2350     6.6680    -7.1180 
  127.2500     2.1790    70.2140     7.7010     6.3360     6.8000    -6.8900 
  127.3750     2.1770    73.7220     7.6940     6.3620     6.9570    -6.6110 
  127.5000     2.1830    76.3730     7.5170     6.2710     7.0780    -6.1600 
  127.6250     2.1970    77.3050     7.1970     6.0750     7.0940    -5.5420 
  127.7500     2.2180    77.3860     6.7970     5.8050     6.8550    -4.8330 
  127.8750     2.2430    78.0000     6.3970     5.5100     6.3490    -4.1120 
  128.0000     2.2670    80.2430     6.1090     5.2660     5.7370    -3.4240 
  128.1250     2.2900    84.0310     5.9910     5.1290     5.4690    -2.7870 
  128.2500     2.3170    87.8680     6.0530     5.1260     5.4510    -2.2240 
  128.3750     2.3490    89.1540     6.2510     5.2410     5.4930    -1.7950 
  128.5000     2.3830    85.6630     6.4780     5.4070     5.6410    -1.5930 
  128.6250     2.4080    81.4250     6.6130     5.5260     6.0900    -1.5880 
  128.7500     2.4150    78.9460     6.5850     5.5280     6.6970    -1.7270 
  128.8750     2.4010    78.0930     6.4040     5.4010     6.9970    -1.9710 
  129.0000     2.3750    78.4560     6.1600     5.2010     6.0080    -2.3380 
  129.1250     2.3470    80.3250     5.9790     5.0260     5.2710    -2.8020 
  129.2500     2.3240    83.8190     5.9290     4.9440     5.1150    -3.3100 
  129.3750     2.3060    87.9140     6.0140     4.9750     5.3300    -3.8070 
  129.5000     2.2930    88.7620     6.1960     5.1110     5.5820    -4.2760 
  129.6250     2.2840    85.1290     6.4140     5.3050     5.7290    -4.7500 
  129.7500     2.2770    79.9060     6.6390     5.5240     5.8220    -5.2410 
  129.8750     2.2720    76.0730     6.8640     5.7480     5.8930    -5.7200 
  130.0000     2.2650    72.4630     7.1000     5.9750     6.1350    -6.1120 
  130.1250     2.2550    66.9300     7.3550     6.2140     6.6050    -6.3960 
