~V
VERS. 2.00: Ver 2.00
~W
STRT.M 54.0000:
STOP.M 355.0000:
STEP.M 0.1250:
NULL. -999.2500:
UWI. F10328:
~C
DEPT.M :
DEN.GM/CC :
SP.MV :
R2M. :
R025. :
RA2. :
GR.API :
RML.OHMM :
RI. :
RXO.OHMM :
~A
# ...
  108.7500     2.1860   -21.9180    13.4120     8.6450    13.4120    53.9900    11.9790     9.5970    11.4510 
  108.8750     2.1850   -21.8860    13.2880     8.5650    13.2880    53.6240    12.1230     9.6790    11.3230 
  109.0000     2.1800   -21.8550    13.1250     8.5530    13.1250    54.3440    12.4150     9.8790    11.3270 
  109.1250     2.1820   -21.7750    13.1350     8.6520    13.1350    54.9790    12.8020    10.1650    11.4530 
  109.2500     2.1940   -21.6650    13.3090     8.8060    13.3090    53.5840    13.1280    10.4310    11.1340 
  109.3750     2.2100   -21.5130    13.3830     8.9530    13.3830    52.5680    13.2540    10.5780    10.9020 
  109.5000     2.2190   -21.3160    13.4250     9.0380    13.4250    54.5110    13.1080    10.5430    10.9370 
  109.6250     2.2140   -21.0760    13.5010     9.0020    13.5010    55.7520    12.7340    10.3290    11.1890 
  109.7500     2.2030   -20.7990    13.5850     8.8540    13.5850    54.4170    12.3450    10.0730    11.4100 
  109.8750     2.1940   -20.4900    13.6820     8.6370    13.6820    53.3910    12.0780     9.8750    11.5240 
  110.0000     2.1880   -20.1540    13.7550     8.4160    13.7550    55.3630    11.9950     9.7940    11.5800 
  110.1250     2.1830   -19.7830    13.7600     8.2810    13.7600    57.4590    12.0880     9.8430    11.4490 
  110.2500     2.1800   -19.3660    13.7510     8.2540    13.7510    56.7430    12.2190     9.9390    11.4290 
  110.3750     2.1790   -18.9160    13.7560     8.2970    13.7560    56.4810    12.2850     9.9980    11.3960 
  110.5000     2.1790   -18.4310    13.7460     8.3300    13.7460    58.0120    12.2000     9.9450    11.3710 
  110.6250     2.1800   -17.8990    13.6840     8.2530    13.6840    59.3510    11.8670     9.6860    11.1190 
  110.7500     2.1920   -17.3280    13.5900     8.0730    13.5900    60.8030    11.3240     9.2450    10.7810 
  110.8750     2.2190   -16.7470    13.2980     7.8610    13.2980    63.9560    10.6690     8.6940    10.4450 
  111.0000     2.2480   -16.1880    12.8610     7.7190    12.8610    68.8750    10.0760     8.1680    10.0070 
  111.1250     2.2440   -15.7100    12.5840     7.7480    12.5840    73.0010     9.8280     7.8770     8.7320 
  111.2500     2.2020   -15.3180    12.5050     7.9460    12.5050    74.7190    10.0680     7.9350     7.5090 
  111.3750     2.1400   -14.9940    12.6320     8.2810    12.6320    73.3460    10.8340     8.3980     7.5270 
  111.5000     2.0840   -14.7460    12.9410     8.6790    12.9410    69.0480    11.9970     9.2260     8.4900 
  111.6250     2.0690   -14.5800    13.2800     9.0090    13.2800    64.4740    13.1850    10.2290     9.3500 
  111.7500     2.1020   -14.5040    13.4810     9.1650    13.4810    61.8650    13.9160    11.0250     9.7010 
  111.8750     2.1600   -14.4770    13.6780     9.1000    13.6780    60.8160    13.9300    11.3280     9.7650 
  112.0000     2.2090   -14.4810    13.9070     8.8480    13.9070    61.8400    13.3110    11.0780     9.5650 
  112.1250     2.2240   -14.4510    13.9640     8.5270    13.9640    63.3740    12.4630    10.4760     9.4540 
  112.2500     2.2260   -14.3850    13.8680     8.2760    13.8680    63.7960    11.8210     9.8920     9.6070 
  112.3750     2.2330   -14.3010    13.6120     8.1390    13.6120    62.5790    11.5160     9.4890    10.0890 
  112.5000     2.2490   -14.1920    13.2330     8.0850    13.2330    60.4110    11.5030     9.3060    10.4350 
  112.6250     2.2590   -14.0370    12.9070     8.0170    12.9070    60.8240    11.6200     9.2870    10.3420 
  112.7500     2.2480   -13.8190    12.7820     7.8420    12.7820    65.5190    11.6200     9.2460     9.9310 
  112.8750     2.2160   -13.5630    12.8130     7.5250    12.8130    72.3570    11.3600     9.0420     9.3690 
  113.0000     2.1770   -13.2620    12.7930     7.1000    12.7930    75.5120    10.8220     8.6270     8.6620 
  113.1250     2.1540   -12.9530    12.5060     6.6920    12.5060    73.1130    10.0950     8.0660     7.7080 
  113.2500     2.1610   -12.6500    12.0640     6.4500    12.0640    72.1020     9.3890     7.5330     6.8120 
  113.3750     2.1980   -12.3800    11.7300     6.4520    11.7300    73.3690     8.8650     7.1510     6.2580 
  113.5000     2.2430   -12.1430    11.5380     6.6670    11.5380    73.5060     8.6630     7.0100     6.3790 
  113.6250     2.2680   -12.1120    11.4990     6.7290    11.4990    71.4590     8.9120     7.1980     7.7380 
  113.7500     2.2790   -11.9740    11.3340     7.0210    11.3340    71.1340     9.4500     7.6150     8.6640 
  113.8750     2.2890   -11.9000    11.2490     7.2110    11.2490    72.9830    10.0480     8.1180     9.4990 
  114.0000     2.3080   -11.9020    11.2320     7.2240    11.2320    73.4280    10.4200     8.5030    11.5630 
  114.1250     2.3340   -12.0180    11.2470     7.0540    11.2470    72.5840    10.2940     8.5360    15.4670 
  114.2500     2.3480   -12.2160    11.3090     6.8270    11.3090    73.5690     9.8150     8.2620    17.0550 
  114.3750     2.3360   -12.4820    11.3660     6.6510    11.3660    76.5650     9.2440     7.8360    12.0030 
  114.5000     2.3060   -12.7670    11.2190     6.6090    11.2190    78.0640     8.8440     7.4440     8.2450 
  114.6250     2.2690   -13.0840    10.9130     6.7600    10.9130    73.9270     8.8080     7.2560     7.4010 
  114.7500     2.2370   -13.3640    10.5440     7.0300    10.5440    67.5300     9.0630     7.2900     7.8990 
  114.8750     2.2150   -13.6260    10.0520     7.3260    10.0520    62.5800     9.5130     7.5260     8.0720 
  115.0000     2.2020   -13.8140     9.5420     7.5660     9.5420    61.8610    10.0320     7.9000     7.8100 
  115.1250     2.1870   -13.8920     9.2500     7.7210     9.2500    63.8600    10.5110     8.3340     7.8790 
  115.2500     2.1620   -13.8560     9.2260     7.8600     9.2260    63.8590    10.9680     8.7820     8.0870 
  115.3750     2.1360   -13.6970     9.4140     8.0530     9.4140    62.8330    11.4910     9.2760     8.5460 
  115.5000     2.1320   -13.4220     9.8410     8.3300     9.8410    63.6890    12.1300     9.8500     9.0800 
  115.6250     2.1900   -13.0140    10.5780     8.6320    10.5780    67.1520    12.7810    10.4500     9.4610 
  115.7500     2.3030   -12.5290    11.4830     8.8130    11.4830    69.1600    13.1930    10.8940    10.1210 
  115.8750     2.4250   -11.9810    12.4830     8.7640    12.4830    68.6170    13.1220    10.9790    12.1790 
  116.0000     2.4890   -11.4170    13.2470     8.4460    13.2470    68.8020    12.4500    10.5860    14.7850 
  116.1250     2.4640   -10.8770    13.4840     7.9010    13.4840    72.3380    11.2790     9.7430    15.9160 
  116.2500     2.4070   -10.3880    13.4670     7.3090    13.4670    76.7000    10.0480     8.7770    10.5020 
  116.3750     2.3530    -9.9720    13.2510     6.7870    13.2510    79.5290     9.0310     7.9080     7.6800 
  116.5000     2.3180    -9.6510    12.7650     6.3990    12.7650    80.5960     8.3340     7.2480     6.8940 
  116.6250     2.3040    -9.4660    11.9270     6.1680    11.9270    82.3620     7.9620     6.8370     6.9200 
  116.7500     2.3030    -9.3970    10.8910     6.0250    10.8910    85.6010     7.7520     6.5740     6.9770 
  116.8750     2.3070    -9.4560     9.7030     5.9180     9.7030    89.9070     7.6120     6.3960     6.9510 
  117.0000     2.3130    -9.6250     8.6560     5.8120     8.6560    94.7340     7.5070     6.2680     6.8130 
  117.1250     2.3190    -9.9080     8.0410     5.7020     8.0410    97.4710     7.4750     6.2020     6.5340 
  117.2500     2.3210   -10.2700     7.6480     5.6180     7.6480    96.8450     7.5160     6.1960     6.5240 
  117.3750     2.3160   -10.7200     7.3900     5.6120     7.3900    94.6440     7.6140     6.2390     6.8030 
  117.5000     2.3110   -11.2520     7.2360     5.7340     7.2360    93.7010     7.7780     6.3410     7.5580 
  117.6250     2.3240   -11.8880     7.2700     6.0260     7.2700    93.8570     8.0870     6.5630     8.2790 
  117.7500     2.3570   -12.6000     7.6400     6.4280     7.6400    91.9430     8.5850     6.9300     8.3600 
