~V
VERS. 2.00: Ver 2.00
~W
STRT.M 53.0000:
STOP.M 371.0000:
STEP.M 0.1250:
NULL. -999.2500:
UWI. F10327:
~C
DEPT.M :
DEN.GM/CC :
GR.API :
RML.OHMM :
RI. :
RXO.OHMM :
SP.MV :
~A
# ...
  194.6250     2.3820    82.5700     5.7120     4.9910     5.3330    -5.0830 
  194.7500     2.3600    79.0670     6.3540     5.5750     5.3590    -5.1690 
  194.8750     2.3320    72.6390     6.9790     6.2060     5.4470    -5.3840 
  195.0000     2.3030    67.3860     7.3950     6.7010     5.7500    -5.6240 
  195.1250     2.2840    65.4740     7.5220     6.9530     6.2230    -5.8190 
  195.2500     2.2810    66.7240     7.3900     6.9510     6.5750    -5.9650 
  195.3750     2.2950    68.9550     7.1190     6.7830     6.6170    -6.1080 
  195.5000     2.3210    69.7300     6.8980     6.6080     6.3380    -6.2680 
  195.6250     2.3460    70.8770     6.8560     6.5600     6.1460    -6.4170 
  195.7500     2.3630    73.4470     7.0260     6.6960     6.3580    -6.5610 
  195.8750     2.3680    75.5140     7.3750     7.0050     6.9320    -6.7300 
  196.0000     2.3640    73.6860     7.8290     7.4360     7.2790    -6.9790 
  196.1250     2.3590    70.4210     8.2830     7.8900     7.5210    -7.3080 
  196.2500     2.3560    70.0920     8.6610     8.2790     7.8140    -7.6820 
  196.3750     2.3540    72.3380     8.9100     8.5420     8.0500    -8.0360 
  196.5000     2.3510    72.7830     8.9820     8.6220     8.0320    -8.3400 
  196.6250     2.3450    70.4260     8.9020     8.5400     7.9630    -8.5930 
  196.7500     2.3380    68.6510     8.7070     8.3300     7.9060    -8.7740 
  196.8750     2.3320    69.1000     8.4400     8.0320     7.8880    -8.8620 
  197.0000     2.3300    69.7420     8.1340     7.6790     7.7060    -8.8550 
  197.1250     2.3310    69.5940     7.8170     7.3010     7.3680    -8.8180 
  197.2500     2.3350    70.0390     7.5390     6.9400     7.1890    -8.7980 
  197.3750     2.3410    71.8900     7.4070     6.6790     7.4110    -8.8130 
  197.5000     2.3520    74.4750     7.6970     6.7200     7.6300    -8.8620 
  197.6250     2.3680    75.0360     8.7200     7.2560     7.6900    -8.9750 
  197.7500     2.3890    71.9540    10.8160     8.5260     8.2970    -9.2020 
  197.8750     2.4140    67.4000    14.2670    10.7860    10.4990    -9.5730 
  198.0000     2.4370    64.8970    19.2580    14.3780    15.4940   -10.0800 
  198.1250     2.4570    63.5010    25.2340    19.0950    23.1930   -10.6380 
  198.2500     2.4700    61.9150    31.1660    24.4730    28.6530   -11.2030 
  198.3750     2.4750    61.7710    36.5050    29.8510    30.4290   -11.7850 
  198.5000     2.4750    64.3670    40.7850    34.4810    31.3410   -12.3790 
  198.6250     2.4770    65.6470    44.3970    38.3680    33.2080   -12.9480 
  198.7500     2.4850    63.3640    47.9630    41.9640    35.2480   -13.4310 
  198.8750     2.5040    59.4620    51.7260    45.5900    41.9630   -13.8140 
  199.0000     2.5270    56.8580    55.0790    48.8920    55.6380   -14.1220 
  199.1250     2.5400    56.5360    57.0200    51.0840    76.8540   -14.4030 
  199.2500     2.5320    57.8110    56.7840    51.4570    91.9090   -14.6770 
  199.3750     2.5060    59.0400    54.3040    49.8120    77.2970   -14.9130 
  199.5000     2.4730    58.9690    50.3780    46.6630    52.4170   -15.0820 
  199.6250     2.4480    58.8300    46.4990    43.3100    39.6660   -15.2310 
  199.7500     2.4330    59.9410    43.5930    40.6560    34.9370   -15.3870 
  199.8750     2.4280    61.0730    41.9340    39.0500    33.3840   -15.5180 
  200.0000     2.4260    60.3720    41.4570    38.5230    32.4650   -15.5850 
  200.1250     2.4280    59.2070    41.6270    38.6350    31.8660   -15.5930 
  200.2500     2.4300    58.7260    41.8820    38.8980    31.3750   -15.5540 
  200.3750     2.4380    58.5820    41.6050    38.7610    30.9890   -15.4830 
  200.5000     2.4500    57.7780    40.0360    37.5080    32.2290   -15.3680 
  200.6250     2.4600    57.7020    37.1950    35.0720    36.0300   -15.2130 
  200.7500     2.4610    58.3230    33.7200    31.9580    42.9700   -15.0590 
  200.8750     2.4490    59.2210    30.6380    29.0460    43.2810   -14.9480 
  201.0000     2.4280    61.1770    29.1850    27.4130    32.4120   -14.8860 
  201.1250     2.4060    61.6050    29.6680    27.3990    24.0110   -14.8540 
  201.2500     2.3920    58.1950    31.8390    28.9170    23.9660   -14.8350 
  201.3750     2.3870    52.9830    35.0620    31.5580    29.3800   -14.8180 
  201.5000     2.3920    51.3390    38.3730    34.5970    33.9100   -14.8440 
  201.6250     2.4090    53.1650    40.8990    37.1740    35.2020   -14.9010 
  201.7500     2.4340    55.7520    42.2520    38.7660    36.4230   -14.9370 
  201.8750     2.4590    57.7510    42.6080    39.3600    37.4640   -14.9220 
  202.0000     2.4710    57.9270    42.5510    39.3940    38.0410   -14.8840 
  202.1250     2.4620    56.6300    42.6500    39.4330    39.0340   -14.8440 
  202.2500     2.4310    55.5800    43.0930    39.7010    40.3400   -14.8200 
  202.3750     2.3900    55.8020    43.8400    40.2030    39.3410   -14.8160 
  202.5000     2.3560    55.5870    44.7390    40.8430    37.2220   -14.7990 
  202.6250     2.3430    54.4100    45.5340    41.4170    35.1530   -14.7810 
  202.7500     2.3530    53.6960    45.9880    41.7280    33.3670   -14.7990 
  202.8750     2.3770    53.0260    45.9440    41.6370    32.2680   -14.8620 
  203.0000     2.3960    51.8350    45.3520    41.0840    31.3660   -14.9370 
  203.1250     2.3980    51.5870    44.5120    40.2980    29.1260   -14.9870 
  203.2500     2.3780    53.0450    43.8440    39.6180    26.4230   -15.0190 
  203.3750     2.3450    55.4960    43.7530    39.3900    25.4700   -15.0670 
  203.5000     2.3140    58.1970    44.5910    39.9560    26.0230   -15.1220 
  203.6250     2.2940    59.3620    46.1980    41.2530    27.5050   -15.1390 
  203.7500     2.2840    57.5780    48.2070    43.0230    29.8480   -15.1020 
  203.8750     2.2880    54.3060    50.1180    44.8610    31.7930   -15.0420 
  204.0000     2.3000    53.4240    51.2780    46.1770    33.1840   -14.9680 
  204.1250     2.3130    54.2220    51.3920    46.6250    33.3370   -14.8830 
  204.2500     2.3170    54.1710    50.4240    46.0950    33.7710   -14.7520 
  204.3750     2.3080    53.5880    48.5510    44.6910    35.1100   -14.5520 
  204.5000     2.2850    53.7900    46.1010    42.6680    34.1730   -14.3110 
  204.6250     2.2610    54.0850    43.5500    40.4580    32.5590   -14.0760 
  204.7500     2.2440    54.5140    41.2330    38.3720    29.9930   -13.8210 
  204.8750     2.2390    55.7130    39.3640    36.6200    27.5440   -13.5010 
  205.0000     2.2470    56.8630    38.1540    35.4040    25.8960   -13.1160 
  205.1250     2.2590    57.1320    37.5800    34.7310    25.5120   -12.7030 
  205.2500     2.2720    57.4140    37.5920    34.5780    25.9760   -12.3170 
  205.3750     2.2760    58.1550    38.1160    34.8980    26.9930   -11.9780 
  205.5000     2.2630    57.5810    39.0700    35.6460    28.8720   -11.6460 
  205.6250     2.2400    55.6280    40.2670    36.6510    30.3540   -11.3050 
  205.7500     2.2170    54.7590    41.5730    37.7790    31.0020   -11.0060 
  205.8750     2.2060    54.2000    42.9120    38.9360    31.3290   -10.7710 
  206.0000     2.2150    52.9710    44.2390    40.0590    30.5120   -10.5670 
  206.1250     2.2400    54.3150    45.5310    41.1370    27.1880   -10.3780 
  206.2500     2.2700    58.2590    46.7360    42.1560    20.6180   -10.1970 
  206.3750     2.2920    60.9900    47.7220    43.0410    14.3720   -10.0260 
  206.5000     2.2960    58.3450    48.1250    43.5140    12.9620    -9.8920 
  206.6250     2.2810    53.5810    47.6110    43.2620    15.7040    -9.7550 
  206.7500     2.2540    50.3910    45.9020    41.9900    21.1960    -9.5960 
  206.8750     2.2300    48.8400    42.9530    39.5890    28.1710    -9.4360 
  207.0000     2.2300    49.8990    39.0560    36.2540    33.2080    -9.3140 
  207.1250     2.2560    53.0670    35.0030    32.6910    31.7880    -9.2220 
  207.2500     2.2980    57.7990    31.4500    29.5090    25.6840    -9.1280 
  207.3750     2.3400    62.7870    28.7560    27.0500    20.2400    -9.0120 
