~V
VERS. 2.00: Ver 2.00
~W
STRT.M 53.0000:
STOP.M 371.0000:
STEP.M 0.1250:
NULL. -999.2500:
UWI. F10327:
~C
DEPT.M :
DEN.GM/CC :
GR.API :
RML.OHMM :
RI. :
RXO.OHMM :
SP.MV :
~A
# ...
  297.6250     2.4860    51.8490    56.1680    51.5090    63.2090   -20.3920 
  297.7500     2.5180    52.5090    61.6720    57.1130    66.8970   -20.3050 
  297.8750     2.5420    52.9330    67.8620    63.5030    62.6960   -20.2160 
  298.0000     2.5580    51.2810    74.2890    70.2690    56.5200   -20.1120 
  298.1250     2.5710    48.8700    79.6260    76.1280    59.8910   -20.0010 
  298.2500     2.5810    48.3470    82.0560    79.2550    77.1620   -19.9010 
  298.3750     2.5820    50.7010    79.9090    77.8690   100.2680   -19.8190 
  298.5000     2.5610    54.2620    72.0960    70.6270    94.5860   -19.7560 
  298.6250     2.5210    56.3300    60.8750    59.6380    69.6730   -19.7260 
  298.7500     2.4700    55.8960    49.1580    47.8780    54.9670   -19.7360 
  298.8750     2.4200    55.2800    39.1870    37.7600    48.9030   -19.7980 
  299.0000     2.3830    57.2970    32.3840    30.7810    38.1630   -19.9160 
  299.1250     2.3620    59.3840    28.5130    26.6310    26.5820   -20.0730 
  299.2500     2.3580    57.9570    27.2920    24.9100    20.4210   -20.2500 
  299.3750     2.3720    54.5240    28.6240    25.4540    18.8120   -20.4360 
  299.5000     2.4090    54.7440    32.7670    28.5660    20.4470   -20.6470 
  299.6250     2.4610    57.9090    39.0850    33.8880    24.7160   -20.9070 
  299.7500     2.5170    59.5650    46.4970    40.6850    32.3910   -21.2190 
  299.8750     2.5620    57.3270    53.3500    47.5810    45.2010   -21.5880 
  300.0000     2.5770    53.3590    57.0920    52.1350    63.6930   -22.0300 
  300.1250     2.5550    51.3630    56.6200    52.8290    75.4310   -22.5300 
  300.2500     2.5060    51.2740    52.4240    49.6870    71.5390   -23.0770 
  300.3750     2.4410    51.9530    46.4150    44.3660    58.1120   -23.6400 
  300.5000     2.3790    53.2490    41.0160    39.2200    44.3030   -24.1610 
  300.6250     2.3290    55.1250    37.2880    35.4520    35.8640   -24.6110 
  300.7500     2.2950    55.8810    35.1660    33.1380    33.5440   -24.9810 
  300.8750     2.2790    54.2070    34.1530    31.9060    34.9250   -25.2750 
  301.0000     2.2790    51.6360    33.7270    31.3570    38.3950   -25.4890 
  301.1250     2.2930    50.3730    33.4430    31.0800    40.9680   -25.6500 
  301.2500     2.3130    51.0440    33.1380    30.8860    39.1390   -25.7770 
  301.3750     2.3320    53.2620    32.8210    30.7330    35.4780   -25.8850 
  301.5000     2.3440    56.1610    32.5670    30.6450    31.8730   -25.9640 
  301.6250     2.3450    56.6620    32.3830    30.6000    30.5510   -26.0100 
  301.7500     2.3350    54.7790    32.2170    30.5380    30.0800   -26.0240 
  301.8750     2.3180    53.7650    31.9980    30.3830    29.5970   -26.0260 
  302.0000     2.2970    56.0030    31.6680    30.0700    29.0430   -26.0150 
  302.1250     2.2800    58.4950    31.2450    29.6300    28.1360   -25.9870 
  302.2500     2.2710    57.3260    30.7760    29.1320    27.0570   -25.9370 
  302.3750     2.2710    53.5610    30.3020    28.6440    26.1750   -25.8520 
  302.5000     2.2760    53.0110    29.8700    28.2540    25.8390   -25.7570 
  302.6250     2.2830    56.1760    29.5500    28.0310    26.2670   -25.6560 
  302.7500     2.2920    59.1980    29.4570    28.0680    26.9990   -25.5450 
  302.8750     2.3050    59.2290    29.7350    28.4780    27.3360   -25.4100 
  303.0000     2.3270    57.1370    30.5430    29.4020    27.1850   -25.2420 
  303.1250     2.3550    54.8200    31.7580    30.7430    27.7070   -25.0430 
  303.2500     2.3830    54.5160    33.0980    32.2650    28.7080   -24.8160 
  303.3750     2.4030    57.3660    34.1470    33.5800    29.8980   -24.5790 
  303.5000     2.4040    59.5670    34.2920    34.0410    31.0200   -24.3360 
  303.6250     2.3880    59.3630    33.3030    33.3120    31.0390   -24.1130 
  303.7500     2.3660    58.7700    31.2520    31.3660    29.6550   -23.9240 
  303.8750     2.3510    57.6560    28.4950    28.5170    27.4620   -23.7620 
  304.0000     2.3590    54.5520    25.6920    25.4260    22.8180   -23.6130 
  304.1250     2.3840    51.5030    23.5710    22.8630    19.5030   -23.4660 
  304.2500     2.4180    50.4930    22.7210    21.3880    17.8530   -23.3120 
  304.3750     2.4480    50.9400    23.5950    21.3900    17.0090   -23.1520 
  304.5000     2.4670    51.9910    27.1280    23.4710    17.6120   -23.0040 
  304.6250     2.4750    52.6090    33.0850    27.6950    21.1660   -22.8610 
  304.7500     2.4780    51.5380    41.0100    33.9410    28.2630   -22.7280 
  304.8750     2.4810    50.0120    50.3120    41.6370    38.2430   -22.6160 
  305.0000     2.4820    50.6600    57.9140    49.4250    44.7550   -22.5510 
  305.1250     2.4790    52.1790    62.9750    55.5800    44.8620   -22.5340 
  305.2500     2.4720    53.5250    65.0590    58.9050    44.0140   -22.5740 
  305.3750     2.4600    54.9290    64.3800    59.2190    43.9500   -22.6550 
  305.5000     2.4420    57.1440    61.6910    57.1630    44.4600   -22.7490 
  305.6250     2.4170    59.7040    58.2690    54.1270    43.6920   -22.8290 
  305.7500     2.3940    60.9410    55.0530    51.0970    41.3410   -22.8890 
  305.8750     2.3830    60.2020    52.7950    48.7990    36.3910   -22.9210 
  306.0000     2.4000    58.3100    52.2440    47.9520    31.7160   -22.9190 
  306.1250     2.4450    55.9740    53.2240    48.4990    28.2430   -22.8950 
  306.2500     2.5070    52.4430    55.0840    49.9790    26.1010   -22.8520 
  306.3750     2.5680    47.7140    56.8680    51.6270    25.2340   -22.8160 
  306.5000     2.6080    44.1760    57.3260    52.3510    25.3300   -22.8250 
  306.6250     2.6200    43.9280    56.0420    51.6230    25.6930   -22.8910 
  306.7500     2.6060    46.9600    53.3900    49.6270    25.1050   -22.9990 
  306.8750     2.5730    51.2350    50.3210    47.1410    24.3760   -23.1400 
  307.0000     2.5360    53.4680    48.0850    45.2680    24.5900   -23.3110 
  307.1250     2.5040    52.2800    47.2640    44.5870    25.1830   -23.4950 
  307.2500     2.4830    49.4020    47.8840    45.1910    26.1750   -23.6780 
  307.3750     2.4720    47.2330    49.6180    46.8410    27.7830   -23.8370 
  307.5000     2.4680    46.6330    52.0320    49.1510    30.8860   -23.9650 
  307.6250     2.4670    46.9160    54.7450    51.6980    27.1100   -24.0790 
  307.7500     2.4670    48.1720    57.8610    54.4580    17.6530   -24.2000 
  307.8750     2.4690    49.7500    62.0260    57.9300    11.1800   -24.3230 
  308.0000     2.4800    47.8920    68.9110    63.6130    11.7150   -24.4380 
  308.1250     2.4990    43.0720    79.8050    72.8310    17.9770   -24.5330 
  308.2500     2.5250    39.4010    95.5200    86.4840    30.4310   -24.5980 
  308.3750     2.5480    40.4820   115.6360   104.2950    50.9160   -24.6530 
  308.5000     2.5540    44.4780   137.5310   123.8570    77.7930   -24.6960 
  308.6250     2.5410    45.7490   156.4630   140.6820   103.9630   -24.7220 
  308.7500     2.5120    43.2770   168.2500   150.8640   117.3690   -24.7230 
  308.8750     2.4790    40.1510   171.3960   153.0350   108.0960   -24.7100 
  309.0000     2.4540    39.5370   168.9490   149.7090    91.2490   -24.6970 
  309.1250     2.4440    40.0730   167.9900   147.1340    82.3870   -24.7130 
  309.2500     2.4450    41.2550   173.5360   150.0150    85.1790   -24.7660 
  309.3750     2.4540    43.6760   187.8730   160.6950    96.6490   -24.8380 
  309.5000     2.4580    45.0190   212.3640   180.5810   114.9690   -24.9030 
  309.6250     2.4520    43.1380   243.9260   207.1370   134.4550   -24.9400 
  309.7500     2.4320    40.3710   277.2100   236.2060   151.9340   -24.9360 
  309.8750     2.4060    39.8300   304.2570   261.6720   154.6570   -24.8840 
  310.0000     2.3860    41.4830   312.7280   273.7060   151.4140   -24.7830 
  310.1250     2.3850    43.5580   297.6890   267.2410   150.7840   -24.6460 
  310.2500     2.4080    45.4460   261.7780   242.3190   151.6540   -24.4920 
  310.3750     2.4450    46.2140   216.1070   205.6030   156.0260   -24.3540 
