~V
VERS. 2.00: Ver 2.00
~W
STRT.M 60.0000:
STOP.M 392.0000:
STEP.M 0.1250:
NULL. -999.2500:
UWI. F10306:
~C
DEPT.M :
DEN.GM/CC :
GR.API :
RML.OHMM :
RI. :
RXO.OHMM :
SP.MV :
~A
# ...
  150.1250     2.1600    67.7250    19.2420    18.1990    17.0130   -14.6140 
  150.2500     2.1750    68.8800    18.1700    17.2840    16.6690   -14.5880 
  150.3750     2.1970    71.9400    17.2030    16.4320    16.2320   -14.5870 
  150.5000     2.2200    75.7080    16.6290    15.8550    15.7270   -14.6340 
  150.6250     2.2340    74.9820    16.8580    15.9420    15.3430   -14.7780 
  150.7500     2.2350    71.3590    17.8470    16.7390    16.0090   -14.9670 
  150.8750     2.2240    68.5270    19.3940    18.1310    18.3070   -15.1930 
  151.0000     2.2050    68.0660    21.0800    19.7730    21.5370   -15.4550 
  151.1250     2.1870    67.7360    22.2490    21.0460    24.8340   -15.7700 
  151.2500     2.1730    66.4470    22.5490    21.5220    25.2870   -16.1300 
  151.3750     2.1640    63.1120    21.9430    21.1040    23.5390   -16.4750 
  151.5000     2.1570    58.4590    20.7220    20.0510    21.0480   -16.7710 
  151.6250     2.1510    57.0660    19.3530    18.8150    19.1790   -17.0080 
  151.7500     2.1440    57.7550    18.1800    17.7380    18.5290   -17.2310 
  151.8750     2.1380    58.4800    17.2410    16.8610    18.2820   -17.4330 
  152.0000     2.1350    57.9180    16.4450    16.1030    18.1020   -17.5710 
  152.1250     2.1380    56.9160    15.6840    15.3530    17.4880   -17.6140 
  152.2500     2.1460    55.8050    14.9080    14.5500    16.1570   -17.5660 
  152.3750     2.1550    55.5030    14.1370    13.7020    14.3750   -17.4730 
  152.5000     2.1600    58.9510    13.4150    12.8570    12.9200   -17.3730 
  152.6250     2.1580    63.4080    12.7990    12.1010    12.0990   -17.2440 
  152.7500     2.1580    64.3150    12.2970    11.4820    11.4150   -17.0740 
  152.8750     2.1680    63.2150    11.9120    11.0240    10.7640   -16.8870 
  153.0000     2.1890    65.0090    11.6290    10.7140    10.3290   -16.7030 
  153.1250     2.2160    70.3890    11.4210    10.5230    10.0590   -16.5370 
  153.2500     2.2340    74.1830    11.2410    10.3830     9.7660   -16.4090 
  153.3750     2.2370    74.4340    11.0800    10.2690     9.5550   -16.3230 
  153.5000     2.2310    72.6310    10.9640    10.1830     9.5450   -16.2490 
  153.6250     2.2340    69.3190    10.9540    10.1560     9.7040   -16.1610 
  153.7500     2.2460    65.8560    11.0320    10.1870     9.8630   -16.0430 
  153.8750     2.2580    62.3190    11.1250    10.2450     9.9790   -15.8760 
  154.0000     2.2560    58.7820    11.1140    10.2560     9.9890   -15.6750 
  154.1250     2.2340    56.6730    10.8440    10.0900     9.8230   -15.4490 
  154.2500     2.2090    56.3580    10.3110     9.6990     9.5440   -15.1720 
  154.3750     2.1980    57.8400     9.5800     9.0840     9.2310   -14.7950 
  154.5000     2.2080    62.0690     8.8040     8.3320     8.8670   -14.3320 
  154.6250     2.2350    71.7320     8.1920     7.6190     8.4370   -13.9040 
  154.7500     2.2610    83.0200     7.8920     7.1240     7.7980   -13.5830 
  154.8750     2.2720    89.2050     7.9370     6.9660     7.2980   -13.3740 
  155.0000     2.2620    88.0430     8.3560     7.1870     7.5980   -13.2520 
  155.1250     2.2340    81.7710     8.9540     7.7720     8.7270   -13.2160 
  155.2500     2.2050    76.7390     9.5500     8.4860    10.2060   -13.2420 
  155.3750     2.1840    73.1820    10.0620     9.1020    11.3500   -13.3340 
  155.5000     2.1780    70.8110    10.2640     9.4040    11.6250   -13.4620 
  155.6250     2.1900    72.7030     9.8850     9.2150    11.0150   -13.5540 
  155.7500     2.2110    78.4740     9.1800     8.6990     9.9600   -13.6130 
  155.8750     2.2350    84.3280     8.4210     8.0620     8.8980   -13.6690 
  156.0000     2.2530    87.6250     7.8590     7.5110     8.1620   -13.7640 
  156.1250     2.2590    88.8900     7.6790     7.2340     7.9990   -13.8920 
  156.2500     2.2530    87.6920     7.8020     7.2300     8.3280   -14.0760 
  156.3750     2.2380    81.7950     8.1200     7.4530     9.0300   -14.3460 
  156.5000     2.2190    74.5040     8.5060     7.8090     9.8130   -14.6780 
  156.6250     2.2010    71.3720     8.8330     8.1720    10.4410   -15.0300 
  156.7500     2.1860    72.2280     9.0590     8.4490    10.5210   -15.3610 
  156.8750     2.1740    74.0000     9.2090     8.6270    10.4400   -15.6300 
  157.0000     2.1640    73.1200     9.3590     8.7530    10.5660   -15.7690 
  157.1250     2.1580    69.5350     9.6090     8.9190    10.8450   -15.7460 
  157.2500     2.1570    67.4860     9.9510     9.1640    11.1490   -15.5730 
  157.3750     2.1590    68.7700    10.2880     9.4490    11.4630   -15.2310 
  157.5000     2.1660    72.0900    10.4530     9.6600    11.7970   -14.7530 
  157.6250     2.1750    73.2400    10.2120     9.5980    12.0340   -14.1490 
  157.7500     2.1870    71.4740     9.6010     9.2110    11.9940   -13.4140 
  157.8750     2.2020    69.7440     8.7880     8.5570    11.3970   -12.5550 
  158.0000     2.2230    72.7390     8.0510     7.8240    10.1460   -11.6710 
  158.1250     2.2580    82.0340     7.7110     7.2950     8.7800   -10.9020 
  158.2500     2.3100    88.9030     7.7710     7.0910     8.0590   -10.2930 
  158.3750     2.3730    89.0730     8.0910     7.1980     8.6960    -9.8430 
  158.5000     2.4310    85.5090     8.4540     7.4900    10.1840    -9.5640 
  158.6250     2.4570    84.6940     8.6470     7.7590    11.3670    -9.5450 
  158.7500     2.4410    87.6320     8.6460     7.8420    11.0410    -9.7650 
  158.8750     2.3910    88.7180     8.5120     7.7130     9.0770   -10.2040 
  159.0000     2.3270    85.7990     8.3260     7.4510     7.5740   -10.7770 
  159.1250     2.2730    83.1990     8.1250     7.1860     7.4180   -11.3820 
  159.2500     2.2410    83.9920     7.8970     6.9870     7.6150   -11.9850 
  159.3750     2.2310    86.0850     7.6420     6.8510     7.6430   -12.6060 
  159.5000     2.2380    88.1240     7.3970     6.7560     7.4550   -13.2370 
  159.6250     2.2480    90.2220     7.2570     6.7190     7.3540   -13.8470 
  159.7500     2.2480    89.4290     7.2860     6.7830     7.3630   -14.4720 
  159.8750     2.2340    84.0770     7.5130     6.9880     7.5990   -15.1060 
  160.0000     2.2100    77.0400     7.9070     7.3280     8.2580   -15.7260 
  160.1250     2.1870    71.9330     8.3880     7.7420     9.0970   -16.2880 
  160.2500     2.1720    68.1800     8.8210     8.1220     9.6010   -16.7640 
  160.3750     2.1670    66.3810     9.1120     8.4050     9.8380   -17.1620 
  160.5000     2.1700    68.1820     9.2250     8.5660     9.9420   -17.4890 
  160.6250     2.1760    70.3820     9.1870     8.6040     9.9660   -17.6830 
  160.7500     2.1800    69.5740     9.1220     8.5830     9.9110   -17.7090 
  160.8750     2.1800    67.5750     9.1010     8.5420     9.8650   -17.5950 
  161.0000     2.1780    66.5930     9.1450     8.5070     9.8470   -17.4210 
  161.1250     2.1770    67.0210     9.2250     8.4880     9.7830   -17.2520 
  161.2500     2.1780    69.8300     9.2760     8.4700     9.5490   -17.0880 
  161.3750     2.1810    75.0200     9.2630     8.4360     9.1820   -16.8940 
  161.5000     2.1830    80.2070     9.1800     8.3700     8.7820   -16.6950 
  161.6250     2.1820    81.2600     9.0430     8.2720     8.4320   -16.5480 
  161.7500     2.1810    79.5230     8.9030     8.1650     8.2030   -16.4820 
  161.8750     2.1810    78.0920     8.8040     8.0800     8.1360   -16.4650 
  162.0000     2.1830    79.1970     8.7850     8.0470     8.1790   -16.4660 
  162.1250     2.1880    82.6610     8.8700     8.0930     8.2880   -16.4960 
  162.2500     2.1940    82.9150     9.0220     8.1940     8.4590   -16.5930 
  162.3750     2.1980    79.1620     9.2050     8.3140     8.6470   -16.7690 
  162.5000     2.1970    74.8420     9.3790     8.4110     8.8220   -16.9800 
  162.6250     2.1900    73.3050     9.4930     8.4480     8.9320   -17.1890 
  162.7500     2.1820    75.4780     9.5290     8.4320     8.9320   -17.3980 
  162.8750     2.1740    78.4070     9.4860     8.3820     8.8120   -17.6110 
