~V
VERS. 2.00: Ver 2.00
~W
STRT.M 54.0000:
STOP.M 355.0000:
STEP.M 0.1250:
NULL. -999.2500:
UWI. F10328:
~C
DEPT.M :
DEN.GM/CC :
SP.MV :
R2M. :
R025. :
RA2. :
GR.API :
RML.OHMM :
RI. :
RXO.OHMM :
~A
# ...
  346.0000     2.2130    -9.9570     8.5990     6.0500     8.5990    85.5180     7.1170     6.2690     6.4560 
  346.1250     2.2370   -10.4140     8.4620     6.1040     8.4620    85.5180     7.3890     6.4490     7.2800 
  346.2500     2.2750   -11.0660     8.4660     6.2590     8.4660    85.5180     8.0300     6.9490     8.8660 
  346.3750     2.3020   -11.8610     8.6210     6.5370     8.6210    85.5180     9.0210     7.7740    11.5550 
  346.5000     2.3090   -12.7440     8.9190     6.9370     8.9190    85.5180    10.2870     8.8780    15.3890 
  346.6250     2.3000   -13.6020     9.3660     7.4380     9.3660    85.5180    11.6960    10.1620    19.1410 
  346.7500     2.2940   -14.4120     9.9370     7.9510     9.9370    85.5180    13.0230    11.4140    18.8500 
  346.8750     2.2930   -15.0980    10.6380     8.3980    10.6380    85.5180    14.0350    12.4200    17.7240 
  347.0000     2.2960   -15.6100    11.3850     8.7240    11.3850    85.5180    14.4780    12.9390    19.0220 
  347.1250     2.2950   -15.8340    12.0290     8.8940    12.0290    85.5180    14.0250    12.6560    19.3590 
  347.2500     2.2930   -15.7860    12.3950     8.9650    12.3950    85.5180    12.8800    11.7340    18.2030 
  347.3750     2.2950   -15.4820    12.4250     8.9740    12.4250    85.5180    11.4000    10.4740    14.5580 
  347.5000     2.3030   -14.9910    12.1560     8.9580    12.1560    85.5180    10.0440     9.2620     9.9790 
  347.6250     2.3120   -14.4580    11.7650     8.9410    11.7650    85.5180     9.2880     8.4850     8.4510 
  347.7500     2.3140   -13.9740    11.4210     8.9320    11.4210    85.5180     9.1580     8.1980     9.0120 
  347.8750     2.3090   -13.5810    11.1130     8.9320    11.1130    85.5180     9.5250     8.3390    11.5370 
  348.0000     2.3000   -13.2560    10.8210     8.9360    10.8210    85.5180    10.1070     8.7320    15.2880 
  348.1250     2.2890   -12.9240    10.4030     8.9410    10.4030    85.5180    10.4660     9.0730    14.5360 
  348.2500     2.2800   -12.6170    10.0430     8.9440    10.0430    85.5180    10.3650     9.1210    10.9800 
  348.3750     2.2730   -12.3640     9.8390     8.9450     9.8390    85.5180     9.8410     8.8400     8.4020 
  348.5000     2.2660   -12.1610     9.7780     8.9480     9.7780    85.5180     9.1220     8.3530     7.7110 
  348.6250     2.2630   -11.9610     9.7980     8.9500     9.7980    85.5180     8.4840     7.8550     8.0900 
  348.7500     2.2690   -11.7330     9.7680     8.9490     9.7680    85.5180     8.0470     7.4770     8.2640 
  348.8750     2.2860   -11.4680     9.6660     8.9470     9.6660    85.5180     7.8110     7.2510     8.4760 
  349.0000     2.3120   -11.1880     9.5480     8.9450     9.5480    85.5180     7.7190     7.1520    10.2090 
  349.1250     2.3330   -11.0110     9.5960     8.9440     9.5960    85.5180     7.7040     7.1350    13.8480 
  349.2500     2.3400   -10.9340     9.7390     8.9440     9.7390    85.5180     7.7020     7.1390    13.6810 
  349.3750     2.3280   -10.9120     9.9110     8.9480     9.9110    85.5180     7.7010     7.1440    10.3570 
  349.5000     2.3020   -10.9050    10.1230     8.9630    10.1230    85.5180     7.7010     7.1480     7.9850 
  349.6250     2.2740   -10.9440    10.2720     8.9860    10.2720    85.5180     7.7020     7.1490     7.3350 
  349.7500     2.2550   -10.9680    10.3640     9.0120    10.3640    85.5180     7.7030     7.1490     7.5270 
  349.8750     2.2460   -10.9830    10.4140     9.0310    10.4140    85.5180     7.7020     7.1480     7.9270 
  350.0000     2.2440   -10.9880    10.4310     9.0330    10.4310    85.5180     7.7000     7.1480     8.5320 
  350.1250     2.2460   -11.0000    10.4400     9.0120    10.4400    85.5180     7.6990     7.1500     8.9850 
  350.2500     2.2480   -11.0150    10.4550     8.9830    10.4550    85.5180     7.6980     7.1520     9.6130 
  350.3750     2.2530   -11.0300    10.4810     8.9550    10.4810    85.5180     7.6980     7.1530    11.6900 
  350.5000     2.2630   -11.0290    10.4690     8.9370    10.4690    85.5180     7.6980     7.1540    15.1870 
  350.6250     2.2780   -11.0190    10.4570     8.9330    10.4570    85.5180     7.7000     7.1540    17.8290 
  350.7500     2.2940   -11.0190    10.4570     8.9320    10.4570    85.5180     7.7010     7.1540    18.5910 
  350.8750     2.3080   -11.0180    10.4530     8.9290    10.4530    85.5180     7.7010     7.1540    18.2150 
  351.0000     2.3180   -11.0330    10.4460     8.9220    10.4460    85.5180     7.7010     7.1540    17.6150 
  351.1250     2.3170   -11.0170    10.4390     8.9190    10.4390    85.5180     7.7010     7.1540    17.6520 
  351.2500     2.3080   -10.9920    10.4380     8.9250    10.4380    85.5180     7.7010     7.1540    17.7050 
  351.3750     2.2980   -10.9850    10.4290     8.9420    10.4290    85.5180     7.7010     7.1540    17.3160 
  351.5000     2.2920   -11.0180    10.4260     8.9620    10.4260    85.5180     7.7010     7.1540    17.4670 
  351.6250     2.2910   -11.0100    10.4380     8.9720    10.4380    85.5180     7.7010     7.1540    18.4750 
  351.7500     2.2890   -10.9900    10.4320     8.9720    10.4320    85.5180     7.7010     7.1540    17.7590 
  351.8750     2.2830   -10.9510    10.4020     8.9710    10.4020    85.5180     7.7010     7.1540    12.3580 
  352.0000     2.2700   -10.9180    10.3890     8.9780    10.3890    85.5180     7.7010     7.1540     9.0870 
  352.1250     2.2530   -10.9180    10.3890     9.0050    10.3890    85.5180     7.7010     7.1540     8.3440 
  352.2500     2.2390   -10.9050    10.3810     9.0420    10.3810    85.5180     7.7010     7.1540     8.1710 
  352.3750     2.2330   -10.8920    10.3910     9.0730    10.3910    85.5180     7.7010     7.1540     8.6590 
  352.5000     2.2410   -10.8490    10.4000     9.0770    10.4000    85.5180     7.7010     7.1540     9.2680 
  352.6250     2.2640   -10.8470    10.3970     9.0550    10.3970    85.5180     7.7010     7.1540    10.1130 
  352.7500     2.2900   -10.8570    10.4040     9.0550    10.4040    85.5180     7.7010     7.1540    10.3270 
  352.8750     2.3080   -10.8810    10.4310     9.0550    10.4310    85.5180     7.7010     7.1540     9.2470 
  353.0000     2.3110   -10.8960    10.4600     9.0550    10.4600    85.5180     7.7010     7.1540     8.2140 
  353.1250     2.3040   -10.8910    10.4830     9.0560    10.4830    85.5180     7.7010     7.1540     7.7190 
  353.2500     2.2680   -10.8760    10.4890     9.0560    10.4890    85.5180     7.7010     7.1540     7.9080 
  353.3750     2.1530   -10.8390    10.4790     9.0560    10.4790    85.5180     7.7010     7.1540     8.0780 
  353.5000     1.9590   -10.8380    10.4580     9.0570    10.4580    85.5180     7.7010     7.1540     7.7960 
  353.6250     1.7510   -10.8500    10.4460     9.0580    10.4460    85.5180     7.7010     7.1540     6.8200 
  353.7500     1.5810   -10.8400    10.4410     9.0580    10.4410    85.5180     7.7010     7.1540     5.2540 
  353.8750     1.4620   -10.8350    10.4430     9.0580    10.4430    85.5180     7.7010     7.1540     4.2550 
  354.0000     1.3930   -10.8480    10.4220     9.0570    10.4220    85.5180     7.7010     7.1540     3.9380 
  354.1250     1.3700   -10.8780    10.4070     9.0570    10.4070    85.5180     7.7010     7.1540     3.9500 
  354.2500     1.3630   -10.9080    10.4050     9.0580    10.4050    85.5180     7.7010     7.1540     3.9580 
  354.3750     1.3640   -10.9700    10.3990     9.0590    10.3990    85.5180     7.7010     7.1540     3.9580 
  354.5000     1.3660   -11.0110    10.4090     9.0590    10.4090    85.5180     7.7010     7.1540     3.9550 
  354.6250     1.3680   -11.0320    10.4070     9.0580    10.4070    85.5180     7.7010     7.1540     3.9780 
  354.7500     1.3700   -11.0590    10.4050     9.0590    10.4050    85.5180     7.7010     7.1540     3.9740 
  354.8750     1.3710   -11.0670    10.4000     9.0600    10.4000    85.5180     7.7010     7.1540     3.9680 
  355.0000     1.3710   -11.0700    10.4010     9.0620    10.4010    85.5180     7.7010     7.1540     3.9560 
