~V
VERS. 2.00: Ver 2.00
~W
STRT.M 60.0000:
STOP.M 392.0000:
STEP.M 0.1250:
NULL. -999.2500:
UWI. F10306:
~C
DEPT.M :
DEN.GM/CC :
GR.API :
RML.OHMM :
RI. :
RXO.OHMM :
SP.MV :
~A
# ...
  253.1250     2.2890    89.3400     5.8850     5.0660     5.2850    -6.9810 
  253.2500     2.2910    88.4370     5.9620     5.0840     5.3950    -7.0010 
  253.3750     2.2960    90.9310     6.0320     5.1190     5.5590    -7.0290 
  253.5000     2.3040    94.2600     6.0570     5.1550     5.7390    -7.0700 
  253.6250     2.3130    94.3600     6.0110     5.1620     5.8100    -7.1500 
  253.7500     2.3210    91.9670     5.9120     5.1350     5.7390    -7.2590 
  253.8750     2.3270    89.1710     5.7870     5.0870     5.5910    -7.4120 
  254.0000     2.3280    87.0090     5.6760     5.0460     5.4920    -7.6210 
  254.1250     2.3230    86.3550     5.6370     5.0500     5.4880    -7.8680 
  254.2500     2.3140    86.9140     5.6950     5.1100     5.5600    -8.1610 
  254.3750     2.3040    86.9880     5.8560     5.2230     5.7060    -8.4570 
  254.5000     2.2980    86.9040     6.0950     5.3700     5.9390    -8.7240 
  254.6250     2.3020    86.0350     6.3440     5.5150     6.2140    -8.9280 
  254.7500     2.3130    84.3530     6.5280     5.6180     6.3840    -9.0840 
  254.8750     2.3270    84.0510     6.6130     5.6580     6.5310    -9.2040 
  255.0000     2.3370    85.3590     6.6020     5.6310     6.6010    -9.2900 
  255.1250     2.3390    87.7610     6.5280     5.5600     6.3150    -9.3410 
  255.2500     2.3360    89.2450     6.4570     5.4990     5.8150    -9.3320 
  255.3750     2.3290    90.2020     6.4110     5.4810     5.4960    -9.2770 
  255.5000     2.3230    90.0990     6.3810     5.5120     5.4480    -9.1980 
  255.6250     2.3150    90.4320     6.3260     5.5640     5.5580    -9.1000 
  255.7500     2.3050    92.7560     6.2090     5.5860     5.6650    -8.9640 
  255.8750     2.2920    92.8730     6.0180     5.5440     5.6670    -8.7620 
  256.0000     2.2750    89.5600     5.7830     5.4330     5.5640    -8.4870 
  256.1250     2.2600    89.5950     5.5810     5.2800     5.2810    -8.1450 
  256.2500     2.2540    96.4100     5.4600     5.1330     4.9040    -7.7820 
  256.3750     2.2620   102.8290     5.4180     5.0200     4.6810    -7.4340 
  256.5000     2.2820   102.9870     5.4110     4.9410     4.6350    -7.0980 
  256.6250     2.3080   100.2740     5.3690     4.8770     4.5860    -6.7650 
  256.7500     2.3250    97.5110     5.2580     4.7920     4.4420    -6.4340 
  256.8750     2.3280    94.2820     5.0850     4.6670     4.2220    -6.1140 
  257.0000     2.3140    93.2850     4.8790     4.5020     3.9690    -5.8250 
  257.1250     2.2930    96.7030     4.6710     4.3170     3.7450    -5.5780 
  257.2500     2.2770    98.7460     4.4810     4.1440     3.6040    -5.3530 
  257.3750     2.2760    96.2840     4.3240     4.0070     3.5510    -5.1390 
  257.5000     2.2900    92.3750     4.2180     3.9190     3.5850    -4.9360 
  257.6250     2.3110    89.7670     4.2110     3.8930     3.6620    -4.7630 
  257.7500     2.3220    88.0990     4.3090     3.9160     3.7160    -4.6290 
  257.8750     2.3150    88.2440     4.5040     3.9750     3.7550    -4.5460 
  258.0000     2.2930    90.2570     4.7440     4.0500     3.8180    -4.4920 
  258.1250     2.2730    91.0060     4.9500     4.1210     3.9100    -4.4710 
  258.2500     2.2690    88.7560     5.0720     4.1760     3.9920    -4.4460 
  258.3750     2.2820    88.1480     5.0990     4.2190     4.0500    -4.4100 
  258.5000     2.3050    88.3470     5.0990     4.2270     4.0590    -4.3660 
  258.6250     2.3250    93.2000     5.0340     4.2630     4.0770    -4.3140 
  258.7500     2.3350    95.5450     4.9340     4.2910     4.0590    -4.2800 
  258.8750     2.3370    93.7020     4.8150     4.2980     4.0890    -4.2580 
  259.0000     2.3360    92.0710     4.6860     4.2700     4.1660    -4.2540 
  259.1250     2.3370    93.6010     4.5650     4.2010     4.1650    -4.2620 
  259.2500     2.3410    95.4640     4.4690     4.1200     4.0570    -4.2970 
  259.3750     2.3490    97.3430     4.4170     4.0650     3.9350    -4.3520 
  259.5000     2.3580    99.7180     4.4300     4.0730     3.9110    -4.4240 
  259.6250     2.3710    98.4010     4.5600     4.1850     4.0730    -4.5270 
  259.7500     2.3850    94.0820     4.8180     4.3880     4.3510    -4.6170 
  259.8750     2.4020    93.8670     5.1930     4.6600     4.7060    -4.6920 
  260.0000     2.4170    99.0440     5.6270     4.9680     5.0800    -4.7590 
  260.1250     2.4270   102.5300     6.0090     5.2650     5.3640    -4.8250 
  260.2500     2.4330    99.9380     6.2610     5.5120     5.5500    -4.8910 
  260.3750     2.4340    95.4930     6.3660     5.6820     5.6340    -4.9710 
  260.5000     2.4320    94.7070     6.3510     5.7590     5.6130    -5.0520 
  260.6250     2.4270    97.1490     6.2480     5.7310     5.5290    -5.1050 
  260.7500     2.4200    99.7670     6.0910     5.6360     5.4350    -5.1860 
  260.8750     2.4110   100.9480     5.8940     5.5030     5.3620    -5.3150 
  261.0000     2.3970    99.8090     5.6970     5.3650     5.2910    -5.4740 
  261.1250     2.3780    98.8870     5.5810     5.2660     5.2060    -5.6550 
  261.2500     2.3550    99.2640     5.5920     5.2270     5.2500    -5.8280 
  261.3750     2.3320    98.4160     5.7430     5.2590     5.4210    -5.9850 
  261.5000     2.3140    95.3220     6.0070     5.3600     5.6340    -6.1290 
  261.6250     2.3080    93.3890     6.3360     5.5290     5.9990    -6.2630 
  261.7500     2.3130    94.0300     6.6840     5.7580     6.3560    -6.3510 
  261.8750     2.3320    95.4460     7.0500     6.0630     6.6260    -6.3830 
  262.0000     2.3610    96.5870     7.4470     6.4500     6.9150    -6.3710 
  262.1250     2.3910    96.7590     7.8510     6.8870     7.4590    -6.3080 
  262.2500     2.4100    94.2690     8.1820     7.2750     8.2210    -6.2300 
  262.3750     2.4120    90.4660     8.3330     7.5080     9.0340    -6.1380 
  262.5000     2.4010    90.4120     8.2210     7.4990     9.2950    -6.0480 
  262.6250     2.3880    94.4400     7.8020     7.1870     7.9680    -5.9750 
  262.7500     2.3870    97.9010     7.2320     6.6960     6.6530    -5.9230 
  262.8750     2.4000   100.9200     6.6380     6.1370     5.9160    -5.9020 
  263.0000     2.4270   103.6110     6.1190     5.6090     5.4920    -5.9130 
  263.1250     2.4570   102.5320     5.7380     5.1940     5.0900    -5.9720 
  263.2500     2.4810    97.8140     5.4770     4.9020     4.8810    -6.0760 
  263.3750     2.4930    91.6760     5.3360     4.7420     4.8390    -6.2280 
  263.5000     2.4890    87.5950     5.3450     4.7380     4.9680    -6.4340 
  263.6250     2.4710    88.1450     5.6070     4.9700     5.3750    -6.7040 
  263.7500     2.4470    89.6760     6.1550     5.4570     6.0900    -7.0000 
  263.8750     2.4240    89.0860     7.0180     6.2310     7.0940    -7.3120 
  264.0000     2.4050    86.3340     8.1600     7.2790     8.3410    -7.6210 
  264.1250     2.3940    85.0150     9.4280     8.5120     9.6830    -7.8650 
  264.2500     2.3900    83.4910    10.5100     9.6600    11.3790    -8.0040 
  264.3750     2.3890    80.5650    11.1030    10.4380    13.1590    -7.9970 
  264.5000     2.3880    79.9160    10.9750    10.5850    13.9430    -7.8210 
  264.6250     2.3830    83.8300     9.9670     9.8810    13.1800    -7.4640 
  264.7500     2.3740    90.0060     8.4600     8.6250    10.9260    -7.0280 
  264.8750     2.3640    97.0750     6.8220     7.1430     8.2820    -6.5320 
  265.0000     2.3550   101.3650     5.3840     5.7500     6.0380    -6.0060 
  265.1250     2.3510    99.0890     4.3920     4.6990     4.4640    -5.4960 
  265.2500     2.3530    94.4040     3.7760     3.9770     3.5240    -5.0410 
  265.3750     2.3580    90.7740     3.4420     3.5360     3.0800    -4.6860 
  265.5000     2.3630    89.1230     3.2980     3.3090     2.8990    -4.4620 
  265.6250     2.3680    89.3300     3.3010     3.2600     2.8650    -4.3740 
  265.7500     2.3740    90.6390     3.4000     3.3240     2.9040    -4.3560 
  265.8750     2.3780    91.7630     3.5710     3.4720     3.0160    -4.3860 
