~V
VERS. 2.00: Ver 2.00
~W
STRT.M 54.0000:
STOP.M 355.0000:
STEP.M 0.1250:
NULL. -999.2500:
UWI. F10328:
~C
DEPT.M :
DEN.GM/CC :
SP.MV :
R2M. :
R025. :
RA2. :
GR.API :
RML.OHMM :
RI. :
RXO.OHMM :
~A
# ...
  172.6250     2.1850   -17.7790    17.0140    13.5910    17.0140    85.7150    15.9100    14.6690    15.4210 
  172.7500     2.2050   -17.8270    17.1510    12.9710    17.1510    90.1110    14.7570    13.5350    13.6460 
  172.8750     2.2220   -17.8480    17.1830    12.7240    17.1830    93.7700    13.8680    12.6250    12.5320 
  173.0000     2.2270   -17.9180    17.2800    12.3290    17.2800    95.5230    13.3360    12.0280    13.1230 
  173.1250     2.2100   -17.9710    17.4990    12.1020    17.4990    95.8500    13.3200    11.8930    13.9320 
  173.2500     2.1780   -18.0270    17.6100    12.1800    17.6100    96.9210    13.7920    12.2030    14.4430 
  173.3750     2.1390   -18.0960    17.5580    12.5260    17.5580    97.5820    14.7410    12.9640    15.2960 
  173.5000     2.1060   -18.1540    17.4370    13.0620    17.4370    94.7650    16.0660    14.1230    21.0650 
  173.6250     2.0910   -18.2690    17.4010    13.6940    17.4010    87.4800    17.5810    15.5630    21.7110 
  173.7500     2.0930   -18.3720    17.5800    14.3210    17.5800    79.9740    19.0470    17.0350    21.3410 
  173.8750     2.1090   -18.4800    17.9720    14.8970    17.9720    74.6890    20.3300    18.3640    21.3330 
  174.0000     2.1310   -18.5730    18.5320    15.4130    18.5320    70.6550    21.3500    19.4270    21.7850 
  174.1250     2.1490   -18.6530    19.2450    15.8770    19.2450    65.5840    22.0430    20.1440    21.6070 
  174.2500     2.1590   -18.7360    20.0260    16.3080    20.0260    61.1910    22.4960    20.6090    22.2660 
  174.3750     2.1620   -18.8100    20.8140    16.6810    20.8140    60.8010    22.7350    20.8640    23.2910 
  174.5000     2.1570   -18.8690    21.5570    16.9350    21.5570    63.7970    22.7500    20.9010    23.6460 
  174.6250     2.1460   -18.9210    22.2200    16.9700    22.2200    66.2160    22.4940    20.6660    22.9180 
  174.7500     2.1360   -18.9930    22.8300    16.8110    22.8300    66.9410    21.9910    20.2020    21.5700 
  174.8750     2.1290   -19.0890    23.3310    16.5260    23.3310    66.2760    21.2540    19.5330    20.7590 
  175.0000     2.1290   -19.1910    23.7090    16.2040    23.7090    64.5270    20.3590    18.7240    20.6910 
  175.1250     2.1390   -19.3090    23.9680    15.9300    23.9680    62.3830    19.4480    17.8730    20.4990 
  175.2500     2.1530   -19.4120    24.1920    15.7190    24.1920    61.1070    18.6220    17.0750    19.0020 
  175.3750     2.1680   -19.4740    24.4640    15.5430    24.4640    61.6220    17.9130    16.3780    17.7080 
  175.5000     2.1800   -19.5300    24.8520    15.3580    24.8520    63.0090    17.3700    15.8410    17.3540 
  175.6250     2.1900   -19.5420    25.3480    15.1370    25.3480    64.9760    17.1840    15.6260    19.1090 
  175.7500     2.1990   -19.5530    25.8340    14.9370    25.8340    68.7550    17.4940    15.8310    19.7310 
  175.8750     2.2020   -19.5190    26.3910    14.8570    26.3910    72.0040    18.4170    16.5610    18.4890 
  176.0000     2.1950   -19.4730    27.1270    15.0040    27.1270    71.2340    19.9390    17.8420    17.9530 
  176.1250     2.1740   -19.4240    28.1130    15.4540    28.1130    66.3510    21.8540    19.5820    21.9150 
  176.2500     2.1460   -19.3710    29.2310    16.0340    29.2310    62.4530    23.5910    21.3170    25.6440 
  176.3750     2.1170   -19.3690    30.3120    16.5300    30.3120    60.0860    24.5740    22.5160    27.6090 
  176.5000     2.0980   -19.3610    31.2040    16.7270    31.2040    58.4160    24.3240    22.6410    26.4840 
  176.6250     2.0960   -19.3680    31.8660    16.4340    31.8660    59.4560    22.5390    21.2400    25.0070 
  176.7500     2.1070   -19.3480    32.3200    15.7710    32.3200    63.0650    19.9610    18.9510    22.3010 
  176.8750     2.1240   -19.3090    32.3190    14.9020    32.3190    65.2170    17.3120    16.4880    20.1490 
  177.0000     2.1440   -19.2610    31.6190    14.0260    31.6190    64.7590    15.1860    14.4490    17.2560 
  177.1250     2.1670   -19.1700    30.2450    13.3540    30.2450    62.8560    14.1160    13.3020    13.8150 
  177.2500     2.1980   -19.0650    28.7840    12.9330    28.7840    61.6960    14.0860    13.0170    12.1210 
  177.3750     2.2300   -18.9170    27.4940    12.7460    27.4940    62.8030    14.9740    13.5280    12.8160 
  177.5000     2.2490   -18.7520    26.4200    12.7110    26.4200    65.7130    16.3630    14.5860    14.9780 
  177.6250     2.2430   -18.5810    25.7830    12.6740    25.7830    67.0710    17.3090    15.5250    15.0880 
  177.7500     2.2210   -18.3850    25.4110    12.4930    25.4110    67.2740    17.0070    15.5540    14.7530 
  177.8750     2.1970   -18.2070    25.2060    12.1200    25.2060    68.2440    15.4130    14.4590    16.2930 
  178.0000     2.1870   -18.0600    25.0950    11.6010    25.0950    70.3170    13.3050    12.7650    14.9760 
  178.1250     2.1910   -17.9850    25.0380    11.0730    25.0380    73.4660    11.7900    11.3470    12.1620 
  178.2500     2.1930   -17.9830    24.9190    10.6760    24.9190    77.1600    11.2220    10.6030     9.2560 
  178.3750     2.1840   -18.0630    24.7510    10.4600    24.7510    79.1680    11.4880    10.5460     9.9230 
  178.5000     2.1660   -18.2410    24.5530    10.3950    24.5530    76.7130    12.2350    10.9920    14.4130 
  178.6250     2.1630   -18.4360    24.0290    10.4060    24.0290    71.8260    12.9530    11.6040    17.5470 
  178.7500     2.1820   -18.6920    23.3280    10.4240    23.3280    69.2170    13.2920    12.0070    16.8600 
  178.8750     2.2100   -18.9750    22.6910    10.4400    22.6910    69.3340    13.2690    12.1040    14.1120 
  179.0000     2.2250   -19.2760    22.2820    10.4870    22.2820    70.1090    13.1640    12.0450    10.8510 
  179.1250     2.2110   -19.6160    22.0530    10.6170    22.0530    70.0870    13.3620    12.1220    10.3190 
  179.2500     2.1820   -19.9340    21.7430    10.8050    21.7430    68.0560    13.8910    12.4360    10.8220 
  179.3750     2.1510   -20.2570    21.2510    10.9710    21.2510    64.0620    14.4950    12.8480    14.0680 
  179.5000     2.1310   -20.5440    20.6330    11.0110    20.6330    60.2010    14.7710    13.0550    17.0570 
  179.6250     2.1270   -20.8380    19.8140    10.8150    19.8140    58.9390    14.3020    12.6810    17.5630 
  179.7500     2.1280   -21.1220    18.7120    10.4320    18.7120    58.2620    13.2750    11.8310    15.2790 
  179.8750     2.1240   -21.3520    17.6580     9.9420    17.6580    57.4050    12.0360    10.7700    12.5870 
  180.0000     2.1110   -21.4750    16.8300     9.4340    16.8300    58.7440    10.9250     9.7780    10.9440 
  180.1250     2.0950   -21.4820    16.0040     8.9930    16.0040    61.9480    10.1820     9.0660    10.5200 
  180.2500     2.0970   -21.4010    15.1850     8.6560    15.1850    62.0420     9.7810     8.6390    10.6270 
  180.3750     2.1300   -21.1820    14.3720     8.4150    14.3720    59.0770     9.7140     8.5020    11.0530 
  180.5000     2.1880   -20.8870    13.5960     8.2440    13.5960    58.1330     9.9900     8.6670    11.8970 
  180.6250     2.2310   -20.5220    13.1330     8.1390    13.1330    60.1980    10.6460     9.1730    11.4770 
  180.7500     2.2340   -20.0830    13.1940     8.0990    13.1940    60.9140    11.5020     9.8950    11.5890 
  180.8750     2.1970   -19.6400    13.4930     8.1280    13.4930    59.1130    12.2950    10.6400    15.0150 
  181.0000     2.1400   -19.1940    13.8160     8.2000    13.8160    57.5370    12.6610    11.0960    26.8990 
  181.1250     2.0930   -18.7390    14.2220     8.2100    14.2220    59.1560    12.1730    10.8390    36.6030 
  181.2500     2.0750   -18.2470    14.5260     8.0360    14.5260    63.0780    11.0180     9.9490    25.5340 
  181.3750     2.0980   -17.7460    14.6600     7.6120    14.6600    67.8190     9.5480     8.7040    13.1820 
  181.5000     2.1600   -17.2270    14.6080     6.9660    14.6080    73.6660     8.1590     7.4470     8.6440 
  181.6250     2.2400   -16.7440    14.3050     6.2280    14.3050    82.4840     7.1910     6.4820     7.5420 
