~V
VERS. 2.00: Ver 2.00
~W
STRT.M 60.0000:
STOP.M 392.0000:
STEP.M 0.1250:
NULL. -999.2500:
UWI. F10306:
~C
DEPT.M :
DEN.GM/CC :
GR.API :
RML.OHMM :
RI. :
RXO.OHMM :
SP.MV :
~A
# ...
  317.5000     2.2750    53.2060    12.5450    11.2800    13.4580   -28.1030 
  317.6250     2.2690    53.0890    12.6390    11.3070    13.4050   -28.1150 
  317.7500     2.2670    51.7470    12.7460    11.3470    13.3830   -28.1450 
  317.8750     2.2700    51.2100    12.8750    11.4330    13.4900   -28.1820 
  318.0000     2.2780    53.3110    13.0330    11.5830    13.7250   -28.1990 
  318.1250     2.2890    54.8320    13.2320    11.7910    13.9710   -28.1730 
  318.2500     2.3020    52.3340    13.4690    12.0240    14.1650   -28.1150 
  318.3750     2.3160    49.7950    13.7400    12.2680    14.3760   -28.0250 
  318.5000     2.3300    51.7550    14.0380    12.5200    14.7040   -27.9150 
  318.6250     2.3370    56.7880    14.3550    12.7910    15.0180   -27.7780 
  318.7500     2.3390    59.9070    14.6550    13.0720    15.4780   -27.6110 
  318.8750     2.3390    60.7930    14.8910    13.3290    15.8630   -27.4180 
  319.0000     2.3420    61.4200    15.0160    13.5140    15.9150   -27.2350 
  319.1250     2.3480    63.8300    14.9880    13.5570    15.8480   -27.1020 
  319.2500     2.3530    68.4730    14.8510    13.4690    15.7220   -26.9990 
  319.3750     2.3550    72.0920    14.6550    13.2830    15.5110   -26.9390 
  319.5000     2.3530    73.4020    14.4520    13.0580    15.2050   -26.9160 
  319.6250     2.3500    72.8060    14.2930    12.8620    15.3920   -26.9190 
  319.7500     2.3480    69.8440    14.1830    12.7230    15.5040   -26.9710 
  319.8750     2.3470    64.5090    14.1140    12.6390    15.5150   -27.0530 
  320.0000     2.3430    60.8140    14.0630    12.5870    15.3520   -27.1570 
  320.1250     2.3330    62.7190    14.0030    12.5370    15.0980   -27.2630 
  320.2500     2.3200    64.8190    13.9190    12.4730    14.8390   -27.3440 
  320.3750     2.3060    63.8060    13.8150    12.3970    14.5520   -27.3960 
  320.5000     2.2950    61.3850    13.7140    12.3280    14.2890   -27.4220 
  320.6250     2.2900    60.5190    13.6450    12.2880    14.1950   -27.4500 
  320.7500     2.2890    61.3980    13.6140    12.2790    14.2600   -27.4750 
  320.8750     2.2910    62.3210    13.6130    12.2960    14.3830   -27.4900 
  321.0000     2.2930    62.1490    13.6250    12.3260    14.4780   -27.4770 
  321.1250     2.2930    60.8350    13.6410    12.3580    14.4730   -27.4120 
  321.2500     2.2920    60.3080    13.6600    12.3820    14.4300   -27.3400 
  321.3750     2.2910    60.4840    13.6850    12.3990    14.4100   -27.2570 
  321.5000     2.2910    58.9650    13.7160    12.4100    14.4040   -27.1650 
  321.6250     2.2970    57.4750    13.7440    12.4220    14.3550   -27.0660 
  321.7500     2.3100    58.9410    13.7670    12.4410    14.2670   -26.9660 
  321.8750     2.3310    62.3070    13.7950    12.4700    14.1660   -26.8830 
  322.0000     2.3580    67.1580    13.8350    12.4990    14.0880   -26.8250 
  322.1250     2.3840    73.7790    13.8750    12.5050    13.9870   -26.7840 
  322.2500     2.4020    77.3520    13.8870    12.4650    13.8250   -26.7360 
  322.3750     2.4070    73.8000    13.8410    12.3670    13.6200   -26.7170 
  322.5000     2.4010    67.1100    13.7290    12.2180    13.3490   -26.7250 
  322.6250     2.3900    66.8710    13.5710    12.0480    13.3000   -26.7480 
  322.7500     2.3780    71.6740    13.4250    11.9040    13.1300   -26.7750 
  322.8750     2.3680    74.7440    13.3330    11.8210    13.1410   -26.7960 
  323.0000     2.3600    72.6580    13.3100    11.8160    13.2920   -26.8130 
  323.1250     2.3530    69.0640    13.3510    11.8950    13.5290   -26.8340 
  323.2500     2.3480    65.8470    13.4230    12.0260    13.7840   -26.8650 
  323.3750     2.3460    63.9220    13.5110    12.1870    13.9900   -26.8760 
  323.5000     2.3500    63.3980    13.6160    12.3560    14.2210   -26.8600 
  323.6250     2.3560    64.2750    13.7350    12.5090    14.4240   -26.8260 
  323.7500     2.3610    65.3840    13.8440    12.6250    14.5940   -26.8040 
  323.8750     2.3590    65.9200    13.9080    12.6830    14.7160   -26.8120 
  324.0000     2.3520    66.7480    13.8890    12.6610    14.7820   -26.8330 
  324.1250     2.3420    68.3620    13.7540    12.5420    14.7130   -26.8610 
  324.2500     2.3320    69.9790    13.5380    12.3560    14.5760   -26.8810 
  324.3750     2.3250    70.5670    13.2740    12.1280    14.3240   -26.8680 
  324.5000     2.3200    69.0780    12.9950    11.8840    13.8500   -26.8360 
  324.6250     2.3160    66.7650    12.7330    11.6520    13.5590   -26.8110 
  324.7500     2.3120    64.4270    12.5160    11.4530    13.5490   -26.7980 
  324.8750     2.3110    62.1890    12.3920    11.3210    13.6790   -26.7830 
  325.0000     2.3160    63.1830    12.4440    11.3150    13.7300   -26.7670 
  325.1250     2.3300    68.6990    12.8140    11.5470    13.7650   -26.7450 
  325.2500     2.3480    71.2120    13.4790    12.0230    13.9880   -26.7330 
  325.3750     2.3620    70.9560    13.7990    12.2610    14.1420   -26.7660 
  325.5000     2.3700    67.5860    14.5290    12.8490    14.8430   -26.8430 
  325.6250     2.3660    63.7270    15.3450    13.5880    16.0400   -26.9370 
  325.7500     2.3580    61.5520    15.8260    14.1370    17.1290   -27.0120 
  325.8750     2.3470    59.0020    15.8300    14.3380    17.4120   -27.0660 
  326.0000     2.3360    56.5640    15.3820    14.1480    16.4450   -27.1080 
  326.1250     2.3250    58.0160    14.6580    13.6410    15.1690   -27.1460 
  326.2500     2.3160    61.1580    13.9680    13.0660    14.3480   -27.1880 
  326.3750     2.3110    62.5020    13.4800    12.5780    13.9300   -27.2120 
  326.5000     2.3130    62.0110    13.2410    12.2540    13.7420   -27.2150 
  326.6250     2.3210    62.1090    13.2080    12.0990    13.6510   -27.1930 
  326.7500     2.3330    62.3060    13.2300    12.0140    13.5780   -27.1690 
  326.8750     2.3450    62.2070    13.2180    11.9360    13.5280   -27.1590 
  327.0000     2.3550    62.8220    13.1340    11.8280    13.4190   -27.1530 
  327.1250     2.3610    63.3160    13.0020    11.7080    13.2970   -27.1590 
  327.2500     2.3630    61.7000    12.9250    11.6460    13.1770   -27.1680 
  327.3750     2.3600    60.5180    13.0100    11.7270    13.1700   -27.1840 
  327.5000     2.3520    63.8330    13.3520    12.0270    13.4670   -27.2050 
  327.6250     2.3390    67.5220    14.0240    12.6220    14.1810   -27.2350 
  327.7500     2.3260    66.8170    14.8720    13.4020    15.2880   -27.2500 
  327.8750     2.3140    63.7080    15.6930    14.2090    16.6500   -27.2580 
  328.0000     2.3030    60.6560    16.2450    14.8290    17.8150   -27.2720 
  328.1250     2.2990    59.4040    16.2550    14.9910    18.1980   -27.2910 
  328.2500     2.3000    58.1870    15.7930    14.7010    17.7710   -27.3070 
  328.3750     2.3090    58.5270    15.0250    14.0660    16.2360   -27.2990 
  328.5000     2.3220    61.3360    14.1910    13.2910    14.5780   -27.2690 
  328.6250     2.3360    65.6380    13.5390    12.6070    13.5460   -27.2250 
  328.7500     2.3440    68.7450    13.1310    12.1180    13.0580   -27.2170 
  328.8750     2.3440    67.3390    12.9350    11.8320    12.8150   -27.2280 
  329.0000     2.3390    63.2770    12.8650    11.6960    12.7070   -27.2340 
  329.1250     2.3320    60.9460    12.8080    11.6320    12.6010   -27.2200 
  329.2500     2.3260    61.4460    12.6930    11.5590    12.4520   -27.1740 
  329.3750     2.3210    63.3690    12.5250    11.4620    12.2750   -27.1310 
  329.5000     2.3150    66.0660    12.3720    11.3800    12.1320   -27.0960 
  329.6250     2.3030    69.3860    12.3840    11.4190    12.2950   -27.0710 
  329.7500     2.2860    70.6530    12.6610    11.6620    12.9530   -27.0390 
  329.8750     2.2700    68.5050    13.2470    12.1560    14.1250   -27.0200 
  330.0000     2.2560    65.6070    14.0910    12.8800    15.6730   -27.0380 
  330.1250     2.2500    64.1780    15.0140    13.7200    17.2040   -27.0980 
  330.2500     2.2490    63.9860    15.7420    14.4440    18.0360   -27.1980 
