~V
VERS. 2.00: Ver 2.00
~W
STRT.M 53.0000:
STOP.M 371.0000:
STEP.M 0.1250:
NULL. -999.2500:
UWI. F10327:
~C
DEPT.M :
DEN.GM/CC :
GR.API :
RML.OHMM :
RI. :
RXO.OHMM :
SP.MV :
~A
# ...
  130.2500     2.2440    62.4710     7.6300     6.4730     7.1400    -6.5880 
  130.3750     2.2330    62.4500     7.9040     6.7440     7.4550    -6.6980 
  130.5000     2.2270    64.2460     8.0930     6.9640     7.6430    -6.6900 
  130.6250     2.2280    63.6860     8.1000     7.0480     8.1100    -6.5240 
  130.7500     2.2370    62.8820     7.8480     6.9180     9.0210    -6.1980 
  130.8750     2.2530    66.7560     7.3330     6.5530    10.4940    -5.7670 
  131.0000     2.2750    74.9630     6.6440     6.0060    11.4860    -5.3390 
  131.1250     2.2930    82.0690     5.9740     5.4320     9.8060    -5.0100 
  131.2500     2.3050    86.5840     5.4830     4.9680     6.9490    -4.8180 
  131.3750     2.3070    89.4320     5.2670     4.7020     5.3010    -4.7610 
  131.5000     2.2990    90.0140     5.3860     4.6990     5.0290    -4.9040 
  131.6250     2.2830    86.4960     5.7530     4.9130     5.2610    -5.2730 
  131.7500     2.2610    77.9360     6.2660     5.2730     5.6190    -5.8190 
  131.8750     2.2350    67.3990     6.7960     5.6860     6.1350    -6.4450 
  132.0000     2.2110    60.4220     7.1810     6.0260     6.7770    -7.0340 
  132.1250     2.1920    58.8640     7.3340     6.2100     7.0690    -7.5280 
  132.2500     2.1820    60.8210     7.2650     6.2210     6.9820    -7.9130 
  132.3750     2.1780    63.6260     7.0850     6.1220     6.7990    -8.1800 
  132.5000     2.1840    66.7230     7.0520     6.0850     6.7770    -8.2950 
  132.6250     2.2040    69.4450     7.4460     6.3160     6.9370    -8.3000 
  132.7500     2.2430    70.3430     8.5340     7.0330     7.6690    -8.2730 
  132.8750     2.3040    68.5160    10.5430     8.4490     9.6160    -8.3070 
  133.0000     2.3830    62.9280    13.6560    10.8220    13.9030    -8.4800 
  133.1250     2.4690    56.3100    17.4160    13.9120    20.4750    -8.7840 
  133.2500     2.5420    52.3920    20.9870    17.1270    28.0050    -9.2110 
  133.3750     2.5860    51.5680    23.2900    19.5740    36.4970    -9.7660 
  133.5000     2.5800    50.5490    23.0110    19.9830    46.6140   -10.4680 
  133.6250     2.5280    48.3240    20.3440    18.2350    53.9000   -11.2670 
  133.7500     2.4460    48.5620    16.4430    15.1750    44.2010   -12.0940 
  133.8750     2.3570    52.7810    12.7060    12.0040    24.4040   -12.8820 
  134.0000     2.2800    57.0290    10.1460     9.6420    12.6430   -13.6020 
  134.1250     2.2230    57.6360     8.7230     8.1710     8.8130   -14.2570 
  134.2500     2.1860    55.2000     8.1200     7.4090     7.9550   -14.8280 
  134.3750     2.1620    52.4080     8.0120     7.1350     7.8300   -15.2990 
  134.5000     2.1500    51.3480     8.1330     7.1600     7.7790   -15.6460 
  134.6250     2.1450    52.2650     8.2790     7.2920     7.6770   -15.9020 
  134.7500     2.1420    54.0190     8.3700     7.4290     7.6040   -16.0950 
  134.8750     2.1420    55.2900     8.3940     7.5340     7.5450   -16.2330 
  135.0000     2.1400    55.8560     8.3750     7.5990     7.5370   -16.3000 
  135.1250     2.1350    57.8810     8.3490     7.6420     7.5870   -16.3020 
  135.2500     2.1290    61.2530     8.3380     7.6760     7.6480   -16.2830 
  135.3750     2.1250    62.8780     8.3480     7.7080     7.7010   -16.2770 
  135.5000     2.1250    61.5440     8.3880     7.7440     7.8230   -16.2710 
  135.6250     2.1310    60.5380     8.4550     7.7900     7.9680   -16.2250 
  135.7500     2.1430    62.6710     8.5480     7.8470     8.0550   -16.1570 
  135.8750     2.1570    65.0500     8.6660     7.9170     8.0920   -16.1140 
  136.0000     2.1680    61.4290     8.8030     7.9970     8.1550   -16.1160 
  136.1250     2.1730    53.2750     8.9430     8.0840     8.2320   -16.1380 
  136.2500     2.1730    48.0450     9.0700     8.1660     8.3090   -16.1400 
  136.3750     2.1710    48.9080     9.1730     8.2330     8.3680   -16.0970 
  136.5000     2.1700    51.6540     9.2340     8.2730     8.4570   -16.0270 
  136.6250     2.1690    54.1720     9.2560     8.2840     8.5500   -15.9410 
  136.7500     2.1640    57.5280     9.2550     8.2750     8.5490   -15.8090 
  136.8750     2.1520    60.1880     9.2640     8.2760     8.4500   -15.5820 
  137.0000     2.1350    59.7290     9.3450     8.3410     8.3240   -15.2030 
  137.1250     2.1240    58.0480     9.5220     8.4940     8.3850   -14.7030 
  137.2500     2.1280    57.3160     9.7510     8.7120     8.8540   -14.1300 
  137.3750     2.1520    58.2780     9.9250     8.9120     9.8580   -13.5270 
  137.5000     2.1920    61.4010     9.8620     8.9420    11.7650   -12.9030 
  137.6250     2.2380    66.4740     9.4970     8.7240    13.5990   -12.2870 
  137.7500     2.2770    71.1370     8.8850     8.2740    12.6890   -11.7330 
  137.8750     2.3040    74.2760     8.1800     7.7030    10.0720   -11.3120 
  138.0000     2.3160    77.6130     7.6150     7.1970     7.7820   -11.1110 
  138.1250     2.3140    79.3770     7.3130     6.8860     6.8630   -11.0940 
  138.2500     2.2970    75.8670     7.2940     6.8140     6.7220   -11.2220 
  138.3750     2.2700    68.0680     7.4970     6.9540     6.9600   -11.4660 
  138.5000     2.2400    63.0070     7.8200     7.2370     7.4150   -11.8250 
  138.6250     2.2160    62.7160     8.1360     7.5470     7.8820   -12.2610 
  138.7500     2.1990    62.5070     8.3700     7.7990     8.1470   -12.6970 
  138.8750     2.1900    60.5990     8.4970     7.9510     8.2360   -13.0840 
  139.0000     2.1890    59.7780     8.5290     7.9950     8.2640   -13.3990 
  139.1250     2.1910    61.1010     8.5200     7.9750     8.3220   -13.6630 
  139.2500     2.1940    61.9700     8.5110     7.9310     8.4500   -13.8740 
  139.3750     2.1960    59.9750     8.5320     7.8940     8.6120   -14.0110 
  139.5000     2.1920    56.9560     8.6340     7.9170     8.7690   -14.0250 
  139.6250     2.1900    56.3060     8.8920     8.0700     9.0950   -13.9370 
  139.7500     2.2010    57.6770     9.4540     8.4690     9.9440   -13.7940 
  139.8750     2.2410    59.4250    10.5350     9.2820    11.8490   -13.6110 
  140.0000     2.3200    59.1780    12.5600    10.8600    16.0430   -13.3880 
  140.1250     2.4280    56.6860    15.7570    13.4400    22.7150   -13.1480 
  140.2500     2.5400    54.0350    20.2650    17.2480    29.6070   -12.9290 
  140.3750     2.6320    52.9760    25.9030    22.2890    35.0030   -12.8040 
  140.5000     2.6870    51.8220    31.7100    27.9240    41.4470   -12.8410 
  140.6250     2.7100    49.7410    35.9900    32.6050    49.6820   -13.0330 
  140.7500     2.7050    49.1780    37.0720    34.6130    59.0300   -13.3510 
  140.8750     2.6690    50.3170    34.0540    32.7490    68.2790   -13.7880 
  141.0000     2.5920    50.4490    27.5890    27.2110    66.5130   -14.3580 
  141.1250     2.4890    50.3530    20.5290    20.7000    48.7130   -15.0250 
  141.2500     2.3800    51.9680    14.8400    15.2260    27.2000   -15.7280 
  141.3750     2.2840    53.7920    11.0710    11.4280    13.7940   -16.3790 
  141.5000     2.2180    53.7720     9.0970     9.2650     9.3760   -16.9390 
  141.6250     2.1790    53.5320     8.2100     8.1460     8.2670   -17.4320 
  141.7500     2.1590    52.9320     7.9370     7.6690     8.0510   -17.8590 
  141.8750     2.1500    51.9320     7.9820     7.5790     8.0230   -18.1880 
  142.0000     2.1460    51.7000     8.1440     7.6920     8.0420   -18.3800 
  142.1250     2.1430    52.9040     8.2980     7.8590     8.0660   -18.4680 
  142.2500     2.1410    52.9700     8.4000     8.0110     8.1150   -18.5100 
  142.3750     2.1430    50.0250     8.4520     8.1270     8.2490   -18.5250 
  142.5000     2.1450    47.7450     8.4680     8.1990     8.4820   -18.4920 
  142.6250     2.1470    48.9090     8.4680     8.2360     8.7340   -18.4050 
  142.7500     2.1490    52.6080     8.4660     8.2440     8.8630   -18.2990 
  142.8750     2.1510    56.7460     8.4670     8.2270     8.8920   -18.2110 
  143.0000     2.1560    58.0720     8.4690     8.1900     8.9680   -18.1610 
