~V
VERS. 2.00: Ver 2.00
~W
STRT.M 60.0000:
STOP.M 392.0000:
STEP.M 0.1250:
NULL. -999.2500:
UWI. F10306:
~C
DEPT.M :
DEN.GM/CC :
GR.API :
RML.OHMM :
RI. :
RXO.OHMM :
SP.MV :
~A
# ...
   98.6250     2.1520    75.6850     9.3090     7.8700     8.6730   -13.5650 
   98.7500     2.1720    72.0660     9.7990     8.2850     9.0780   -13.2310 
   98.8750     2.1940    71.5900    10.1990     8.6830     9.5280   -12.8850 
   99.0000     2.2150    72.8310    10.3520     8.9250     9.8050   -12.5030 
   99.1250     2.2340    72.5550    10.0680     8.8260     9.6850   -12.0330 
   99.2500     2.2480    73.9510     9.3990     8.3910     8.9860   -11.5080 
   99.3750     2.2580    80.3490     8.4820     7.6910     7.8010   -10.9870 
   99.5000     2.2620    89.2460     7.5160     6.8790     6.6900   -10.5280 
   99.6250     2.2650    95.5130     6.8510     6.1750     6.0020   -10.1480 
   99.7500     2.2760    97.6390     6.6080     5.7300     5.6970    -9.8230 
   99.8750     2.3010    97.9130     6.8780     5.6230     5.7260    -9.5780 
  100.0000     2.3430    98.2030     7.6020     5.8560     6.2060    -9.4600 
  100.1250     2.3920    95.0640     8.3820     6.3850     7.2640    -9.5030 
  100.2500     2.4230    88.2080     9.1770     7.0230     8.6830    -9.6430 
  100.3750     2.4150    81.6340     9.8540     7.6600    10.0510    -9.8210 
  100.5000     2.3650    76.5230    10.4200     8.2650    10.5640   -10.0280 
  100.6250     2.2940    70.9620    11.0450     8.9190    10.3400   -10.2290 
  100.7500     2.2460    67.1930    11.8690     9.7120    10.4740   -10.3660 
  100.8750     2.2450    67.0010    12.8400    10.6270    12.7980   -10.4410 
  101.0000     2.2930    66.5570    13.7130    11.5060    16.6010   -10.4550 
  101.1250     2.3610    63.1350    14.0370    12.0030    20.0590   -10.3880 
  101.2500     2.3980    62.0700    13.6680    11.9410    20.7900   -10.2410 
  101.3750     2.3830    65.4720    12.6970    11.3230    16.2800   -10.0280 
  101.5000     2.3340    70.0440    11.4390    10.3580    11.0430    -9.7410 
  101.6250     2.2910    73.1300    10.2950     9.3570     9.3900    -9.4220 
  101.7500     2.2760    74.4910     9.4440     8.5210     8.5710    -9.1510 
  101.8750     2.2850    75.8410     8.8710     7.8840     7.7280    -8.9020 
  102.0000     2.3030    79.7980     8.4780     7.4070     6.8510    -8.6440 
  102.1250     2.3170    85.6790     8.1680     7.0420     6.4290    -8.3940 
  102.2500     2.3240    90.9750     7.8700     6.7290     6.0390    -8.2180 
  102.3750     2.3280    95.7860     7.5610     6.4420     5.8050    -8.1460 
  102.5000     2.3310    99.6360     7.2080     6.1490     5.7390    -8.1640 
  102.6250     2.3320    99.3720     6.7770     5.8200     5.7120    -8.2650 
  102.7500     2.3300    99.0300     6.3350     5.4840     5.5980    -8.4260 
  102.8750     2.3290   101.9760     6.0510     5.2370     5.4270    -8.6790 
  103.0000     2.3340   103.2530     6.1990     5.2470     5.4260    -9.0180 
  103.1250     2.3510    95.9980     7.2460     5.8510     6.2990    -9.4580 
  103.2500     2.3840    85.7080     9.2540     7.1720     8.5340    -9.9940 
  103.3750     2.4280    77.0510    12.0810     9.2130    12.2570   -10.6080 
  103.5000     2.4730    68.9810    15.2030    11.7040    17.2800   -11.3070 
  103.6250     2.4950    61.7420    17.5780    13.9500    21.8390   -12.0830 
  103.7500     2.4820    56.7100    18.4690    15.2100    23.7970   -12.8990 
  103.8750     2.4310    53.1420    17.6950    15.1210    23.2640   -13.7340 
  104.0000     2.3560    51.3580    15.7640    13.9080    19.5910   -14.5850 
  104.1250     2.2780    53.8700    13.6210    12.2550    14.4230   -15.3860 
  104.2500     2.2150    58.2480    11.9750    10.8380    10.8550   -16.0760 
  104.3750     2.1730    60.9300    10.9440     9.8490     9.5700   -16.6440 
  104.5000     2.1520    60.3900    10.4120     9.2770     9.1020   -17.1100 
  104.6250     2.1470    59.8330    10.2440     9.0570     8.7590   -17.4640 
  104.7500     2.1490    61.5890    10.2370     8.9980     8.4510   -17.7110 
  104.8750     2.1540    65.4450    10.3030     8.9910     8.2060   -17.8550 
  105.0000     2.1590    68.1180    10.3880     8.9690     8.1260   -17.9350 
  105.1250     2.1600    68.0750    10.4460     8.9020     8.2490   -18.0260 
  105.2500     2.1580    68.0150    10.4500     8.8110     8.3970   -18.1530 
  105.3750     2.1570    70.3310    10.4000     8.7200     8.5030   -18.2950 
  105.5000     2.1570    73.3140    10.3220     8.6590     8.5790   -18.4180 
  105.6250     2.1600    73.6740    10.2850     8.6590     8.6830   -18.5450 
  105.7500     2.1630    74.0770    10.3390     8.7300     8.8720   -18.7010 
  105.8750     2.1650    74.5840    10.5090     8.8780     9.1040   -18.8840 
  106.0000     2.1680    71.8370    10.7910     9.1020     9.3540   -19.0580 
  106.1250     2.1730    67.1220    11.1600     9.3950     9.5640   -19.1750 
  106.2500     2.1810    65.7550    11.5450     9.7070     9.7240   -19.2500 
  106.3750     2.1920    67.6110    11.8850     9.9900     9.8080   -19.3300 
  106.5000     2.2020    68.2040    12.1250    10.1940     9.8030   -19.4130 
  106.6250     2.2060    67.8590    12.2120    10.2690     9.7620   -19.4430 
  106.7500     2.2050    69.7050    12.1840    10.2420     9.7100   -19.4390 
  106.8750     2.2000    71.3230    12.0980    10.1530     9.6490   -19.4030 
  107.0000     2.1950    70.4940    12.0160    10.0480     9.6080   -19.3380 
  107.1250     2.1930    69.2310    11.9920     9.9790     9.6090   -19.2520 
  107.2500     2.1940    69.8770    12.0280     9.9590     9.6280   -19.1500 
  107.3750     2.1960    70.1690    12.1110     9.9840     9.6360   -19.0420 
  107.5000     2.1990    67.4900    12.2160    10.0380     9.6630   -18.9490 
  107.6250     2.2050    65.2440    12.3050    10.1020     9.7820   -18.8850 
  107.7500     2.2120    65.6440    12.3500    10.1600     9.9640   -18.8140 
  107.8750     2.2180    64.3960    12.3380    10.2050    10.0800   -18.7500 
  108.0000     2.2200    59.6570    12.2760    10.2360    10.0830   -18.7230 
  108.1250     2.2170    56.6270    12.1920    10.2490    10.0020   -18.7620 
  108.2500     2.2070    58.0930    12.1250    10.2470     9.8960   -18.8390 
  108.3750     2.1950    61.4570    12.0850    10.2320     9.8040   -18.8920 
  108.5000     2.1830    62.8640    12.0640    10.2080     9.7490   -18.8860 
  108.6250     2.1740    61.4240    12.0400    10.1780     9.7790   -18.8890 
  108.7500     2.1680    58.9920    11.9990    10.1460     9.8790   -18.9290 
  108.8750     2.1660    56.9690    11.9380    10.1090    10.0050   -18.9650 
  109.0000     2.1670    56.8210    11.8630    10.0660    10.0940   -18.9570 
  109.1250     2.1710    58.2810    11.7840    10.0200    10.1200   -18.9290 
  109.2500     2.1740    59.9850    11.7200     9.9810    10.0120   -18.9190 
  109.3750     2.1760    61.0970    11.6800     9.9600     9.9380   -18.9240 
  109.5000     2.1790    61.4960    11.6690     9.9610     9.9210   -18.9600 
  109.6250     2.1810    61.2340    11.6800     9.9710     9.8920   -19.0050 
  109.7500     2.1800    60.0610    11.6910     9.9700     9.9120   -19.0640 
  109.8750     2.1760    57.3440    11.6830     9.9400     9.9650   -19.1620 
  110.0000     2.1690    56.0270    11.6470     9.8800    10.0050   -19.2840 
  110.1250     2.1610    58.4350    11.5900     9.8060    10.0150   -19.3820 
  110.2500     2.1540    61.4110    11.5410     9.7450    10.0780   -19.4560 
  110.3750     2.1510    61.9620    11.5200     9.7180    10.1870   -19.5450 
  110.5000     2.1500    59.8540    11.5340     9.7330    10.2820   -19.6410 
  110.6250     2.1510    57.4850    11.5770     9.7920    10.2570   -19.7240 
  110.7500     2.1510    56.7220    11.6240     9.8740    10.2510   -19.7880 
  110.8750     2.1480    58.6920    11.6580     9.9590    10.2760   -19.8200 
  111.0000     2.1440    62.2030    11.6670    10.0280    10.3050   -19.8510 
  111.1250     2.1390    62.3580    11.6430    10.0590    10.2120   -19.8590 
  111.2500     2.1360    59.0870    11.5910    10.0450     9.9960   -19.8330 
  111.3750     2.1360    56.4180    11.5120     9.9840     9.7650   -19.7810 
