~V
VERS. 2.00: Ver 2.00
~W
STRT.M 60.0000:
STOP.M 392.0000:
STEP.M 0.1250:
NULL. -999.2500:
UWI. F10306:
~C
DEPT.M :
DEN.GM/CC :
GR.API :
RML.OHMM :
RI. :
RXO.OHMM :
SP.MV :
~A
# ...
  163.0000     2.1690    77.9170     9.3930     8.3210     8.5890   -17.8210 
  163.1250     2.1670    73.5560     9.3120     8.2880     8.3240   -18.0450 
  163.2500     2.1670    70.3730     9.2890     8.3120     8.1900   -18.2770 
  163.3750     2.1690    70.5100     9.3250     8.4070     8.3180   -18.5150 
  163.5000     2.1740    71.2670     9.3790     8.5590     8.7410   -18.7580 
  163.6250     2.1800    70.2530     9.3850     8.7130     9.4050   -18.9930 
  163.7500     2.1860    68.5860     9.3310     8.7960    10.0320   -19.1980 
  163.8750     2.1890    66.8410     9.2460     8.7660    10.3180   -19.4060 
  164.0000     2.1890    64.8490     9.1790     8.6330    10.2370   -19.6320 
  164.1250     2.1850    61.4950     9.1840     8.4580     9.9840   -19.8120 
  164.2500     2.1810    58.6150     9.2620     8.3290     9.8860   -19.9050 
  164.3750     2.1790    56.9500     9.3960     8.2960     9.9730   -19.9240 
  164.5000     2.1780    55.6400     9.5490     8.3690    10.2100   -19.9140 
  164.6250     2.1800    55.4090     9.6630     8.5260    10.5150   -19.8910 
  164.7500     2.1810    56.9870     9.6940     8.7000    10.8560   -19.8200 
  164.8750     2.1810    60.3110     9.6300     8.8530    11.1410   -19.6570 
  165.0000     2.1780    63.2260     9.4990     8.9650    11.2360   -19.4240 
  165.1250     2.1730    65.1550     9.3720     9.0340    11.2800   -19.1570 
  165.2500     2.1640    65.5900     9.3170     9.0790    11.2490   -18.8710 
  165.3750     2.1540    65.5140     9.3480     9.1110    11.2110   -18.5360 
  165.5000     2.1460    65.8630     9.4380     9.1250    11.1910   -18.1200 
  165.6250     2.1440    67.4960     9.5060     9.0930    11.1990   -17.6290 
  165.7500     2.1510    69.7220     9.4700     8.9850    11.1860   -17.1320 
  165.8750     2.1650    71.9600     9.2870     8.7700    11.0710   -16.6740 
  166.0000     2.1850    74.0110     8.9490     8.4420    10.6320   -16.2440 
  166.1250     2.2090    77.0220     8.4740     8.0210     9.6990   -15.8560 
  166.2500     2.2320    81.4440     7.9710     7.5940     8.5440   -15.5850 
  166.3750     2.2490    86.0500     7.5510     7.2430     7.7720   -15.4760 
  166.5000     2.2580    87.8200     7.3260     7.0310     7.7450   -15.5190 
  166.6250     2.2550    85.4660     7.4070     7.0210     8.0300   -15.7090 
  166.7500     2.2450    82.7030     7.7180     7.1720     8.3690   -16.0250 
  166.8750     2.2290    82.4580     8.1620     7.4420     8.8380   -16.4250 
  167.0000     2.2130    82.6950     8.6170     7.7700     9.3240   -16.6440 
  167.1250     2.1960    80.8200     8.9630     8.0720     9.7720   -17.1670 
  167.2500     2.1790    78.7700     9.1770     8.2850    10.0870   -17.6880 
  167.3750     2.1660    77.7820     9.2730     8.3780    10.2120   -18.1690 
  167.5000     2.1580    76.7260     9.2820     8.3670    10.2060   -18.6080 
  167.6250     2.1590    73.1530     9.2580     8.3050    10.2140   -19.0220 
  167.7500     2.1640    71.6580     9.2770     8.2690    10.3040   -19.3930 
  167.8750     2.1700    75.3730     9.3940     8.2950    10.4460   -19.6880 
  168.0000     2.1700    78.7940     9.6220     8.3840    10.6260   -19.9230 
  168.1250     2.1680    73.9940     9.9020     8.5060    10.9030   -20.1410 
  168.2500     2.1600    65.3170    10.1030     8.6130    11.2050   -20.3470 
  168.3750     2.1500    61.8660    10.1270     8.6740    11.3990   -20.4990 
  168.5000     2.1450    63.7480     9.9500     8.6750    11.4130   -20.5470 
  168.6250     2.1460    62.3770     9.6370     8.6100    11.2960   -20.4930 
  168.7500     2.1520    58.7280     9.3380     8.5090    11.1390   -20.3820 
  168.8750     2.1590    56.5170     9.1310     8.4020    10.9630   -20.2310 
  169.0000     2.1640    56.8200     9.0310     8.3120    10.7590   -20.0280 
  169.1250     2.1650    56.9580     9.0120     8.2640    10.6060   -19.7800 
  169.2500     2.1630    56.0480     9.0280     8.2550    10.5000   -19.5350 
  169.3750     2.1590    57.2590     9.0770     8.2760    10.4180   -19.2920 
  169.5000     2.1570    61.3130     9.1730     8.3170    10.3920   -19.0660 
  169.6250     2.1580    65.6790     9.3270     8.3710    10.4900   -18.8660 
  169.7500     2.1600    65.9230     9.5030     8.4260    10.5910   -18.6870 
  169.8750     2.1630    62.5480     9.6500     8.4730    10.6660   -18.5290 
  170.0000     2.1630    61.4320     9.7230     8.5060    10.7320   -18.3870 
  170.1250     2.1620    65.6950     9.7070     8.5290    10.9010   -18.2150 
  170.2500     2.1590    69.6860     9.6620     8.5700    11.1430   -17.9840 
  170.3750     2.1550    69.3670     9.6450     8.6580    11.4000   -17.7160 
  170.5000     2.1490    66.3770     9.6950     8.8140    11.5890   -17.3980 
  170.6250     2.1430    64.1000     9.8200     9.0210    11.6480   -16.9190 
  170.7500     2.1380    64.1200     9.9480     9.1890    11.6250   -16.2610 
  170.8750     2.1370    66.1410     9.9670     9.2060    11.4980   -15.4290 
  171.0000     2.1450    68.7650     9.7450     8.9680    11.1230   -14.4390 
  171.1250     2.1680    69.1960     9.1400     8.3840    10.2820   -13.2700 
  171.2500     2.2050    70.5390     8.2430     7.5640     8.9960   -11.9450 
  171.3750     2.2510    76.1850     7.1970     6.6340     7.3450   -10.5170 
  171.5000     2.2980    83.6270     6.1870     5.7240     5.6420    -9.1070 
  171.6250     2.3350    86.2930     5.3970     4.9630     4.6750    -7.9020 
  171.7500     2.3590    86.5250     4.8370     4.3760     4.1960    -6.9180 
  171.8750     2.3730    87.7670     4.4740     3.9700     4.0030    -6.1460 
  172.0000     2.3800    88.7350     4.2720     3.7430     3.9890    -5.5900 
  172.1250     2.3820    86.5200     4.2650     3.7240     4.0890    -5.3580 
  172.2500     2.3770    84.1170     4.4660     3.8950     4.2840    -5.4390 
  172.3750     2.3630    84.8310     4.9070     4.2690     4.7600    -5.7860 
  172.5000     2.3390    87.1600     5.5700     4.8380     5.6820    -6.2730 
  172.6250     2.3040    87.5200     6.3390     5.5550     6.9160    -6.8360 
  172.7500     2.2630    83.7880     6.9930     6.2680     8.4390    -7.4140 
  172.8750     2.2240    76.4180     7.3610     6.8340     9.6830    -7.9360 
  173.0000     2.1980    70.4480     7.3840     7.1510     9.3800    -8.3670 
  173.1250     2.2040    71.8860     7.1460     7.1800     8.4480    -8.6600 
  173.2500     2.2420    76.2550     6.9190     7.0790     7.5820    -8.8400 
  173.3750     2.3070    78.6000     6.8680     6.9720     7.2040    -8.9350 
  173.5000     2.3800    77.4310     7.0250     6.9300     7.5030    -8.9950 
  173.6250     2.4290    74.0440     7.2820     6.9470     8.1520    -9.0290 
  173.7500     2.4380    70.4550     7.4500     6.9430     8.3070    -9.0790 
  173.8750     2.4100    69.3520     7.4310     6.8640     7.6910    -9.2190 
  174.0000     2.3610    70.6310     7.2350     6.7030     6.9660    -9.4820 
  174.1250     2.3140    70.9300     6.9660     6.5090     6.7600    -9.8250 
  174.2500     2.2770    70.4990     6.7670     6.3640     6.7670   -10.1550 
  174.3750     2.2530    73.0270     6.7020     6.3080     6.8030   -10.4270 
  174.5000     2.2370    76.1940     6.7770     6.3340     6.8130   -10.6490 
  174.6250     2.2290    73.5630     6.9390     6.3920     6.8010   -10.7890 
  174.7500     2.2270    68.4760     7.0750     6.4040     6.7660   -10.8190 
  174.8750     2.2310    68.2020     7.0960     6.3220     6.6530   -10.7380 
  175.0000     2.2440    75.4960     6.9500     6.1270     6.3890   -10.5930 
  175.1250     2.2680    83.5570     6.6320     5.8390     5.9060   -10.4760 
  175.2500     2.3000    85.7920     6.2630     5.5520     5.4790   -10.4190 
  175.3750     2.3340    82.1830     5.9620     5.3440     5.2990   -10.4430 
  175.5000     2.3600    77.7960     5.8350     5.2750     5.3770   -10.5650 
  175.6250     2.3630    74.9320     5.9780     5.3910     5.7520   -10.8460 
  175.7500     2.3450    72.0430     6.3190     5.6280     6.2000   -11.2990 
