~V
VERS. 2.00: Ver 2.00
~W
STRT.M 60.0000:
STOP.M 392.0000:
STEP.M 0.1250:
NULL. -999.2500:
UWI. F10306:
~C
DEPT.M :
DEN.GM/CC :
GR.API :
RML.OHMM :
RI. :
RXO.OHMM :
SP.MV :
~A
# ...
  278.8750     2.2450    69.0870    37.5880    36.5070    30.0790   -19.5080 
  279.0000     2.2640    71.5740    33.4070    32.9540    26.7080   -19.4910 
  279.1250     2.2900    74.2620    28.1510    28.1160    21.6190   -19.4290 
  279.2500     2.3160    77.7590    23.4410    23.6600    16.8870   -19.3430 
  279.3750     2.3390    80.1580    20.0560    20.3800    13.5660   -19.2420 
  279.5000     2.3560    78.2410    18.1140    18.4070    12.1490   -19.1350 
  279.6250     2.3680    75.0470    17.3430    17.5240    12.4150   -19.0210 
  279.7500     2.3780    75.5000    16.9470    17.0270    13.2790   -18.9160 
  279.8750     2.3870    78.2300    16.4690    16.4820    13.8790   -18.8220 
  280.0000     2.3950    80.4250    15.6730    15.6460    12.9670   -18.7720 
  280.1250     2.3970    82.2700    14.5840    14.5270    11.2290   -18.7870 
  280.2500     2.4040    86.2120    13.5560    13.4690    10.0300   -18.8630 
  280.3750     2.4100    91.0590    12.9400    12.7870     9.8870   -19.0120 
  280.5000     2.4110    94.0940    13.0740    12.7510    10.6580   -19.2390 
  280.6250     2.4050    92.1540    14.5200    13.7890    12.3400   -19.5410 
  280.7500     2.3890    86.2260    17.4710    16.0740    15.1090   -19.8960 
  280.8750     2.3640    78.1630    22.1980    19.9310    19.1640   -20.2820 
  281.0000     2.3340    70.3720    28.7640    25.5860    24.3170   -20.6650 
  281.1250     2.3040    65.2540    36.9510    33.1170    30.0310   -21.0540 
  281.2500     2.2800    61.6810    45.5130    41.4040    34.5040   -21.4350 
  281.3750     2.2630    59.6400    53.3010    49.2370    36.3380   -21.8050 
  281.5000     2.2540    60.1280    59.3980    55.4610    36.2810   -22.1590 
  281.6250     2.2520    63.7680    63.2610    59.2230    35.4430   -22.4790 
  281.7500     2.2540    66.8770    65.8090    61.3780    34.9170   -22.7630 
  281.8750     2.2580    66.9520    67.7610    62.7280    36.8960   -23.0340 
  282.0000     2.2640    64.9590    69.4880    63.8000    42.4270   -23.3260 
  282.1250     2.2690    61.9440    70.8030    64.6080    50.6990   -23.6130 
  282.2500     2.2700    57.9160    71.3970    64.9470    57.8800   -23.8930 
  282.3750     2.2640    53.3990    71.0380    64.6080    61.1990   -24.1470 
  282.5000     2.2530    50.7660    69.6850    63.5100    58.3170   -24.3710 
  282.6250     2.2380    53.3400    67.3760    61.6350    48.3650   -24.5620 
  282.7500     2.2240    57.8650    64.5430    59.3070    38.3240   -24.7090 
  282.8750     2.2160    60.5930    61.4560    56.7420    30.8970   -24.8330 
  283.0000     2.2130    60.7590    58.3490    54.1360    25.7280   -24.9380 
  283.1250     2.2120    60.3970    55.4470    51.6760    23.5850   -25.0290 
  283.2500     2.2070    60.1030    52.8150    49.4430    24.3400   -25.0830 
  283.3750     2.1950    60.5920    50.4360    47.4550    27.3350   -25.1060 
  283.5000     2.1760    62.7540    48.2550    45.6800    31.6990   -25.0870 
  283.6250     2.1610    63.7140    46.2680    44.0820    36.0680   -25.0420 
  283.7500     2.1540    62.1970    44.5030    42.6190    39.1840   -24.9990 
  283.8750     2.1600    62.4040    43.0710    41.3480    40.3450   -24.9390 
  284.0000     2.1770    67.9540    42.0740    40.3670    39.8680   -24.8620 
  284.1250     2.2010    74.1770    41.6030    39.8230    39.3990   -24.7730 
  284.2500     2.2250    74.5620    41.4650    39.6360    39.2140   -24.7170 
  284.3750     2.2460    69.9190    41.4950    39.6930    39.5890   -24.7020 
  284.5000     2.2610    66.1670    41.5580    39.8440    39.8730   -24.7090 
  284.6250     2.2680    66.3340    41.6080    39.9600    39.7770   -24.7410 
  284.7500     2.2690    66.6740    41.7310    40.0390    39.4900   -24.8030 
  284.8750     2.2650    64.1100    42.0670    40.1780    39.3230   -24.8910 
  285.0000     2.2610    61.6530    42.7590    40.5240    39.5210   -25.0000 
  285.1250     2.2590    64.5320    43.9760    41.2930    40.8830   -25.1380 
  285.2500     2.2590    67.1200    45.6490    42.5010    42.6360   -25.2790 
  285.3750     2.2620    65.1310    47.7090    44.1200    44.4260   -25.4100 
  285.5000     2.2640    60.3920    50.0390    46.0550    45.6900   -25.5500 
  285.6250     2.2640    58.2410    52.4660    48.1570    47.3780   -25.6600 
  285.7500     2.2600    59.0920    54.7640    50.2010    49.8610   -25.7170 
  285.8750     2.2530    60.4400    56.7740    52.0440    52.1010   -25.7280 
  286.0000     2.2440    61.4400    58.4330    53.6240    53.7980   -25.6950 
  286.1250     2.2400    62.3530    59.7610    54.9540    54.6420   -25.6160 
  286.2500     2.2400    62.4220    60.9410    56.1670    55.4970   -25.5090 
  286.3750     2.2450    62.7080    62.0400    57.3200    55.5820   -25.3640 
  286.5000     2.2520    64.0980    63.0160    58.3850    56.3130   -25.1840 
  286.6250     2.2560    64.9300    63.6310    59.1810    58.3200   -24.9960 
  286.7500     2.2540    62.6990    63.7140    59.5400    59.5030   -24.8280 
  286.8750     2.2470    59.1130    63.1410    59.3100    58.0220   -24.6810 
  287.0000     2.2360    58.2710    61.9090    58.4230    55.1550   -24.5600 
  287.1250     2.2210    60.6510    60.0350    56.8230    53.2130   -24.4700 
  287.2500     2.2100    62.1910    57.7700    54.7530    51.7660   -24.3810 
  287.3750     2.2050    61.3180    55.2620    52.3810    50.0720   -24.3040 
  287.5000     2.2100    60.4500    52.6880    49.9040    47.7050   -24.2520 
  287.6250     2.2220    62.8490    50.3300    47.6000    45.2380   -24.2170 
  287.7500     2.2310    66.6610    48.4060    45.6720    42.7710   -24.1620 
  287.8750     2.2310    66.6740    47.1250    44.2800    41.2950   -24.0910 
  288.0000     2.2240    62.7640    46.7990    43.6620    42.0380   -24.0020 
  288.1250     2.2180    61.0860    48.3360    44.6020    45.2640   -23.8960 
  288.2500     2.2210    63.0510    52.2370    47.6500    48.7140   -23.7960 
  288.3750     2.2320    65.6400    58.7880    53.2740    49.3710   -23.7130 
  288.5000     2.2430    66.1290    67.3790    61.2220    50.0780   -23.6310 
  288.6250     2.2440    62.4380    75.9030    69.9410    57.3110   -23.5410 
  288.7500     2.2370    55.8330    81.4770    76.5730    69.5020   -23.4360 
  288.8750     2.2280    50.7660    82.1100    78.8330    80.2170   -23.2990 
  289.0000     2.2250    50.5440    77.4560    75.8430    77.6420   -23.1320 
  289.1250     2.2320    54.1840    68.8060    68.3210    59.9860   -22.9450 
  289.2500     2.2440    56.8200    59.2970    59.3720    45.0590   -22.7610 
  289.3750     2.2570    58.0300    50.3900    50.6360    37.0400   -22.5890 
  289.5000     2.2700    58.9870    42.6250    42.8750    33.4890   -22.4220 
  289.6250     2.2850    60.1590    36.2730    36.5060    30.9020   -22.2770 
  289.7500     2.3010    63.0320    31.1320    31.3620    27.6650   -22.1800 
  289.8750     2.3160    68.2400    27.2160    27.4480    23.6600   -22.1380 
  290.0000     2.3270    74.9190    24.5200    24.7380    20.7870   -22.1700 
  290.1250     2.3310    79.7270    23.2070    23.3600    18.8670   -22.2880 
  290.2500     2.3290    79.9810    23.0580    23.0740    18.9500   -22.4870 
  290.3750     2.3240    76.8310    24.0630    23.8520    19.8740   -22.7650 
  290.5000     2.3180    72.8620    26.1700    25.6550    21.0390   -23.1240 
  290.6250     2.3110    68.7270    29.3750    28.5320    23.5600   -23.5320 
  290.7500     2.3020    64.4450    33.2470    32.1230    26.5790   -23.9520 
  290.8750     2.2930    60.8010    37.4720    36.1420    30.3360   -24.3850 
  291.0000     2.2820    58.2580    41.7160    40.2250    34.6970   -24.8040 
  291.1250     2.2730    57.0270    45.6220    43.9000    38.2760   -25.1950 
  291.2500     2.2670    57.8300    49.0830    46.9640    40.5220   -25.5330 
  291.3750     2.2620    60.2190    52.1060    49.3950    42.2730   -25.8100 
  291.5000     2.2550    62.2350    54.7610    51.3120    44.0060   -26.0410 
  291.6250     2.2430    63.9190    57.0400    52.8260    45.5260   -26.2580 
