~V
VERS. 2.00: Ver 2.00
~W
STRT.M 54.0000:
STOP.M 355.0000:
STEP.M 0.1250:
NULL. -999.2500:
UWI. F10328:
~C
DEPT.M :
DEN.GM/CC :
SP.MV :
R2M. :
R025. :
RA2. :
GR.API :
RML.OHMM :
RI. :
RXO.OHMM :
~A
# ...
  154.3750     2.1720   -20.0830    14.1570     7.9910    14.1570    73.2230    10.9950     8.7560    11.4800 
  154.5000     2.2080   -19.4960    13.9120     7.5600    13.9120    75.6580    10.0000     7.9480    10.0840 
  154.6250     2.2290   -19.0290    13.5660     7.1450    13.5660    73.5910     9.5410     7.4970     8.1070 
  154.7500     2.2250   -18.6740    13.2530     6.9630    13.2530    70.3000     9.6440     7.4370     7.6070 
  154.8750     2.2010   -18.4160    13.0480     7.0990    13.0480    67.1430    10.1990     7.7270     9.0410 
  155.0000     2.1740   -18.2120    12.8590     7.4730    12.8590    63.1130    10.9800     8.2500    10.4930 
  155.1250     2.1610   -18.0090    12.5780     7.8610    12.5780    59.1040    11.6750     8.8280    10.8350 
  155.2500     2.1640   -17.7630    12.3290     8.0630    12.3290    57.8490    12.0670     9.2710    11.0560 
  155.3750     2.1740   -17.4660    12.2030     8.0430    12.2030    58.6170    12.0920     9.4730    10.9940 
  155.5000     2.1770   -17.0810    12.2170     7.8900    12.2170    60.0320    11.8060     9.4210    10.4520 
  155.6250     2.1670   -16.5140    12.3140     7.7470    12.3140    62.5350    11.3350     9.1670    10.3330 
  155.7500     2.1600   -15.7860    12.3990     7.6950    12.3990    65.2010    10.8710     8.8630    10.8030 
  155.8750     2.1820   -14.9290    12.5060     7.7130    12.5060    66.6680    10.5320     8.6100    11.3050 
  156.0000     2.2580   -14.0390    12.7100     7.7240    12.7100    67.2330    10.3940     8.4750    10.7090 
  156.1250     2.3720   -13.1920    12.9920     7.6330    12.9920    69.1000    10.4780     8.4820     9.4900 
  156.2500     2.4480   -12.4730    13.1590     7.4460    13.1590    70.9840    10.6180     8.5300     9.7000 
  156.3750     2.4500   -11.8630    13.1140     7.2140    13.1140    72.6220    10.6410     8.5130    11.0460 
  156.5000     2.3920   -11.3390    12.8940     7.0040    12.8940    74.8250    10.4350     8.3640    10.5590 
  156.6250     2.3160   -10.9850    12.6280     6.8690    12.6280    76.2840     9.9940     8.0690     8.4660 
  156.7500     2.2610   -10.7520    12.3680     6.7910    12.3680    77.1580     9.4850     7.7200     7.4490 
  156.8750     2.2390   -10.5880    12.0210     6.7240    12.0210    78.4480     9.0410     7.3900     7.3660 
  157.0000     2.2440   -10.4760    11.4780     6.6040    11.4780    80.5710     8.7390     7.1340     7.7950 
  157.1250     2.2570   -10.3570    10.7660     6.3730    10.7660    82.7150     8.5740     6.9820     7.8690 
  157.2500     2.2660   -10.1940    10.1600     6.0720    10.1600    82.3470     8.4360     6.8840     7.5280 
  157.3750     2.2720   -10.0180     9.7800     5.7830     9.7800    79.8160     8.2710     6.8020     7.0810 
  157.5000     2.2800    -9.8270     9.5550     5.5970     9.5550    78.2680     8.0760     6.7230     6.7080 
  157.6250     2.2940    -9.5930     9.3360     5.5640     9.3360    81.2000     7.8900     6.6530     6.6420 
  157.7500     2.3080    -9.3710     9.0960     5.5950     9.0960    86.1670     7.7670     6.6060     6.4170 
  157.8750     2.3100    -9.1910     8.9050     5.5950     8.9050    88.4720     7.7420     6.6070     6.3040 
  158.0000     2.2920    -9.0500     8.7930     5.5100     8.7930    85.9620     7.8260     6.6750     6.4070 
  158.1250     2.2650    -8.9440     8.7700     5.3550     8.7700    81.2160     7.9860     6.8010     6.7240 
  158.2500     2.2510    -8.8170     8.8020     5.2060     8.8020    78.6720     8.1010     6.9100     6.7940 
  158.3750     2.2600    -8.6570     8.8510     5.1100     8.8510    78.9030     8.0540     6.9180     6.6880 
  158.5000     2.2920    -8.4800     8.8520     5.0710     8.8520    80.1780     7.7760     6.7600     6.9390 
  158.6250     2.3320    -8.2870     8.7710     5.0440     8.7710    82.6850     7.2900     6.4180     6.9210 
  158.7500     2.3650    -8.0760     8.6610     4.9680     8.6610    87.5260     6.7970     6.0170     6.1790 
  158.8750     2.3870    -7.8830     8.5320     4.8190     8.5320    90.4160     6.4390     5.6620     5.3850 
  159.0000     2.3960    -7.6960     8.2990     4.6320     8.2990    88.5220     6.2830     5.4220     5.0630 
  159.1250     2.3900    -7.5810     7.8240     4.5040     7.8240    84.9260     6.3280     5.3400     5.1180 
  159.2500     2.3690    -7.5640     7.3350     4.5090     7.3350    84.0640     6.4650     5.3670     5.5110 
  159.3750     2.3340    -7.5830     6.8840     4.6730     6.8840    86.0990     6.6250     5.4500     5.9740 
  159.5000     2.2930    -7.6700     6.4610     4.9690     6.4610    87.3970     6.7750     5.5440     6.2950 
  159.6250     2.2640    -7.8400     6.1150     5.3520     6.1150    86.6330     6.9680     5.6770     6.2780 
  159.7500     2.2660    -8.0130     5.9000     5.7540     5.9000    86.9230     7.2990     5.9220     6.2670 
  159.8750     2.3050    -8.1910     5.9130     6.1480     5.9130    87.6860     7.8600     6.3460     6.7570 
  160.0000     2.3660    -8.3570     6.2050     6.5440     6.2050    86.0720     8.6870     6.9850     7.8660 
  160.1250     2.4010    -8.4680     6.6780     7.0280     6.6780    81.2310     9.6820     7.7990    10.3690 
  160.2500     2.3820    -8.5700     7.0020     7.6770     7.0020    78.5480    10.5560     8.5800    13.7620 
  160.3750     2.3210    -8.7170     7.2230     8.5240     7.2230    79.3700    11.1410     9.1730    13.2970 
  160.5000     2.2560    -8.8620     7.4840     9.5350     7.4840    80.1370    11.5360     9.5920    12.6690 
  160.6250     2.2390    -8.9970     7.8500    10.6320     7.8500    79.3390    12.1910    10.1060    12.6270 
  160.7500     2.2930    -9.1810     8.2910    11.7480     8.2910    77.6840    13.5400    11.0490    12.5450 
  160.8750     2.4030    -9.3690     8.6990    12.9110     8.6990    74.2000    15.8570    12.7120    13.3140 
  161.0000     2.5130    -9.5860     9.0360    14.1740     9.0360    69.4450    19.1310    15.2450    17.9200 
  161.1250     2.5380    -9.8690     9.4420    15.5360     9.4420    65.1300    22.8680    18.4830    36.1550 
  161.2500     2.4880   -10.1580     9.9650    16.8600     9.9650    61.5820    25.9680    21.5180    61.9480 
  161.3750     2.4000   -10.3970    10.5650    18.0060    10.5650    58.0530    27.6340    23.5250    66.5760 
  161.5000     2.3070   -10.6210    11.1990    18.8570    11.1990    56.1940    27.7200    24.1320    49.5380 
  161.6250     2.2350   -10.8260    11.8360    19.3030    11.8360    58.3890    26.7450    23.5570    33.5230 
  161.7500     2.1840   -11.0070    12.4050    19.4200    12.4050    62.0110    25.7020    22.6900    27.6210 
  161.8750     2.1520   -11.1520    12.8920    19.2660    12.8920    65.1520    24.9140    21.9170    25.3620 
  162.0000     2.1330   -11.2720    13.3890    18.9250    13.3890    66.9160    24.3060    21.2750    24.1380 
  162.1250     2.1200   -11.3520    14.0670    18.5170    14.0670    66.1300    23.6160    20.6160    23.3450 
  162.2500     2.1100   -11.4050    14.9120    18.1760    14.9120    65.4340    22.7120    19.8360    23.4000 
  162.3750     2.1060   -11.4260    15.8240    17.9550    15.8240    65.7650    21.6690    18.9750    23.5110 
  162.5000     2.1100   -11.4100    16.7720    17.8480    16.7720    66.6280    20.7360    18.2050    23.2040 
  162.6250     2.1230   -11.4140    17.8030    17.8200    17.8030    65.7600    20.3850    17.8740    22.0910 
  162.7500     2.1370   -11.3780    19.0510    17.8260    19.0510    64.9030    20.8870    18.2060    21.7070 
  162.8750     2.1480   -11.3200    20.7380    17.8680    20.7380    64.6810    22.4740    19.4350    23.3900 
  163.0000     2.1550   -11.2670    22.9880    17.9550    22.9880    63.5070    25.2460    21.7450    28.9200 
  163.1250     2.1510   -11.2000    25.8490    18.0360    25.8490    60.0400    28.9500    25.1270    34.9680 
  163.2500     2.1370   -11.0950    29.2120    17.9530    29.2120    55.5140    32.0900    28.3500    42.8380 
  163.3750     2.1170   -11.0230    33.0530    17.4930    33.0530    53.9530    32.6830    29.5640    48.9770 
