~V
VERS. 2.00: Ver 2.00
~W
STRT.M 54.0000:
STOP.M 355.0000:
STEP.M 0.1250:
NULL. -999.2500:
UWI. F10328:
~C
DEPT.M :
DEN.GM/CC :
SP.MV :
R2M. :
R025. :
RA2. :
GR.API :
RML.OHMM :
RI. :
RXO.OHMM :
~A
# ...
  245.6250     2.3550    -8.1040     5.2990     4.1300     5.2990    78.3370     6.6060     5.4480     6.2050 
  245.7500     2.3300    -8.3620     5.3630     4.3190     5.3630    82.4550     6.4270     5.2820     5.5270 
  245.8750     2.3120    -8.5760     5.3620     4.3730     5.3620    88.1140     6.2120     5.0590     5.1180 
  246.0000     2.3020    -8.7760     5.3250     4.2690     5.3250    92.5250     6.0010     4.8310     4.9320 
  246.1250     2.2960    -8.9120     5.2440     4.0760     5.2440    92.9580     5.8180     4.6390     4.7990 
  246.2500     2.2910    -9.0350     5.0540     3.9360     5.0540    93.4730     5.6690     4.4960     4.7950 
  246.3750     2.2870    -9.1440     4.7860     3.9110     4.7860    96.8070     5.5630     4.4120     4.8600 
  246.5000     2.2850    -9.2380     4.5470     3.9910     4.5470    99.1660     5.5250     4.3990     4.6860 
  246.6250     2.2840    -9.3750     4.4030     4.1130     4.4030    95.0470     5.6190     4.4960     4.6160 
  246.7500     2.2810    -9.4990     4.2990     4.2170     4.2990    88.1190     5.8550     4.7030     4.6120 
  246.8750     2.2770    -9.6560     4.2290     4.3010     4.2290    82.5580     6.2280     5.0170     4.8080 
  247.0000     2.2720    -9.8460     4.1760     4.4000     4.1760    79.2390     6.6870     5.4080     5.2860 
  247.1250     2.2710   -10.0500     4.1450     4.5650     4.1450    76.7930     7.1040     5.8000     5.8910 
  247.2500     2.2750   -10.2600     4.2010     4.7760     4.2010    74.1190     7.3490     6.0880     6.5540 
  247.3750     2.2840   -10.4380     4.3400     4.9730     4.3400    71.2030     7.3550     6.1990     7.1030 
  247.5000     2.2950   -10.5580     4.4970     5.0780     4.4970    71.3400     7.1400     6.1120     7.4860 
  247.6250     2.3020   -10.6000     4.6000     5.0090     4.6000    76.5500     6.7830     5.8580     6.9370 
  247.7500     2.3030   -10.6120     4.6520     4.8210     4.6520    81.8360     6.4330     5.5560     6.0600 
  247.8750     2.2980   -10.6010     4.6690     4.6240     4.6690    83.5450     6.1700     5.2860     5.4100 
  248.0000     2.2910   -10.5980     4.6650     4.5360     4.6650    81.1040     6.0180     5.0920     5.2120 
  248.1250     2.2810   -10.6540     4.6160     4.6380     4.6160    77.5890     5.9720     5.0000     5.1950 
  248.2500     2.2680   -10.7680     4.5110     4.8390     4.5110    76.3350     6.0110     4.9970     5.1940 
  248.3750     2.2510   -10.9780     4.3670     5.0460     4.3670    76.8340     6.1600     5.0960     5.2500 
  248.5000     2.2350   -11.2980     4.2060     5.2060     4.2060    77.7410     6.4540     5.3110     5.3790 
  248.6250     2.2260   -11.7380     4.1580     5.3680     4.1580    78.0290     6.9460     5.6820     5.6710 
  248.7500     2.2280   -12.2460     4.3100     5.6450     4.3100    77.8230     7.5820     6.1880     6.5500 
  248.8750     2.2410   -12.8220     4.4280     6.1240     4.4280    75.5720     8.3020     6.7960     8.2570 
  249.0000     2.2570   -13.3890     4.4540     6.8300     4.4540    71.5690     9.0530     7.4630     9.9840 
  249.1250     2.2720   -13.9400     4.6350     7.7100     4.6350    67.8140     9.8830     8.1920    10.3920 
  249.2500     2.2830   -14.4530     4.9280     8.6130     4.9280    65.2250    10.9050     9.0400    10.5910 
  249.3750     2.2850   -14.9070     5.3550     9.4710     5.3550    63.7290    12.1800    10.0670    11.0900 
  249.5000     2.2790   -15.3520     5.9380    10.2980     5.9380    64.2470    13.6450    11.2610    12.1900 
  249.6250     2.2670   -15.7230     6.5840    11.1770     6.5840    67.2900    15.0790    12.4990    15.2690 
  249.7500     2.2530   -16.0720     7.1200    12.1480     7.1200    69.5040    16.2280    13.5740    19.8750 
  249.8750     2.2420   -16.3970     7.6920    13.1670     7.6920    69.7250    17.0010    14.3680    23.8430 
  250.0000     2.2340   -16.6810     8.3430    14.1310     8.3430    69.1550    17.5180    14.9140    21.3480 
  250.1250     2.2280   -16.9520     8.9110    14.9470     8.9110    69.6900    18.0710    15.4000    18.1300 
  250.2500     2.2250   -17.2260     9.4600    15.6750     9.4600    70.6090    18.8250    16.0160    19.1940 
  250.3750     2.2300   -17.4680     9.9280    16.4220     9.9280    69.9330    19.7660    16.8210    24.5470 
  250.5000     2.2440   -17.6670    10.2890    17.2850    10.2890    67.9460    20.8650    17.8400    27.7580 
  250.6250     2.2580   -17.8360    10.5980    18.3130    10.5980    66.7790    22.2690    19.1930    25.5970 
  250.7500     2.2590   -17.9440    11.0290    19.4130    11.0290    67.5220    24.2220    21.0110    23.8760 
  250.8750     2.2460   -17.9830    11.7590    20.4830    11.7590    67.9820    27.0630    23.5590    22.4620 
  251.0000     2.2240   -17.9580    12.8650    21.4300    12.8650    66.4140    30.9990    27.0850    25.9100 
  251.1250     2.2040   -17.8510    14.4330    22.1310    14.4330    62.9570    35.7350    31.5490    35.1460 
  251.2500     2.1980   -17.6390    16.3430    22.5120    16.3430    58.6190    39.5100    35.5430    44.9570 
  251.3750     2.2080   -17.3640    18.5260    22.4400    18.5260    54.0610    40.0580    37.0130    50.9590 
  251.5000     2.2330   -17.0220    21.1090    21.7660    21.1090    51.7530    36.0650    34.4150    47.9300 
  251.6250     2.2760   -16.6120    23.8700    20.2810    23.8700    55.1260    28.7030    28.2170    38.6940 
  251.7500     2.3370   -16.1850    26.1060    18.2000    26.1060    61.0840    21.5200    21.6420    29.0540 
  251.8750     2.4060   -15.7200    27.3510    15.7930    27.3510    67.7970    16.0300    16.3180    18.8950 
  252.0000     2.4530   -15.3050    27.5950    13.4190    27.5950    74.6680    12.4570    12.6710    11.0310 
  252.1250     2.4480   -14.9300    26.9620    11.4980    26.9620    80.4020    10.5930    10.6370     8.7300 
  252.2500     2.4090   -14.6140    25.8300    10.1440    25.8300    82.4820     9.6600     9.5420     8.1790 
  252.3750     2.3620   -14.4030    24.3220     9.3170    24.3220    82.2770     9.3110     9.0790     8.0690 
  252.5000     2.3240   -14.2650    22.2670     8.8550    22.2670    82.9060     9.2860     9.0130     7.8550 
  252.6250     2.3060   -14.2490    19.7910     8.5750    19.7910    84.7760     9.3940     9.1580     7.5000 
  252.7500     2.2980   -14.3490    17.5790     8.3140    17.5790    84.7410     9.5010     9.3300     7.3430 
  252.8750     2.2920   -14.5450    16.0370     8.0600    16.0370    83.4170     9.5900     9.4720     7.6220 
  253.0000     2.2840   -14.8120    15.1370     7.8720    15.1370    83.0630     9.6790     9.5810     7.8400 
  253.1250     2.2790   -15.1530    14.6030     7.8560    14.6030    81.9780     9.7920     9.6720     8.0150 
  253.2500     2.2810   -15.5550    14.1480     8.0060    14.1480    80.2290     9.9240     9.7600     8.0000 
  253.3750     2.2910   -15.9940    13.7560     8.2680    13.7560    79.3750    10.0850     9.8690     8.1090 
  253.5000     2.3100   -16.4570    13.4720     8.5670    13.4720    80.0570    10.3170    10.0350     8.2380 
  253.6250     2.3340   -16.9380    13.3630     8.8710    13.3630    81.4180    10.7600    10.3470     9.0580 
  253.7500     2.3580   -17.3960    13.4690     9.2360    13.4690    83.6110    11.5430    10.8860    10.0860 
  253.8750     2.3750   -17.8320    13.7530     9.7700    13.7530    84.4700    12.7970    11.7610    11.1930 
  254.0000     2.3770   -18.2440    14.0950    10.5620    14.0950    80.6480    14.5580    13.0440    12.6070 
  254.1250     2.3620   -18.6090    14.5270    11.6660    14.5270    74.2830    16.6860    14.7210    15.6740 
  254.2500     2.3420   -18.9500    15.0630    12.9220    15.0630    69.8230    18.7250    16.4630    19.1190 
  254.3750     2.3270   -19.2410    15.6690    14.1610    15.6690    68.0160    20.2940    17.9320    23.2580 
  254.5000     2.3190   -19.4930    16.2230    15.2400    16.2230    67.1350    21.2060    18.8840    26.7860 
  254.6250     2.3130   -19.7060    16.6820    16.0700    16.6820    67.7820    21.5810    19.2970    23.6310 
