~V
VERS. 2.00: Ver 2.00
~W
STRT.M 53.0000:
STOP.M 371.0000:
STEP.M 0.1250:
NULL. -999.2500:
UWI. F10327:
~C
DEPT.M :
DEN.GM/CC :
GR.API :
RML.OHMM :
RI. :
RXO.OHMM :
SP.MV :
~A
# ...
  259.0000     2.2330    55.4110    97.5560    91.1880    61.5400   -23.5280 
  259.1250     2.2310    50.6430   103.5550    96.8610    73.0720   -23.7330 
  259.2500     2.2270    45.9110   110.5550   103.7650    88.2140   -23.8750 
  259.3750     2.2210    44.5750   117.3240   110.7800    97.2810   -23.9510 
  259.5000     2.2180    46.5440   122.2700   116.4040   103.0400   -23.9760 
  259.6250     2.2160    48.0970   124.6490   119.7750   107.7240   -23.9680 
  259.7500     2.2180    48.5380   124.3010   120.5670   110.0600   -23.9440 
  259.8750     2.2210    50.5780   121.5030   118.8790   109.3830   -23.9150 
  260.0000     2.2260    53.2490   116.5820   114.8660   106.7920   -23.8710 
  260.1250     2.2320    53.0550   110.3430   109.2780   101.7930   -23.8070 
  260.2500     2.2400    51.4930   103.4350   102.7530    92.6470   -23.7090 
  260.3750     2.2520    52.8190    96.4330    95.8910    75.8300   -23.5940 
  260.5000     2.2660    57.0230    90.0540    89.4090    58.0440   -23.4680 
  260.6250     2.2820    58.1440    84.9380    83.9750    48.6300   -23.3430 
  260.7500     2.2950    55.3740    81.7650    80.2730    50.1990   -23.2110 
  260.8750     2.3000    53.5050    81.2200    78.9790    57.7830   -23.0900 
  261.0000     2.2920    54.6050    84.4000    81.1730    64.5900   -22.9810 
  261.1250     2.2730    54.8420    91.4060    86.9950    67.7090   -22.8800 
  261.2500     2.2510    51.8140   102.1440    96.3790    73.5870   -22.8090 
  261.3750     2.2310    47.9960   116.0510   108.7650    84.9670   -22.7580 
  261.5000     2.2180    46.7020   131.7460   122.7870   102.3650   -22.7020 
  261.6250     2.2120    46.1360   146.7030   136.0690   119.5090   -22.6280 
  261.7500     2.2090    45.3500   158.4990   146.4340   129.5220   -22.5500 
  261.8750     2.2100    45.1310   165.4320   152.4360   129.0020   -22.4590 
  262.0000     2.2120    46.8960   166.6260   153.3550   128.6590   -22.3600 
  262.1250     2.2160    49.2490   163.9640   150.8560   129.4760   -22.2660 
  262.2500     2.2190    50.6000   159.3800   146.6790   127.5410   -22.1660 
  262.3750     2.2210    50.8110   154.1300   142.0580   123.2990   -22.0460 
  262.5000     2.2210    50.6470   148.1650   137.2200   119.6680   -21.9090 
  262.6250     2.2220    49.7670   140.1820   131.0520   116.0290   -21.7380 
  262.7500     2.2240    47.5990   128.5340   121.8710   109.8330   -21.5230 
  262.8750     2.2300    45.8200   112.4720   108.5480   102.3660   -21.2660 
  263.0000     2.2410    46.4150    93.1270    91.4200    97.2060   -20.9840 
  263.1250     2.2570    50.2530    74.0400    73.6290    87.6000   -20.7100 
  263.2500     2.2750    56.5520    58.0220    58.1600    69.3210   -20.4620 
  263.3750     2.2920    62.2000    46.2450    46.5910    48.8730   -20.2480 
  263.5000     2.3010    64.3200    38.9320    39.3890    35.7720   -20.0530 
  263.6250     2.3030    65.1190    34.7260    35.2480    29.6720   -19.8980 
  263.7500     2.3020    66.2870    32.5920    33.1380    27.6110   -19.7810 
  263.8750     2.3030    65.9670    31.8100    32.3720    28.1080   -19.7130 
  264.0000     2.3050    64.1120    31.9000    32.5090    29.0060   -19.6990 
  264.1250     2.3050    63.7570    32.4120    33.0990    29.7160   -19.7070 
  264.2500     2.3030    65.0890    33.1210    33.8930    30.1070   -19.7250 
  264.3750     2.3000    66.1480    33.8980    34.7450    30.7540   -19.7390 
  264.5000     2.2980    66.2090    34.6070    35.5040    31.8770   -19.7560 
  264.6250     2.3000    65.6300    35.1410    36.0510    33.2560   -19.7750 
  264.7500     2.3060    64.7150    35.4590    36.3200    34.8380   -19.8060 
  264.8750     2.3110    63.1210    35.6200    36.3410    35.2450   -19.8390 
  265.0000     2.3110    60.4640    35.8220    36.2800    33.6680   -19.8690 
  265.1250     2.3060    58.1170    36.3070    36.3930    31.8660   -19.9090 
  265.2500     2.3000    58.1450    37.2340    36.8790    31.2970   -19.9680 
  265.3750     2.2930    59.5570    38.6140    37.8050    32.4050   -20.0760 
  265.5000     2.2870    58.2850    40.2740    39.0850    33.4580   -20.2520 
  265.6250     2.2800    55.2470    41.8260    40.3790    34.7030   -20.4640 
  265.7500     2.2730    53.5140    42.9170    41.3380    37.0500   -20.6830 
  265.8750     2.2670    54.5720    43.3630    41.7300    39.7270   -20.8910 
  266.0000     2.2650    58.1090    43.2570    41.5410    41.1920   -21.0730 
  266.1250     2.2670    60.1650    43.1700    41.2360    40.5530   -21.2200 
  266.2500     2.2660    58.5980    43.7680    41.4100    38.5640   -21.3510 
  266.3750     2.2620    55.2930    45.6020    42.6000    36.2590   -21.4670 
  266.5000     2.2510    53.4520    49.0450    45.2680    35.7310   -21.5780 
  266.6250     2.2390    52.8560    53.5120    49.0550    38.1680   -21.6910 
  266.7500     2.2250    52.2450    57.9990    53.1860    43.5330   -21.8150 
  266.8750     2.2130    52.7850    61.2950    56.5920    49.9160   -21.9440 
  267.0000     2.2030    54.2060    62.0340    57.8900    54.2530   -22.0790 
  267.1250     2.1950    54.4900    60.3380    56.9060    55.6570   -22.2220 
  267.2500     2.1900    53.5590    57.2030    54.3600    54.6050   -22.3590 
  267.3750     2.1910    53.1750    54.0450    51.5020    50.5050   -22.4720 
  267.5000     2.1990    54.1470    52.3570    49.7320    45.5650   -22.5800 
  267.6250     2.2100    54.8650    52.5120    49.5430    43.6990   -22.6950 
  267.7500     2.2200    54.8000    54.2570    50.8370    45.3460   -22.8210 
  267.8750     2.2280    54.3260    57.0020    53.1820    49.8280   -22.9620 
  268.0000     2.2320    53.4610    59.9800    55.9320    57.0460   -23.1060 
  268.1250     2.2330    52.6380    62.5310    58.4070    63.6320   -23.2390 
  268.2500     2.2310    51.4340    64.3870    60.2560    66.3650   -23.3460 
  268.3750     2.2260    51.3750    65.6570    61.4840    65.4140   -23.4420 
  268.5000     2.2200    52.8900    66.7840    62.4300    62.9840   -23.5150 
  268.6250     2.2150    54.3740    68.3680    63.6480    61.9770   -23.5650 
  268.7500     2.2130    55.0110    70.9150    65.6220    62.6110   -23.6000 
  268.8750     2.2150    54.9110    74.7960    68.7250    62.9330   -23.6320 
  269.0000     2.2260    54.0540    80.3190    73.3120    63.1170   -23.6660 
  269.1250     2.2430    50.9760    86.9390    79.0110    67.3670   -23.7090 
  269.2500     2.2650    46.7260    93.6560    85.0300    78.1760   -23.7680 
  269.3750     2.2840    44.4370    99.1140    90.1980    93.2280   -23.8280 
  269.5000     2.2890    43.6630   101.4900    92.8540   104.9390   -23.8520 
  269.6250     2.2780    43.9440   100.4760    92.5340   109.5090   -23.8470 
  269.7500     2.2590    45.9280    96.8310    89.7280   106.3910   -23.8380 
  269.8750     2.2410    48.1010    92.0930    85.6920    93.1220   -23.8370 
  270.0000     2.2330    47.2620    88.1280    82.0940    80.5820   -23.8550 
  270.1250     2.2320    44.9940    85.7950    79.8690    75.1670   -23.8800 
  270.2500     2.2310    45.0170    85.0220    79.1200    74.8190   -23.9010 
  270.3750     2.2250    47.0400    85.1980    79.4100    74.9750   -23.8990 
  270.5000     2.2140    48.3030    85.4160    79.9950    72.7140   -23.8990 
  270.6250     2.2070    48.0610    84.9670    80.1640    69.6760   -23.9120 
  270.7500     2.2090    47.0510    83.5920    79.5650    67.9770   -23.9250 
  270.8750     2.2200    47.1200    81.3680    78.1540    65.9160   -23.9220 
  271.0000     2.2370    49.8220    78.4270    75.9650    62.4050   -23.8900 
  271.1250     2.2520    52.7100    74.9240    73.1360    59.5340   -23.8340 
  271.2500     2.2610    52.1510    70.8380    69.6620    56.6460   -23.7700 
  271.3750     2.2650    48.9260    66.1840    65.5510    52.4210   -23.7270 
  271.5000     2.2680    47.8640    61.1890    60.9850    47.0580   -23.6910 
  271.6250     2.2690    48.9200    56.3180    56.4020    42.9030   -23.6360 
  271.7500     2.2670    50.8800    51.9300    52.1560    39.7920   -23.5570 
