~V
VERS. 2.00: Ver 2.00
~W
STRT.M 53.0000:
STOP.M 371.0000:
STEP.M 0.1250:
NULL. -999.2500:
UWI. F10327:
~C
DEPT.M :
DEN.GM/CC :
GR.API :
RML.OHMM :
RI. :
RXO.OHMM :
SP.MV :
~A
# ...
  220.3750     2.4670    55.3460    20.1020    17.3460    11.6680    -5.5790 
  220.5000     2.4620    53.7760    19.3170    16.7680    12.7270    -5.3480 
  220.6250     2.4400    55.4250    18.2070    15.9040    13.6650    -5.1050 
  220.7500     2.4120    58.9170    17.0050    14.9330    13.8760    -4.8700 
  220.8750     2.3930    61.1440    15.9130    14.0220    13.3830    -4.6770 
  221.0000     2.3920    61.0380    15.0680    13.2890    12.5620    -4.5340 
  221.1250     2.4050    60.3920    14.3860    12.6800    11.3740    -4.4060 
  221.2500     2.4180    60.5870    13.6910    12.0620    10.5930    -4.2520 
  221.3750     2.4190    61.3850    12.8020    11.2810    10.1880    -4.0550 
  221.5000     2.3990    62.0750    11.5730    10.2130     9.5880    -3.8590 
  221.6250     2.3640    61.9530    10.0710     8.9370     9.0730    -3.6950 
  221.7500     2.3240    62.1390     8.5010     7.6160     8.4470    -3.5340 
  221.8750     2.2900    63.7830     7.0840     6.4230     7.2970    -3.3620 
  222.0000     2.2700    67.6050     5.9460     5.5230     6.2140    -3.2010 
  222.1250     2.2630    72.1400     5.3610     4.9210     5.4890    -3.0800 
  222.2500     2.2610    74.6310     5.0990     4.5780     4.9010    -2.9990 
  222.3750     2.2570    72.9210     5.0310     4.4370     4.4880    -2.9500 
  222.5000     2.2470    69.0000     5.0920     4.4490     4.3680    -2.9130 
  222.6250     2.2370    66.8250     5.2070     4.5310     4.3960    -2.9040 
  222.7500     2.2330    67.9920     5.3170     4.6240     4.4830    -2.9260 
  222.8750     2.2380    70.5170     5.3800     4.6860     4.5800    -2.9650 
  223.0000     2.2490    72.3230     5.3550     4.6800     4.6330    -2.9840 
  223.1250     2.2630    72.3860     5.2550     4.6110     4.5960    -2.9690 
  223.2500     2.2750    70.7920     5.1120     4.5010     4.5110    -2.9640 
  223.3750     2.2830    69.7230     4.9560     4.3810     4.3900    -2.9900 
  223.5000     2.2910    70.7410     4.8270     4.2850     4.2600    -3.0280 
  223.6250     2.2990    72.9420     4.7320     4.2270     4.2080    -3.0370 
  223.7500     2.3090    73.7220     4.6630     4.2070     4.2460    -3.0300 
  223.8750     2.3180    72.1370     4.6590     4.2200     4.3330    -3.0300 
  224.0000     2.3250    70.9540     4.7060     4.2550     4.3910    -3.0610 
  224.1250     2.3310    71.1820     4.7720     4.2990     4.3740    -3.1030 
  224.2500     2.3360    71.5690     4.8180     4.3430     4.3030    -3.1140 
  224.3750     2.3420    71.0130     4.8490     4.3810     4.2770    -3.0850 
  224.5000     2.3460    70.7310     4.8780     4.4000     4.4000    -3.0650 
  224.6250     2.3450    71.4560     4.8810     4.3970     4.5810    -3.0780 
  224.7500     2.3370    72.9650     4.8550     4.3750     4.7160    -3.0960 
  224.8750     2.3210    76.4920     4.8310     4.3540     4.7450    -3.0910 
  225.0000     2.3040    80.7240     4.8610     4.3670     4.6970    -3.0830 
  225.1250     2.2920    80.5530     4.9650     4.4320     4.6220    -3.1020 
  225.2500     2.2880    74.8560     5.1310     4.5470     4.6040    -3.1660 
  225.3750     2.2920    69.5050     5.3130     4.6840     4.7070    -3.2580 
  225.5000     2.3020    69.7190     5.4340     4.7880     4.8790    -3.3240 
  225.6250     2.3130    71.0680     5.4470     4.8170     4.9830    -3.3910 
  225.7500     2.3210    70.8320     5.3510     4.7570     4.9780    -3.4930 
  225.8750     2.3240    70.0960     5.1900     4.6320     4.8610    -3.6210 
  226.0000     2.3220    70.2110     5.0460     4.4930     4.6440    -3.7370 
  226.1250     2.3150    69.4960     4.9900     4.3990     4.4750    -3.8290 
  226.2500     2.3080    68.8050     5.0530     4.3870     4.4710    -3.8960 
  226.3750     2.3030    69.5040     5.2310     4.4660     4.6160    -3.9630 
  226.5000     2.3010    68.8390     5.4920     4.6300     4.7830    -4.0280 
  226.6250     2.3060    66.3730     5.7730     4.8400     4.9620    -4.0560 
  226.7500     2.3170    64.7590     6.0200     5.0530     5.2010    -4.0490 
  226.8750     2.3340    65.7420     6.1860     5.2280     5.4810    -4.0310 
  227.0000     2.3500    68.9210     6.2280     5.3120     5.8100    -4.0210 
  227.1250     2.3610    71.0390     6.1530     5.2970     6.0520    -4.0060 
  227.2500     2.3610    71.3230     6.0000     5.2000     6.1350    -3.9740 
  227.3750     2.3480    71.1830     5.8210     5.0630     5.9180    -3.9080 
  227.5000     2.3240    71.2970     5.6910     4.9520     5.5900    -3.8480 
  227.6250     2.2980    70.8250     5.6400     4.9080     5.3520    -3.8200 
  227.7500     2.2820    70.5480     5.6610     4.9360     5.3030    -3.7950 
  227.8750     2.2810    72.4500     5.7190     5.0130     5.4040    -3.7440 
  228.0000     2.3000    75.3270     5.7630     5.0890     5.5440    -3.6730 
  228.1250     2.3260    76.1960     5.7610     5.1240     5.4830    -3.6150 
  228.2500     2.3460    76.6290     5.7050     5.1000     5.2620    -3.5680 
  228.3750     2.3530    80.0020     5.6100     5.0230     4.9700    -3.5290 
  228.5000     2.3420    87.3240     5.4980     4.9100     4.8310    -3.4820 
  228.6250     2.3230    94.5020     5.3880     4.7880     4.8790    -3.4130 
  228.7500     2.3070    95.9520     5.2890     4.6710     4.9350    -3.3520 
  228.8750     2.3020    90.5250     5.2080     4.5700     4.7990    -3.3130 
  229.0000     2.3080    82.8600     5.1530     4.4930     4.6000    -3.2820 
  229.1250     2.3160    77.3210     5.1270     4.4470     4.4630    -3.2270 
  229.2500     2.3170    75.1180     5.1270     4.4310     4.4240    -3.1690 
  229.3750     2.3080    75.1880     5.1420     4.4390     4.4610    -3.1490 
  229.5000     2.2960    77.2150     5.1520     4.4540     4.5710    -3.1620 
  229.6250     2.2870    81.3450     5.1340     4.4550     4.7410    -3.1680 
  229.7500     2.2850    85.6490     5.0790     4.4290     4.9290    -3.1560 
  229.8750     2.2870    89.5460     4.9930     4.3710     4.9990    -3.1510 
  230.0000     2.2870    91.3310     4.9000     4.2930     4.9080    -3.1750 
  230.1250     2.2860    87.9180     4.8350     4.2230     4.7530    -3.2190 
  230.2500     2.2880    78.7850     4.8250     4.1880     4.6300    -3.2510 
  230.3750     2.2930    69.2370     4.8840     4.2040     4.6210    -3.2630 
  230.5000     2.3000    68.3370     5.0130     4.2780     4.7020    -3.2760 
  230.6250     2.3060    73.6360     5.1840     4.3880     4.8520    -3.3200 
  230.7500     2.3050    77.9630     5.3580     4.5050     5.1000    -3.3780 
  230.8750     2.3000    78.9200     5.4960     4.6050     5.3390    -3.4170 
  231.0000     2.2900    77.7740     5.5520     4.6590     5.3760    -3.4240 
  231.1250     2.2810    76.3590     5.5300     4.6660     5.3100    -3.4380 
  231.2500     2.2750    74.5900     5.4550     4.6340     5.2640    -3.4810 
  231.3750     2.2740    72.7790     5.3690     4.5830     5.2220    -3.5270 
  231.5000     2.2780    72.8100     5.3220     4.5400     5.1370    -3.5420 
  231.6250     2.2850    74.7600     5.3290     4.5260     5.0820    -3.5530 
  231.7500     2.2930    77.1200     5.3830     4.5450     5.1110    -3.5800 
  231.8750     2.3030    79.2990     5.4600     4.5880     5.1850    -3.6260 
  232.0000     2.3110    81.9440     5.5180     4.6280     5.2660    -3.6740 
  232.1250     2.3200    83.2840     5.5230     4.6390     5.3060    -3.7010 
  232.2500     2.3280    81.7650     5.4620     4.6040     5.3000    -3.7350 
  232.3750     2.3330    78.4390     5.3430     4.5230     5.2440    -3.7840 
  232.5000     2.3320    76.2950     5.1990     4.4160     5.1000    -3.8500 
  232.6250     2.3260    75.7450     5.0770     4.3140     4.9130    -3.9060 
  232.7500     2.3140    76.2590     5.0040     4.2410     4.7520    -3.9620 
  232.8750     2.2970    76.5470     4.9890     4.2110     4.6790    -4.0530 
  233.0000     2.2790    75.8840     5.0290     4.2290     4.6820    -4.1890 
  233.1250     2.2650    76.9240     5.1040     4.2830     4.7360    -4.3510 
