~V
VERS. 2.00: Ver 2.00
~W
STRT.M 54.0000:
STOP.M 355.0000:
STEP.M 0.1250:
NULL. -999.2500:
UWI. F10328:
~C
DEPT.M :
DEN.GM/CC :
SP.MV :
R2M. :
R025. :
RA2. :
GR.API :
RML.OHMM :
RI. :
RXO.OHMM :
~A
# ...
   90.5000     2.1640   -20.6690     8.8470     5.8350     8.8470    81.4400    10.0660     7.0550     7.8460 
   90.6250     2.1670   -20.4880     8.7000     5.8150     8.7000    82.0430     9.9520     6.9800     7.6400 
   90.7500     2.1820   -20.2960     8.5320     5.8600     8.5320    81.5250     9.8230     6.8900     7.6310 
   90.8750     2.2000   -20.0800     8.3720     5.9220     8.3720    80.3000     9.6830     6.7920     7.7670 
   91.0000     2.2110   -19.8610     8.2150     5.9430     8.2150    79.3590     9.5420     6.6990     7.9120 
   91.1250     2.2110   -19.6420     8.0540     5.8900     8.0540    78.7130     9.4430     6.6370     7.7720 
   91.2500     2.2070   -19.3990     8.0760     5.8150     8.0760    77.0000     9.4410     6.6370     7.5660 
   91.3750     2.2030   -19.1060     8.2980     5.7810     8.2980    73.0190     9.5840     6.7300     7.3890 
   91.5000     2.2000   -18.7910     8.5260     5.8410     8.5260    69.4090     9.8760     6.9310     7.5340 
   91.6250     2.1950   -18.3900     8.8410     6.0140     8.8410    70.8920    10.2610     7.2170     7.7800 
   91.7500     2.1890   -17.9530     9.1400     6.2140     9.1400    74.1690    10.5850     7.4900     8.0570 
   91.8750     2.1850   -17.4750     9.3520     6.3440     9.3520    74.6200    10.7100     7.6530     8.4060 
   92.0000     2.1870   -17.0180     9.4780     6.3240     9.4780    73.1420    10.5560     7.6360     8.0950 
   92.1250     2.1950   -16.5780     9.5290     6.1200     9.5290    76.6580    10.1190     7.4090     7.1300 
   92.2500     2.2040   -16.2120     9.4720     5.8420     9.4720    82.9450     9.5820     7.0850     6.5700 
   92.3750     2.2170   -15.9410     9.2930     5.6110     9.2930    86.7540     9.0890     6.7580     6.5910 
   92.5000     2.2330   -15.7770     8.9800     5.5210     8.9800    86.4110     8.7290     6.5000     6.7340 
   92.6250     2.2470   -15.7550     8.5150     5.6140     8.5150    85.6620     8.5600     6.3630     6.5660 
   92.7500     2.2480   -15.8190     8.0010     5.7830     8.0010    85.3020     8.5500     6.3350     6.6710 
   92.8750     2.2350   -15.9510     7.7270     5.9240     7.7270    82.7460     8.6990     6.4220     7.0030 
   93.0000     2.2200   -16.0920     7.7130     5.9680     7.7130    78.1830     9.0060     6.6300     7.3620 
   93.1250     2.2310   -16.2110     7.7750     5.9150     7.7750    74.4830     9.4460     6.9610     7.4710 
   93.2500     2.2740   -16.2740     7.9060     5.8640     7.9060    71.2780     9.8990     7.3360     7.8570 
   93.3750     2.3350   -16.2650     8.0030     5.8780     8.0030    67.9460    10.2220     7.6510     9.5580 
   93.5000     2.3830   -16.2060     8.0300     5.9680     8.0300    66.6280    10.2780     7.7880    12.6620 
   93.6250     2.3880   -16.0730     8.0760     6.0770     8.0760    72.5100     9.9760     7.6370    11.1130 
   93.7500     2.3620   -15.9300     8.1910     6.1130     8.1910    81.3530     9.4780     7.2900     8.1360 
   93.8750     2.3300   -15.8290     8.1530     6.0290     8.1530    87.2940     8.9430     6.8620     6.6300 
   94.0000     2.3100   -15.7700     7.9340     5.8410     7.9340    89.5590     8.5120     6.4760     6.1690 
   94.1250     2.3030   -15.7940     7.6970     5.6620     7.6970    89.5450     8.3090     6.2460     6.2670 
   94.2500     2.2960   -15.8700     7.4530     5.6290     7.4530    87.7760     8.3210     6.1800     6.4670 
   94.3750     2.2780   -15.9960     7.2690     5.8220     7.2690    83.5690     8.5420     6.2700     6.6980 
   94.5000     2.2480   -16.1100     7.1820     6.2420     7.1820    78.1350     8.9830     6.5120     7.0460 
   94.6250     2.2250   -16.2390     7.2850     6.7870     7.2850    73.4450     9.6340     6.9110     7.7620 
   94.7500     2.2310   -16.2890     7.5830     7.2750     7.5830    69.7890    10.3170     7.3730     8.1370 
   94.8750     2.2730   -16.2560     7.9700     7.6230     7.9700    68.4300    10.8390     7.7870     8.7970 
   95.0000     2.3380   -16.1500     8.2960     7.8510     8.2960    68.5580    11.0620     8.0540    10.0720 
   95.1250     2.3970   -16.0260     8.5660     8.1080     8.5660    70.7300    11.0120     8.1530    11.0580 
   95.2500     2.4360   -15.9200     8.9960     8.5730     8.9960    75.4130    11.0410     8.2660    10.3850 
   95.3750     2.4660   -15.8700     9.6490     9.3420     9.6490    80.5620    11.5240     8.6110     9.3660 
   95.5000     2.5060   -15.9160    10.2760    10.3920    10.2760    81.4650    12.7810     9.4110     9.5420 
   95.6250     2.5570   -16.1170    10.8480    11.5700    10.8480    75.4430    15.1360    10.9690    12.5600 
   95.7500     2.6020   -16.5070    11.3710    12.6070    11.3710    68.4850    18.2380    13.2100    17.2940 
   95.8750     2.6300   -17.0760    11.8350    13.2940    11.8350    64.2930    21.3950    15.7940    21.8670 
   96.0000     2.6250   -17.8060    12.3160    13.5030    12.3160    63.6660    23.4420    17.8830    24.5650 
   96.1250     2.5690   -18.6860    12.6730    13.1760    12.6730    64.4850    22.9440    18.1440    24.9800 
   96.2500     2.4740   -19.6540    12.6720    12.5470    12.6720    63.3900    20.5390    16.7190    25.0720 
   96.3750     2.3640   -20.6780    12.3380    11.8100    12.3380    61.0240    17.4560    14.4610    22.5180 
   96.5000     2.2650   -21.7040    11.9900    11.1160    11.9900    60.8920    14.8040    12.2790    16.9100 
   96.6250     2.2080   -22.7040    11.6220    10.5470    11.6220    65.8240    13.2400    10.7780    11.7330 
   96.7500     2.1960   -23.6290    11.2080    10.0580    11.2080    70.7310    12.5570     9.9310     9.9920 
   96.8750     2.2180   -24.4570    10.8130     9.6160    10.8130    72.0810    12.5100     9.6260     9.7330 
   97.0000     2.2490   -25.1810    10.4860     9.2330    10.4860    70.0130    12.7960     9.6870     9.9080 
   97.1250     2.2560   -25.7550    10.3470     8.9820    10.3470    67.2660    13.0800     9.8970    10.1040 
   97.2500     2.2410   -26.2230    10.4350     8.8690    10.4350    65.1910    13.1440    10.0340    10.2370 
   97.3750     2.2200   -26.5860    10.7310     8.8560    10.7310    63.1520    12.9810    10.0310    10.3330 
   97.5000     2.2060   -26.8810    11.1490     8.8590    11.1490    60.9590    12.7040     9.9220    10.4940 
   97.6250     2.1980   -27.0780    11.5900     8.7810    11.5900    58.4700    12.4630     9.7930    10.6930 
   97.7500     2.1920   -27.2340    12.0410     8.5990    12.0410    56.4200    12.3190     9.7060    10.7750 
   97.8750     2.1850   -27.3080    12.5550     8.3460    12.5550    55.4490    12.2560     9.6610    10.7350 
   98.0000     2.1820   -27.3310    12.9400     8.1060    12.9400    55.6500    12.2300     9.6340    10.6770 
   98.1250     2.1840   -27.2800    13.2450     8.0210    13.2450    58.0800    12.2050     9.5960    10.6490 
   98.2500     2.1910   -27.1890    13.5570     8.1140    13.5570    60.7920    12.1720     9.5470    10.5070 
   98.3750     2.1970   -27.0530    13.7270     8.3150    13.7270    61.9240    12.1410     9.4990    10.3100 
   98.5000     2.1970   -26.8770    13.7870     8.4870    13.7870    61.6100    12.1240     9.4650    10.1990 
   98.6250     2.1880   -26.6490    13.7460     8.4800    13.7460    61.1270    12.1300     9.4590    10.1810 
   98.7500     2.1750   -26.3780    13.5810     8.3190    13.5810    62.5120    12.1550     9.4760    10.3090 
   98.8750     2.1630   -26.1030    13.3270     8.1110    13.3270    65.4480    12.1960     9.5060    10.4740 
   99.0000     2.1610   -25.8000    13.2400     7.9780    13.2400    67.7030    12.2530     9.5380    10.5160 
   99.1250     2.1710   -25.4630    13.2370     8.0060    13.2370    68.9260    12.3220     9.5580    10.4650 
   99.2500     2.1870   -25.0880    13.1660     8.1330    13.1660    69.3880    12.3900     9.5630    10.3030 
   99.3750     2.2050   -24.6680    13.1210     8.2820    13.1210    68.3600    12.4410     9.5590    10.0820 
   99.5000     2.2180   -24.2050    13.0890     8.3860    13.0890    65.8780    12.4730     9.5540     9.9520 
