~V
VERS. 2.00: Ver 2.00
~W
STRT.M 54.0000:
STOP.M 355.0000:
STEP.M 0.1250:
NULL. -999.2500:
UWI. F10328:
~C
DEPT.M :
DEN.GM/CC :
SP.MV :
R2M. :
R025. :
RA2. :
GR.API :
RML.OHMM :
RI. :
RXO.OHMM :
~A
# ...
  190.8750     2.1390   -11.8180    13.5530    10.5670    13.5530    62.3850    15.9700    13.5990    22.6690 
  191.0000     2.1670   -11.2020    14.1160    10.1710    14.1160    67.6710    13.5300    11.9260    18.1790 
  191.1250     2.2110   -10.5720    14.0920     9.4810    14.0920    71.2590    10.9010     9.8810    12.4110 
  191.2500     2.2460    -9.9810    13.7060     8.6370    13.7060    76.8320     8.9370     8.2120     7.7530 
  191.3750     2.2680    -9.4310    13.0970     7.7830    13.0970    82.8470     7.8370     7.1510     6.3860 
  191.5000     2.2910    -8.9660    12.3070     7.0570    12.3070    84.3100     7.5050     6.6980     6.4730 
  191.6250     2.3290    -8.5520    11.4520     6.5750    11.4520    80.9500     7.7950     6.8050     6.9120 
  191.7500     2.3670    -8.1750    10.6560     6.3170    10.6560    80.2120     8.3260     7.2020     7.7930 
  191.8750     2.3810    -7.8430     9.9680     6.2480     9.9680    83.3760     8.8050     7.6630     9.2310 
  192.0000     2.3620    -7.5110     9.4190     6.2960     9.4190    84.5890     8.9900     7.9630    11.4460 
  192.1250     2.3190    -7.2240     9.1150     6.3490     9.1150    81.1030     8.7530     7.9250     8.7550 
  192.2500     2.2820    -6.9150     8.9370     6.3110     8.9370    78.6020     8.3100     7.6550     7.3340 
  192.3750     2.2680    -6.5700     8.7130     6.1470     8.7130    80.0720     7.8440     7.2850     6.7890 
  192.5000     2.2760    -6.2090     8.4320     5.8670     8.4320    83.7250     7.4820     6.9350     6.4630 
  192.6250     2.2890    -5.8590     8.1790     5.5520     8.1790    86.2420     7.3190     6.7020     6.4480 
  192.7500     2.2910    -5.5790     7.8270     5.3340     7.8270    86.7420     7.3140     6.5810     6.3600 
  192.8750     2.2870    -5.3640     7.3850     5.3050     7.3850    87.2700     7.4340     6.5550     6.3600 
  193.0000     2.2830    -5.2610     7.0400     5.4880     7.0400    89.2370     7.6410     6.6040     6.5480 
  193.1250     2.2790    -5.2080     6.8480     5.8310     6.8480    88.7350     7.8420     6.6900     6.7200 
  193.2500     2.2720    -5.2140     6.7820     6.1920     6.7820    83.3270     7.9350     6.7510     7.0980 
  193.3750     2.2660    -5.2790     6.8940     6.5070     6.8940    77.5890     7.9540     6.7950     7.8320 
  193.5000     2.2760    -5.3560     7.1230     6.8010     7.1230    76.3570     8.1090     6.9280     9.4270 
  193.6250     2.3070    -5.4520     7.3540     7.2390     7.3540    78.5790     8.8980     7.4370    10.0880 
  193.7500     2.3380    -5.5230     7.7710     8.0230     7.7710    78.9760    10.7440     8.6140     9.7640 
  193.8750     2.3380    -5.5940     8.4670     9.3580     8.4670    77.5550    14.1020    10.8590    12.0290 
  194.0000     2.3000    -5.6410     9.3260    11.3760     9.3260    74.9340    19.2600    14.5850    22.9830 
  194.1250     2.2400    -5.6940    10.3140    14.0820    10.3140    70.7360    26.1530    20.1670    36.4120 
  194.2500     2.1890    -5.7680    11.3860    17.0020    11.3860    65.6860    33.0190    26.4330    48.1360 
  194.3750     2.1600    -5.8510    12.4900    19.6690    12.4900    61.0070    37.6530    31.5140    51.4010 
  194.5000     2.1520    -5.9620    13.5950    21.6950    13.5950    57.4350    38.6750    33.7820    48.9370 
  194.6250     2.1510    -6.0940    14.6050    22.8010    14.6050    56.3920    36.8920    33.2350    43.4380 
  194.7500     2.1490    -6.2360    15.4830    23.2640    15.4830    58.8840    35.0870    32.0910    38.1590 
  194.8750     2.1460    -6.3860    16.2710    23.3000    16.2710    62.5750    34.4040    31.4880    33.1530 
  195.0000     2.1430    -6.5280    16.9000    23.0480    16.9000    64.3200    34.8160    31.6900    30.5400 
  195.1250     2.1420    -6.6990    17.5540    22.4520    17.5540    63.9340    35.1080    31.9710    34.7820 
  195.2500     2.1460    -6.8350    18.3620    21.4320    18.3620    63.7040    33.4850    30.8180    40.3900 
  195.3750     2.1610    -6.9650    19.3500    19.8660    19.3500    63.3130    29.0730    27.2720    37.4380 
  195.5000     2.1930    -7.0750    20.3860    17.7490    20.3860    63.7290    22.7410    21.8680    31.3330 
  195.6250     2.2370    -7.1820    20.9280    15.2460    20.9280    66.9290    16.6920    16.4420    23.1240 
  195.7500     2.2780    -7.3020    20.7930    12.8070    20.7930    70.7600    12.2660    12.2930    13.2510 
  195.8750     2.3010    -7.4090    20.2170    10.7700    20.2170    73.2900     9.5720     9.6020     7.3270 
  196.0000     2.2990    -7.5360    19.6070     9.3090    19.6070    74.8660     8.2350     8.1090     5.7800 
  196.1250     2.2830    -7.6230    18.8690     8.4380    18.8690    75.1820     7.9290     7.5850     6.4300 
  196.2500     2.2740    -7.7150    17.9030     7.8600    17.9030    74.1080     8.1320     7.6100     7.0560 
  196.3750     2.2790    -7.7940    16.7970     7.4300    16.7970    73.0480     8.5650     7.9680     7.2050 
  196.5000     2.2930    -7.8510    15.7140     7.1250    15.7140    73.7610     8.9870     8.4430     7.5050 
  196.6250     2.2970    -7.8970    15.0430     7.0390    15.0430    74.2730     9.1930     8.8010     8.1140 
  196.7500     2.2800    -7.9270    14.7880     7.1730    14.7880    73.2140     9.1790     8.9520     8.7630 
  196.8750     2.2420    -7.9430    14.6990     7.4810    14.6990    71.3670     9.0570     8.9510     8.7880 
  197.0000     2.2000    -7.9350    14.6400     7.8710    14.6400    70.7030     9.0820     8.9940     8.7230 
  197.1250     2.1890    -7.9230    14.8440     8.2630    14.8440    73.1070     9.7480     9.4650     9.0430 
  197.2500     2.2280    -7.9090    15.6610     8.6710    15.6610    75.8940    11.3300    10.6350     9.7310 
  197.3750     2.3120    -7.8760    17.2210     9.1940    17.2210    76.5730    13.9180    12.7010    11.6350 
  197.5000     2.4150    -7.8470    19.2620     9.9290    19.2620    74.1270    17.1040    15.5470    16.9450 
  197.6250     2.4890    -7.7840    21.3800    10.8670    21.3800    69.5260    19.3590    18.0680    26.9450 
  197.7500     2.5160    -7.7150    23.4290    11.7090    23.4290    65.7510    19.1380    18.5660    32.1170 
  197.8750     2.5050    -7.6590    25.0860    12.1130    25.0860    64.4180    16.4050    16.5990    28.0250 
  198.0000     2.4760    -7.5940    25.9540    11.8560    25.9540    65.5080    12.7770    13.4570    20.9870 
  198.1250     2.4450    -7.5720    25.6130    10.9360    25.6130    68.0570    10.1490    10.8690    12.2110 
  198.2500     2.4250    -7.5510    24.2990     9.8520    24.2990    70.5830     8.8800     9.3510     7.5590 
  198.3750     2.4180    -7.5840    22.1350     8.9940    22.1350    70.9510     8.6870     8.7900     7.5310 
  198.5000     2.4190    -7.6590    19.4180     8.5600    19.4180    68.5130     9.0740     8.8570    10.7060 
  198.6250     2.4160    -7.7660    16.5360     8.5050    16.5360    65.2620     9.4040     9.0640    16.6690 
  198.7500     2.4020    -7.9140    13.6400     8.5050    13.6400    64.5350     9.2040     8.9230    16.5250 
  198.8750     2.3830    -8.0450    11.0590     8.3980    11.0590    67.7370     8.4800     8.3490    10.6390 
  199.0000     2.3710    -8.2000     9.1580     8.2010     9.1580    73.9330     7.6490     7.6330     7.0970 
  199.1250     2.3720    -8.3290     8.1590     8.1320     8.1590    78.3410     7.4080     7.3140     6.1870 
  199.2500     2.3890    -8.4490     7.6430     8.4220     7.6430    77.0840     8.1650     7.7450     6.3990 
  199.3750     2.4270    -8.5420     7.3920     9.2270     7.3920    72.9640    10.2090     9.2300     8.3460 
  199.5000     2.4910    -8.5890     7.4250    10.5890     7.4250    68.8300    13.6740    12.0340    14.6010 
  199.6250     2.5620    -8.6410     7.9990    12.4700     7.9990    64.4740    18.4670    16.3850    29.0170 
  199.7500     2.6050    -8.6760     9.0120    14.5660     9.0120    60.0880    23.3500    21.2820    48.9570 
  199.8750     2.6100    -8.7060    10.1770    16.6420    10.1770    59.8030    26.9200    25.2520    55.7430 
