~V
VERS. 2.00: Ver 2.00
~W
STRT.M 54.0000:
STOP.M 355.0000:
STEP.M 0.1250:
NULL. -999.2500:
UWI. F10328:
~C
DEPT.M :
DEN.GM/CC :
SP.MV :
R2M. :
R025. :
RA2. :
GR.API :
RML.OHMM :
RI. :
RXO.OHMM :
~A
# ...
  209.1250     2.4190   -15.3540    44.6830    24.0470    44.6830    76.4110    32.8170    31.6950    35.6300 
  209.2500     2.4270   -15.4810    45.1380    24.1670    45.1380    77.4500    32.0720    30.9590    33.4080 
  209.3750     2.4270   -15.6140    45.2400    24.1170    45.2400    74.8330    31.6630    30.4620    30.2290 
  209.5000     2.4250   -15.7030    45.0420    24.0280    45.0420    69.8920    31.7960    30.4320    28.4780 
  209.6250     2.4260   -15.7960    44.9850    24.0680    44.9850    68.8200    32.4970    30.9520    30.7570 
  209.7500     2.4310   -15.8610    45.2730    24.2610    45.2730    72.0920    33.4180    31.7470    33.5120 
  209.8750     2.4360   -15.9030    45.7310    24.5420    45.7310    75.0840    34.2360    32.5420    36.4430 
  210.0000     2.4370   -15.9510    46.1770    24.8020    46.1770    73.2200    34.6840    33.0750    37.0550 
  210.1250     2.4360   -15.9400    46.6120    24.9140    46.6120    68.1780    34.5990    33.1320    39.3540 
  210.2500     2.4330   -15.9350    47.3620    24.8780    47.3620    65.0980    34.2190    32.8620    38.9150 
  210.3750     2.4250   -15.9070    48.4600    24.7600    48.4600    65.5570    33.8040    32.4810    36.4520 
  210.5000     2.4100   -15.8690    49.6410    24.6630    49.6410    67.3950    33.5680    32.2040    38.3870 
  210.6250     2.3900   -15.8340    50.6590    24.7100    50.6590    68.2910    33.6200    32.1710    42.6600 
  210.7500     2.3770   -15.8010    51.4210    24.8790    51.4210    69.1650    33.8420    32.3110    40.4630 
  210.8750     2.3760   -15.7780    52.1580    25.0730    52.1580    70.0780    34.1310    32.5420    36.0680 
  211.0000     2.3860   -15.7630    53.0570    25.1710    53.0570    70.2060    34.4020    32.7910    34.9790 
  211.1250     2.3970   -15.7780    54.0920    25.0920    54.0920    69.6560    34.5850    32.9930    34.3780 
  211.2500     2.4020   -15.8110    54.8970    24.9300    54.8970    69.0150    34.6710    33.1310    34.8790 
  211.3750     2.4010   -15.8440    55.4820    24.7970    55.4820    68.2980    34.6690    33.2040    35.5450 
  211.5000     2.4020   -15.8890    56.1720    24.7580    56.1720    66.8590    34.5880    33.2120    37.2230 
  211.6250     2.4110   -15.9330    57.1410    24.7750    57.1410    65.8910    34.4120    33.1370    37.9640 
  211.7500     2.4240   -15.9620    58.1540    24.7270    58.1540    66.0150    34.1300    32.9680    35.4880 
  211.8750     2.4320   -15.9850    58.7930    24.5410    58.7930    68.1470    33.7020    32.6600    35.6280 
  212.0000     2.4300   -15.9730    58.9220    24.2090    58.9220    73.1850    33.1080    32.1720    37.4850 
  212.1250     2.4190   -15.9640    58.8180    23.7980    58.8180    76.8440    32.3670    31.4910    39.1940 
  212.2500     2.4080   -15.9260    58.7600    23.4070    58.7600    76.9820    31.5650    30.7160    36.7520 
  212.3750     2.4050   -15.8730    58.6920    23.0650    58.6920    74.8280    30.6900    29.8730    35.0040 
  212.5000     2.4120   -15.8120    58.4200    22.7360    58.4200    72.4460    29.6760    28.9260    32.5430 
  212.6250     2.4290   -15.6780    57.7370    22.3290    57.7370    72.0190    28.5060    27.8590    30.6410 
  212.7500     2.4470   -15.5420    56.8560    21.7960    56.8560    72.7040    27.3460    26.8030    29.4120 
  212.8750     2.4590   -15.3600    55.8740    21.1640    55.8740    73.6250    26.3700    25.9080    29.0740 
  213.0000     2.4600   -15.1810    54.8730    20.5390    54.8730    75.0200    25.7080    25.2860    28.3610 
  213.1250     2.4530   -15.0080    54.0440    20.0870    54.0440    77.1500    25.4240    25.0040    26.6080 
  213.2500     2.4460   -14.8130    53.2920    19.8510    53.2920    78.6320    25.3320    24.9060    26.8840 
  213.3750     2.4430   -14.6420    52.5140    19.7630    52.5140    79.5940    25.2660    24.8450    28.5370 
  213.5000     2.4420   -14.4710    51.6180    19.6770    51.6180    80.0340    25.1050    24.7090    28.6380 
  213.6250     2.4450   -14.3540    50.5800    19.4330    50.5800    77.9380    24.7700    24.4230    26.0490 
  213.7500     2.4500   -14.2950    49.5400    19.0430    49.5400    75.8090    24.2940    24.0070    23.7520 
  213.8750     2.4590   -14.2780    48.7750    18.6130    48.7750    76.4780    23.7430    23.5030    23.3590 
  214.0000     2.4720   -14.2910    48.2330    18.2760    48.2330    77.8750    23.2100    22.9840    25.7760 
  214.1250     2.4840   -14.3550    47.4330    18.1220    47.4330    74.8040    22.7880    22.5280    27.0640 
  214.2500     2.4890   -14.4550    46.4190    18.0620    46.4190    71.4650    22.4790    22.1480    25.7740 
  214.3750     2.4860   -14.5830    45.3620    17.9850    45.3620    72.3270    22.2480    21.8360    23.7680 
  214.5000     2.4770   -14.7530    44.3540    17.8260    44.3540    75.5300    22.0530    21.5780    21.3510 
  214.6250     2.4630   -14.9380    43.3800    17.6110    43.3800    75.0810    21.8760    21.3780    23.2660 
  214.7500     2.4500   -15.1180    42.3610    17.4610    42.3610    71.5690    21.7520    21.2490    24.5390 
  214.8750     2.4390   -15.2880    41.2720    17.4650    41.2720    68.6370    21.7450    21.2260    24.2390 
  215.0000     2.4330   -15.4530    40.2590    17.6260    40.2590    68.2130    21.9180    21.3500    22.0110 
  215.1250     2.4320   -15.5600    39.5370    17.8650    39.5370    68.2850    22.3400    21.6920    22.5180 
  215.2500     2.4340   -15.6560    39.0320    18.0680    39.0320    69.1690    22.9300    22.2050    24.1290 
  215.3750     2.4390   -15.7010    38.6990    18.2000    38.6990    71.0420    23.5730    22.7990    25.8200 
  215.5000     2.4440   -15.7130    38.4510    18.2890    38.4510    72.2710    24.1460    23.3540    27.0620 
  215.6250     2.4520   -15.7110    38.3480    18.4050    38.3480    72.1720    24.5170    23.7260    28.8000 
  215.7500     2.4630   -15.6600    38.3580    18.5780    38.3580    73.2630    24.6670    23.8700    27.0820 
  215.8750     2.4740   -15.6320    38.4260    18.7690    38.4260    75.7060    24.5990    23.7790    23.9070 
  216.0000     2.4790   -15.6010    38.5620    18.8940    38.5620    76.8070    24.3510    23.4940    21.5630 
  216.1250     2.4730   -15.5700    38.5780    18.8440    38.5780    75.4340    23.9540    23.0640    22.5800 
  216.2500     2.4570   -15.5630    38.3690    18.6440    38.3690    73.6080    23.4710    22.5720    23.6130 
  216.3750     2.4350   -15.5700    37.9770    18.3870    37.9770    72.0240    22.9620    22.0670    23.1500 
  216.5000     2.4150   -15.5800    37.5730    18.1980    37.5730    71.4070    22.5060    21.6090    20.9630 
  216.6250     2.4090   -15.6160    37.1510    18.1810    37.1510    71.9000    22.2280    21.2870    21.4430 
  216.7500     2.4160   -15.6610    36.6880    18.2870    36.6880    74.8810    22.1940    21.1600    23.0070 
  216.8750     2.4320   -15.7020    36.2680    18.4250    36.2680    78.4150    22.4650    21.2900    22.8790 
  217.0000     2.4480   -15.7370    35.9240    18.5200    35.9240    81.3670    23.0410    21.7050    21.7090 
  217.1250     2.4590   -15.7540    35.8380    18.5610    35.8380    81.4610    23.8270    22.3660    23.2430 
  217.2500     2.4610   -15.7630    36.0410    18.6190    36.0410    79.3980    24.5700    23.0750    25.1440 
  217.3750     2.4570   -15.7490    36.4770    18.7560    36.4770    77.5250    25.0710    23.6620    26.0950 
  217.5000     2.4500   -15.7280    36.9980    18.9740    36.9980    78.2020    25.2050    23.9810    27.3850 
  217.6250     2.4450   -15.6670    37.5090    19.1830    37.5090    79.8620    24.9320    23.9190    27.5430 
  217.7500     2.4420   -15.5960    38.0380    19.2600    38.0380    79.2750    24.4880    23.6220    27.0770 
  217.8750     2.4440   -15.4980    38.5470    19.1430    38.5470    78.3220    24.0490    23.2450    24.1440 
  218.0000     2.4500   -15.3780    38.9190    18.8640    38.9190    78.1110    23.6970    22.8970    23.7290 
  218.1250     2.4560   -15.2690    39.0980    18.5280    39.0980    76.8210    23.4120    22.6110    25.7150 
