~V
VERS. 2.00: Ver 2.00
~W
STRT.M 54.0000:
STOP.M 355.0000:
STEP.M 0.1250:
NULL. -999.2500:
UWI. F10328:
~C
DEPT.M :
DEN.GM/CC :
SP.MV :
R2M. :
R025. :
RA2. :
GR.API :
RML.OHMM :
RI. :
RXO.OHMM :
~A
# ...
  263.8750     2.2280   -28.9290    72.9780    45.7190    72.9780    53.0890    84.8160    81.8070    68.1900 
  264.0000     2.2310   -28.9960    77.3330    46.6880    77.3330    55.5670    88.0920    84.5350    67.7970 
  264.1250     2.2300   -29.0590    81.5070    47.6010    81.5070    56.6710    90.7660    86.6110    63.9010 
  264.2500     2.2230   -29.1110    85.6210    48.5690    85.6210    55.9740    93.5190    88.6640    59.4840 
  264.3750     2.2140   -29.1300    89.7930    49.5920    89.7930    54.3290    96.9310    91.2660    56.0990 
  264.5000     2.2090   -29.1700    94.0020    50.6010    94.0020    52.4500   101.2020    94.6960    56.5880 
  264.6250     2.2110   -29.2370    98.3280    51.4470    98.3280    52.7440   105.8850    98.6700    60.5930 
  264.7500     2.2140   -29.2850   102.8180    52.0660   102.8180    55.1770   110.0560   102.3530    62.5550 
  264.8750     2.2150   -29.3380   107.6730    52.4630   107.6730    56.0260   113.3840   105.3940    62.4750 
  265.0000     2.2140   -29.3820   113.1010    52.6930   113.1010    53.7850   116.2690   108.0920    61.2010 
  265.1250     2.2160   -29.4150   119.3420    52.7910   119.3420    53.0130   119.6730   111.3350    60.2430 
  265.2500     2.2200   -29.4540   126.4040    52.7380   126.4040    53.9380   123.8130   115.4320    59.5400 
  265.3750     2.2230   -29.5070   134.4670    52.4370   134.4670    52.8800   127.5910   119.5580    62.5880 
  265.5000     2.2200   -29.5200   143.4020    51.7900   143.4020    50.3040   128.6840   121.7250    66.0660 
  265.6250     2.2120   -29.5030   152.5260    50.6900   152.5260    50.8460   123.8730   118.9020    65.6220 
  265.7500     2.2030   -29.4760   161.3280    49.2700   161.3280    52.5020   114.1190   111.4010    51.3740 
  265.8750     2.1980   -29.4180   169.4150    47.6200   169.4150    52.5230   101.6470   100.8620    42.7950 
  266.0000     2.1970   -29.4020   176.5510    45.8080   176.5510    52.4200    88.8610    89.4470    39.8450 
  266.1250     2.2020   -29.3510   182.6630    43.8350   182.6630    53.9390    79.7670    78.9280    48.0170 
  266.2500     2.2140   -29.2790   187.5530    41.7340   187.5530    54.5910    76.3390    69.7000    61.4340 
  266.3750     2.2310   -29.2060   190.3440    39.5500   190.3440    54.4030    66.8640    61.7860    63.2450 
  266.5000     2.2470   -29.1070   190.4510    37.3910   190.4510    54.3500    59.3240    55.3530    48.4150 
  266.6250     2.2510   -29.0220   187.5850    35.4980   187.5850    54.4620    54.5440    51.1110    39.0840 
  266.7500     2.2420   -28.9190   182.7910    33.9950   182.7910    54.3570    52.3150    49.0020    36.5260 
  266.8750     2.2260   -28.8160   177.4070    32.9220   177.4070    53.6360    52.3700    48.9250    32.4760 
  267.0000     2.2120   -28.7260   172.2710    32.1900   172.2710    53.8770    53.9140    50.3250    26.9600 
  267.1250     2.2100   -28.6410   166.8330    31.6290   166.8330    56.3400    55.3420    51.9050    26.9850 
  267.2500     2.2230   -28.5840   160.9760    31.0310   160.9760    59.2930    54.9370    51.9810    33.2640 
  267.3750     2.2480   -28.5460   154.9890    30.3340   154.9890    60.1880    52.0270    49.7000    41.5400 
  267.5000     2.2770   -28.5340   149.1450    29.5850   149.1450    59.5310    47.2990    45.4700    47.2260 
  267.6250     2.3000   -28.5640   143.3560    28.9280   143.3560    59.7810    42.6810    40.9140    46.2120 
  267.7500     2.3100   -28.6250   137.3260    28.5190   137.3260    61.2560    39.9230    37.7440    37.9280 
  267.8750     2.3070   -28.7170   130.5200    28.4740   130.5200    62.8350    39.8630    36.8030    34.0850 
  268.0000     2.2900   -28.8310   122.8270    28.8630   122.8270    63.8060    42.8250    38.4880    34.1240 
  268.1250     2.2640   -28.9670   115.1070    29.7830   115.1070    64.0610    49.2600    43.3890    39.4540 
  268.2500     2.2370   -29.1110   107.9560    31.1320   107.9560    62.9620    58.0890    50.7290    48.8100 
  268.3750     2.2160   -29.2460   101.7190    32.8330   101.7190    60.7040    68.0640    59.4980    60.1670 
  268.5000     2.2040   -29.4030    96.6820    34.7490    96.6820    58.3940    77.3110    67.9930    66.1940 
  268.6250     2.2010   -29.5500    93.4170    36.6890    93.4170    55.8470    83.3570    73.8420    65.3060 
  268.7500     2.2010   -29.6760    91.7030    38.4400    91.7030    54.1380    86.0050    76.5890    61.4720 
  268.8750     2.2000   -29.8070    91.2140    39.8640    91.2140    55.0340    86.1960    76.9020    56.8760 
  269.0000     2.1990   -29.8770    91.5680    40.9110    91.5680    59.4920    85.5120    76.1130    52.7160 
  269.1250     2.1980   -29.9420    92.4080    41.5740    92.4080    64.0490    85.4200    75.5510    53.3920 
  269.2500     2.1960   -29.9910    93.3640    42.0330    93.3640    64.3250    86.1980    75.6830    56.4440 
  269.3750     2.1940   -30.0050    94.4950    42.4240    94.4950    61.4720    87.2780    76.1780    59.6130 
  269.5000     2.1950   -30.0150    96.0020    42.8360    96.0020    58.3200    87.6950    76.3100    60.4230 
  269.6250     2.2010   -29.9960    97.9860    43.2500    97.9860    55.3030    86.4570    75.2610    60.3080 
  269.7500     2.2110   -29.9860   100.1880    43.5560   100.1880    52.1370    84.0170    73.2650    59.4390 
  269.8750     2.2180   -29.9810   102.3480    43.6600   102.3480    50.4040    81.3130    70.9870    56.9170 
  270.0000     2.2190   -29.9700   104.5100    43.5460   104.5100    52.2150    79.4060    69.2640    53.2100 
  270.1250     2.2100   -29.9550   107.1490    43.3270   107.1490    56.5450    79.3060    69.0100    49.7380 
  270.2500     2.1990   -29.9780   110.3350    43.2080   110.3350    59.0250    80.9250    70.2730    52.0250 
  270.3750     2.1900   -30.0180   113.8280    43.2910   113.8280    58.4860    84.1550    73.0360    54.1090 
  270.5000     2.1870   -30.0710   117.3760    43.5620   117.3760    56.0350    88.8100    77.2040    52.8190 
  270.6250     2.1940   -30.1380   121.1790    43.8950   121.1790    52.6890    94.5920    82.5960    52.9930 
  270.7500     2.2100   -30.1800   125.6660    44.0960   125.6660    49.2260   100.4640    88.2790    55.4920 
  270.8750     2.2290   -30.1990   131.1120    44.0490   131.1120    47.4960   105.2430    93.2350    60.1780 
  271.0000     2.2410   -30.2220   137.1150    43.7130   137.1150    48.5850   107.2190    96.0100    70.6650 
  271.1250     2.2390   -30.2560   142.7930    43.0560   142.7930    50.2970   103.4210    93.9460    87.4560 
  271.2500     2.2320   -30.2330   147.8210    42.1610   147.8210    49.9310    94.0380    86.7720    84.7100 
  271.3750     2.2330   -30.2230   151.9470    41.0560   151.9470    48.7820    80.9670    75.7350    68.2810 
  271.5000     2.2550   -30.1770   154.6890    39.7710   154.6890    49.5640    67.4810    63.5940    57.2830 
  271.6250     2.2910   -30.1150   154.8610    38.3560   154.8610    53.2090    57.2080    53.7210    50.1470 
  271.7500     2.3210   -30.0560   152.4700    36.9900   152.4700    56.5910    51.1340    47.4040    41.4620 
  271.8750     2.3300   -29.9930   147.8860    35.8710   147.8860    57.7190    49.2970    44.8660    36.3830 
  272.0000     2.3180   -29.9850   142.1960    35.1840   142.1960    56.7750    51.2450    45.8290    36.5940 
  272.1250     2.3000   -29.9590   136.4520    35.1400   136.4520    55.6100    56.6380    50.1840    43.7340 
  272.2500     2.2870   -29.9540   130.8690    35.6220   130.8690    54.3450    63.6970    56.4310    56.5800 
  272.3750     2.2810   -29.9580   125.6540    36.4770   125.6540    53.5360    70.8550    63.1640    64.8790 
  272.5000     2.2750   -29.9520   121.3800    37.4890   121.3800    54.3680    76.5940    68.8640    61.8280 
  272.6250     2.2630   -29.9730   119.0920    38.4130   119.0920    56.1080    79.7450    72.2040    59.3560 
  272.7500     2.2440   -30.0120   118.6660    39.1050   118.6660    56.6380    80.9410    73.5880    59.7460 
  272.8750     2.2250   -30.0610   119.6600    39.5360   119.6600    56.3100    80.7020    73.4890    61.2160 
