~V
VERS. 2.00: Ver 2.00
~W
STRT.M 53.0000:
STOP.M 371.0000:
STEP.M 0.1250:
NULL. -999.2500:
UWI. F10327:
~C
DEPT.M :
DEN.GM/CC :
GR.API :
RML.OHMM :
RI. :
RXO.OHMM :
SP.MV :
~A
# ...
  336.2500     2.1950    48.4420    23.1950    19.4820    12.4420    -9.4100 
  336.3750     2.2690    46.5110    29.6870    24.0180    14.9230    -9.2130 
  336.5000     2.3740    43.2070    40.2890    32.2930    22.0180    -8.9740 
  336.6250     2.4790    39.6130    53.9560    43.6930    35.7220    -8.7000 
  336.7500     2.5550    36.8970    68.4740    56.5390    55.6470    -8.4080 
  336.8750     2.5870    36.0800    80.5990    68.0830    69.7660    -8.1190 
  337.0000     2.5790    37.8010    85.7110    74.1930    71.8230    -7.8480 
  337.1250     2.5580    41.4480    83.2360    73.8630    72.0890    -7.5840 
  337.2500     2.5370    44.1420    75.9510    68.9690    71.3920    -7.3420 
  337.3750     2.5240    43.4610    67.6200    62.5280    67.0440    -7.1420 
  337.5000     2.5160    41.2600    60.6680    56.7170    59.0260    -7.0040 
  337.6250     2.5110    41.3870    55.1020    51.8040    54.5980    -6.9050 
  337.7500     2.5040    43.4930    50.0660    47.1870    50.4290    -6.8380 
  337.8750     2.4930    45.3840    44.5940    42.0700    46.7270    -6.7950 
  338.0000     2.4770    48.3690    37.9240    35.7770    43.9120    -6.7660 
  338.1250     2.4540    52.8950    30.4570    28.7020    41.5550    -6.7510 
  338.2500     2.4270    57.6930    23.1800    21.7970    36.1620    -6.7420 
  338.3750     2.3990    61.6260    17.0610    15.9850    24.8400    -6.7270 
  338.5000     2.3770    65.6810    12.8180    11.9020    13.2360    -6.6950 
  338.6250     2.3620    70.0970    10.2080     9.2900     8.2840    -6.6630 
  338.7500     2.3520    73.5590     8.8950     7.8270     6.8990    -6.6350 
  338.8750     2.3460    75.5640     8.6340     7.2880     6.5540    -6.6290 
  339.0000     2.3460    75.3210     9.3780     7.6320     6.7340    -6.6660 
  339.1250     2.3520    72.7480    10.9180     8.7000     7.5920    -6.7390 
  339.2500     2.3640    69.7250    13.0700    10.3830     9.4560    -6.8490 
  339.3750     2.3760    68.6080    15.5860    12.5270    12.4610    -6.9750 
  339.5000     2.3760    71.9910    18.0780    14.8630    16.8190    -7.1060 
  339.6250     2.3630    77.6680    20.1380    16.9900    20.3090    -7.2170 
  339.7500     2.3400    81.7310    21.4550    18.5360    20.2510    -7.2900 
  339.8750     2.3160    81.4800    21.8320    19.2100    19.2100    -7.2960 
  340.0000     2.2990    79.1130    21.0100    18.6820    19.1040    -7.1880 
  340.1250     2.2910    78.3550    19.1020    17.0480    19.6840    -6.9640 
  340.2500     2.2890    77.4320    16.3440    14.5550    19.3160    -6.6130 
  340.3750     2.2880    73.2290    13.1100    11.6450    17.7240    -6.1580 
  340.5000     2.2840    64.8210    10.0640     8.9310    13.6760    -5.6250 
  340.6250     2.2740    54.6640     7.6180     6.7960     9.0070    -5.0650 
  340.7500     2.2620    45.0230     5.8590     5.3310     5.6720    -4.5060 
  340.8750     2.2530    37.2850     4.9430     4.4540     4.1930    -3.9850 
  341.0000     2.2490    32.3140     4.6390     4.0570     3.8020    -3.5700 
  341.1250     2.2550    28.7040     4.6170     3.9450     3.7430    -3.2660 
  341.2500     2.2660    26.3960     4.7140     3.9870     3.6880    -3.0650 
  341.3750     2.2830    26.4550     4.8290     4.0850     3.6710    -2.9570 
  341.5000     2.2970    30.1220     4.8740     4.1480     3.7020    -2.9250 
  341.6250     2.3050    34.5420     4.8190     4.1300     3.7670    -2.9350 
  341.7500     2.3040    35.6020     4.6780     4.0290     3.7520    -2.9710 
  341.8750     2.2980    32.4560     4.5010     3.8760     3.5900    -3.0270 
  342.0000     2.2940    28.8120     4.3720     3.7380     3.4340    -3.0680 
  342.1250     2.2970    27.5610     4.3550     3.6730     3.4230    -3.0940 
  342.2500     2.3120    28.7400     4.4620     3.7110     3.5740    -3.1260 
  342.3750     2.3350    31.1560     4.6680     3.8530     3.8410    -3.1690 
  342.5000     2.3590    33.6250     4.9080     4.0760     4.2500    -3.2190 
  342.6250     2.3790    36.1190     5.1120     4.3240     4.7220    -3.2580 
  342.7500     2.3910    39.1690     5.2490     4.5420     5.0660    -3.2810 
  342.8750     2.3940    41.8570     5.3150     4.6900     5.0860    -3.2840 
  343.0000     2.3880    41.6030     5.3360     4.7400     5.0260    -3.2800 
  343.1250     2.3770    38.9140     5.3020     4.7160     4.8920    -3.2770 
  343.2500     2.3650    36.2220     5.2140     4.6500     4.7970    -3.2670 
  343.3750     2.3540    35.1640     5.1050     4.5610     4.7750    -3.2380 
  343.5000     2.3510    34.2450     4.9760     4.4470     4.8890    -3.1870 
  343.6250     2.3540    31.9340     4.8030     4.2950     5.1880    -3.1280 
  343.7500     2.3570    29.0590     4.5730     4.0940     5.4560    -3.0780 
  343.8750     2.3540    26.8350     4.2950     3.8490     5.2640    -3.0620 
  344.0000     2.3390    25.1410     4.0090     3.5840     4.2330    -3.0710 
  344.1250     2.3160    24.3440     3.7640     3.3430     3.5130    -3.0790 
  344.2500     2.2910    25.0990     3.5910     3.1550     3.3080    -3.0800 
  344.3750     2.2710    27.2730     3.5010     3.0380     3.3740    -3.0900 
  344.5000     2.2590    29.9010     3.4960     3.0040     3.4750    -3.1460 
  344.6250     2.2590    31.4610     3.5620     3.0400     3.5560    -3.2520 
  344.7500     2.2740    31.1870     3.6930     3.1390     3.6090    -3.3730 
  344.8750     2.2990    30.2490     3.8860     3.2930     3.6910    -3.4870 
  345.0000     2.3300    30.8700     4.1300     3.4930     3.8370    -3.6070 
  345.1250     2.3580    32.7980     4.3850     3.7070     4.0470    -3.7500 
  345.2500     2.3790    34.7430     4.5970     3.8970     4.3340    -3.9130 
  345.3750     2.3930    35.8400     4.7180     4.0250     4.6840    -4.0820 
  345.5000     2.4010    35.2140     4.7170     4.0580     4.9790    -4.2370 
  345.6250     2.4030    32.9400     4.6420     4.0210     5.0520    -4.3940 
  345.7500     2.4040    29.6800     4.5710     3.9670     4.8110    -4.5790 
  345.8750     2.4090    27.6890     4.5870     3.9610     4.4980    -4.7670 
  346.0000     2.4240    27.8410     4.7550     4.0680     4.4370    -4.9190 
  346.1250     2.4470    28.8250     5.0430     4.2820     4.6750    -5.0570 
  346.2500     2.4680    29.7100     5.3710     4.5510     5.1360    -5.2190 
  346.3750     2.4780    30.9890     5.6420     4.7970     5.7420    -5.3940 
  346.5000     2.4680    32.2110     5.7350     4.9150     6.1400    -5.5560 
  346.6250     2.4450    32.4310     5.6270     4.8670     6.2200    -5.7070 
  346.7500     2.4200    32.4170     5.3590     4.6690     5.9160    -5.8220 
  346.8750     2.3990    33.0170     5.0160     4.3790     5.3590    -5.9270 
  347.0000     2.3850    33.1510     4.6930     4.0750     4.9410    -6.0420 
  347.1250     2.3760    32.5200     4.4460     3.8160     4.4980    -6.1600 
  347.2500     2.3690    32.3170     4.2900     3.6300     4.2020    -6.2670 
  347.3750     2.3660    33.8050     4.2340     3.5310     4.1420    -6.3870 
  347.5000     2.3620    36.1430     4.3420     3.5680     4.2360    -6.5590 
  347.6250     2.3570    37.7440     4.6970     3.7950     4.4040    -6.7720 
  347.7500     2.3520    38.6330     5.3870     4.2760     4.7090    -7.0570 
  347.8750     2.3480    41.2680     6.4200     5.0360     5.4140    -7.3990 
  348.0000     2.3490    47.9180     7.6220     5.9860     6.8870    -7.7910 
  348.1250     2.3530    54.7300     8.6100     6.8570     9.2760    -8.1920 
  348.2500     2.3570    57.2270     9.0140     7.3540    12.7870    -8.6060 
  348.3750     2.3580    55.6790     8.6610     7.2900    15.3270    -9.0230 
  348.5000     2.3520    53.6870     7.7250     6.7030    12.5580    -9.4470 
  348.6250     2.3420    51.4070     6.8020     6.0120     8.2720    -9.8740 
  348.7500     2.3300    48.0780     6.3330     5.5760     6.1800   -10.2970 
  348.8750     2.3170    46.8060     6.4590     5.5600     6.2310   -10.6990 
  349.0000     2.3040    52.5440     7.1310     5.9990     7.7010   -11.0650 
