~V
VERS. 2.00: Ver 2.00
~W
STRT.M 54.0000:
STOP.M 355.0000:
STEP.M 0.1250:
NULL. -999.2500:
UWI. F10328:
~C
DEPT.M :
DEN.GM/CC :
SP.MV :
R2M. :
R025. :
RA2. :
GR.API :
RML.OHMM :
RI. :
RXO.OHMM :
~A
   54.0000  -999.2500    47.6060     0.0610     0.2120     0.0610  -999.2500  -999.2500  -999.2500  -999.2500 
   54.1250  -999.2500    47.6030     0.0610     0.2120     0.0610  -999.2500  -999.2500  -999.2500  -999.2500 
   54.2500  -999.2500    47.6010     0.0610     0.2120     0.0610  -999.2500  -999.2500  -999.2500  -999.2500 
   54.3750  -999.2500    46.7470     0.0580     0.2190     0.0580  -999.2500  -999.2500  -999.2500  -999.2500 
   54.5000  -999.2500    45.4530     0.0590     0.2270     0.0590  -999.2500  -999.2500  -999.2500  -999.2500 
   54.6250  -999.2500    44.5840     0.0670     0.2240     0.0670  -999.2500  -999.2500  -999.2500  -999.2500 
   54.7500  -999.2500    44.0660     0.0550     0.2130     0.0550  -999.2500  -999.2500  -999.2500  -999.2500 
   54.8750  -999.2500    43.7670     0.0250     0.2000     0.0250  -999.2500  -999.2500  -999.2500  -999.2500 
   55.0000  -999.2500    43.5820     0.0250     0.1890     0.0250  -999.2500  -999.2500  -999.2500  -999.2500 
   55.1250     1.9960    43.5110     0.0030     0.1870     0.0030  -999.2500  -999.2500  -999.2500  -999.2500 
   55.2500     1.9960    43.4910    -0.0030     0.1950    -0.0030  -999.2500  -999.2500  -999.2500  -999.2500 
   55.3750     1.9980    43.5090     0.0150     0.2090     0.0150    44.3450     0.8650     1.4260     0.5770 
   55.5000     1.9990    43.5290     0.0310     0.2170     0.0310    44.3450     0.8650     1.4260     0.5770 
   55.6250     2.0010    43.6210     0.0390     0.2140     0.0390    44.5620     0.7490     1.4240     0.5620 
   55.7500     2.0070    43.7130     0.0430     0.2040     0.0430    44.5780     0.6970     1.4200     0.5700 
   55.8750     2.0150    43.8150     0.0480     0.1940     0.0480    43.4970     0.6980     1.4170     0.5770 
   56.0000     2.0200    43.9710     0.0680     0.1900     0.0680    41.1730     0.7180     1.4170     0.5430 
   56.1250     2.0240    44.1470     0.0940     0.1950     0.0940    39.4010     0.7320     1.4170     0.5040 
   56.2500     2.0320    44.3260     0.1020     0.2010     0.1020    40.1880     0.7460     1.4120     0.4740 
   56.3750     2.0490    44.4820     0.0980     0.2040     0.0980    40.5340     0.7650     1.3910     0.4740 
   56.5000     2.0710    44.5410     0.0850     0.2060     0.0850    37.4410     0.7710     1.3350     0.4990 
   56.6250     2.0840    44.2920     0.0590     0.2140     0.0590    33.8020     0.6990     1.1950     0.5240 
   56.7500     2.0830    43.7030     0.0480     0.2260     0.0480    34.0290     0.5430     0.9610     0.5390 
   56.8750     2.0780    42.7190     0.0500     0.2370     0.0500    37.0240     0.3510     0.6750     0.5130 
   57.0000     2.1080    41.2410     0.0450     0.2390     0.0450    38.9950     0.1900     0.4090     0.4320 
   57.1250     2.2480    38.9860     0.0390     0.2310     0.0390    38.4530     0.0960     0.2270     0.3910 
   57.2500     2.3950    35.9230     0.0480     0.2240     0.0480    38.9960     0.0510     0.1190     0.3410 
   57.3750     2.3840    32.0130     0.0560     0.2430     0.0560    41.5600     0.0380     0.0680     0.2780 
   57.5000     2.2280    27.3640     0.0610     0.3450     0.0610    43.6710     0.0470     0.0620     0.3700 
   57.6250     2.0280    22.0670     0.0950     0.6710     0.0950    44.3330     0.0970     0.1210     1.0050 
   57.7500     1.8490    16.4790     0.1320     1.2990     0.1320    47.3360     0.2250     0.2860     2.4620 
   57.8750     1.7230    10.8230     0.1530     2.2490     0.1530    53.4340     0.5150     0.6460     3.5440 
   58.0000     1.6890     5.2840     0.1710     3.4360     0.1710    59.6190     1.0860     1.3360     4.8120 
   58.1250     1.7810     0.1420     0.1920     4.6890     0.1920    62.1430     2.1280     2.5610     6.9000 
   58.2500     1.9230    -4.4290     0.2060     5.8210     0.2060    62.4570     3.4910     4.1680    10.0940 
   58.3750     2.0300    -8.3270     0.2130     6.7430     0.2130    62.8610     4.8750     5.8540    12.3010 
   58.5000     2.0690   -11.5780     0.2210     7.4350     0.2210    64.6980     6.0060     7.3080    12.6670 
   58.6250     2.0760   -14.1010     0.2180     7.8730     0.2180    67.0930     6.7920     8.3540    12.0920 
   58.7500     2.0960   -16.0840     0.2080     8.1110     0.2080    67.8070     7.3660     9.0930    12.0660 
   58.8750     2.1370   -17.6600     0.2040     8.1700     0.2040    67.7390     7.7560     9.5510    12.6030 
   59.0000     2.1790   -18.9310     0.1960     8.0860     0.1960    69.1620     7.9470     9.7180    13.1360 
   59.1250     2.2000   -19.8290     0.1890     7.8880     0.1890    69.9080     7.8850     9.5400    12.5260 
   59.2500     2.1960   -20.4370     0.1930     7.6290     0.1930    68.1630     7.6300     9.1090    11.4480 
   59.3750     2.1790   -20.7520     0.2240     7.3450     0.2240    65.6320     7.2620     8.5250    10.3120 
   59.5000     2.1640   -20.7290     0.3170     7.0580     0.3170    64.9110     6.8700     7.9100     9.4710 
   59.6250     2.1690   -20.3620     0.5850     6.7660     0.5850    68.9410     6.5120     7.3590     9.0460 
   59.7500     2.1990   -19.8890     1.0720     6.4660     1.0720    77.9270     6.1980     6.8950     7.9870 
   59.8750     2.2450   -19.4200     1.6930     6.1860     1.6930    88.5950     5.9550     6.5350     6.6110 
   60.0000     2.2890   -18.9810     2.3970     6.0000     2.3970    94.5880     5.8320     6.3170     6.0160 
   60.1250     2.3030   -18.6920     3.2660     6.0320     3.2660    93.4820     5.9060     6.3130     5.6770 
   60.2500     2.2810   -18.6290     4.2950     6.2700     4.2950    91.1850     6.1790     6.5230     5.5550 
   60.3750     2.2380   -18.7990     5.4250     6.6340     5.4250    87.4670     6.6550     6.9470     6.4740 
   60.5000     2.2040   -19.1860     6.5440     6.9820     6.5440    81.1520     7.3060     7.5540     8.4560 
   60.6250     2.2160   -19.7750     7.6360     7.1790     7.6360    77.7190     8.0550     8.2640    10.1010 
   60.7500     2.2630   -20.4330     8.6510     7.2440     8.6510    79.1770     8.7430     8.9280    11.1190 
   60.8750     2.3060   -21.1470     9.4570     7.2490     9.4570    79.3910     9.2210     9.4160    12.0280 
   61.0000     2.3050   -21.8760    10.0030     7.2760    10.0030    74.4800     9.3740     9.6260    13.6000 
   61.1250     2.2560   -22.4780    10.2320     7.3750    10.2320    70.0190     9.1820     9.5230    15.1390 
   61.2500     2.1920   -22.8480    10.2470     7.5140    10.2470    68.3970     8.9140     9.3230    13.7130 
   61.3750     2.1460   -22.9300    10.2270     7.6170    10.2270    66.5400     8.7790     9.1980    12.4230 
   61.5000     2.1460   -22.7890    10.4390     7.5840    10.4390    63.7490     8.8610     9.2280    11.6620 
   61.6250     2.2110   -22.4380    10.6570     7.3040    10.6570    60.8430     9.0920     9.3710    11.7650 
   61.7500     2.3060   -21.9360    10.4690     6.8360    10.4690    58.4460     9.2430     9.4530    13.7950 
   61.8750     2.3810   -21.3210    10.0520     6.2710    10.0520    60.4350     9.1080     9.2900    16.8250 
   62.0000     2.4070   -20.6750     9.7130     5.7280     9.7130    70.1830     8.5950     8.7710    16.0630 
   62.1250     2.4010   -20.0490     9.6310     5.3210     9.6310    81.4970     7.7940     7.9310     9.0590 
   62.2500     2.3950   -19.5390     9.5680     5.0470     9.5680    86.8280     6.9510     7.0100     6.8550 
   62.3750     2.3920   -19.2620     9.1930     4.8790     9.1930    87.9530     6.1770     6.1450     6.1460 
   62.5000     2.3760   -19.2630     8.5190     4.7910     8.5190    87.9940     5.5360     5.4170     5.5150 
   62.6250     2.3390   -19.5770     7.7020     4.7610     7.7020    86.5970     5.1500     4.9340     4.8730 
   62.7500     2.3020   -20.1500     7.2630     4.7580     7.2630    85.1930     5.0780     4.7220     4.5080 
   62.8750     2.2970   -20.9240     7.3430     4.7950     7.3430    85.1510     5.3840     4.8310     4.2650 
   63.0000     2.3430   -21.8550     7.6790     4.9290     7.6790    85.0670     6.1040     5.3030     4.4750 
