~V
VERS. 2.00: Ver 2.00
~W
STRT.M 53.0000:
STOP.M 371.0000:
STEP.M 0.1250:
NULL. -999.2500:
UWI. F10327:
~C
DEPT.M :
DEN.GM/CC :
GR.API :
RML.OHMM :
RI. :
RXO.OHMM :
SP.MV :
~A
   53.0000  -999.2500  -999.2500  -999.2500  -999.2500  -999.2500    89.2700 
   53.1250  -999.2500  -999.2500  -999.2500  -999.2500  -999.2500    89.2650 
   53.2500  -999.2500  -999.2500  -999.2500  -999.2500  -999.2500    89.2500 
   53.3750  -999.2500  -999.2500  -999.2500  -999.2500  -999.2500    89.2730 
   53.5000     1.9310  -999.2500  -999.2500  -999.2500  -999.2500    89.3660 
   53.6250     1.9310  -999.2500  -999.2500  -999.2500  -999.2500    89.4970 
   53.7500     1.9320  -999.2500  -999.2500  -999.2500  -999.2500    89.6380 
   53.8750     1.9310    45.3800     1.4240     0.3850     0.7580    89.7810 
   54.0000     1.9290    45.3800     1.4240     0.3850     0.7580    89.9320 
   54.1250     1.9280    46.3310     1.4150     0.3860     0.7970    90.0970 
   54.2500     1.9300    45.9320     1.3890     0.3880     0.8350    90.2440 
   54.3750     1.9320    44.1020     1.3560     0.3910     0.8420    90.2710 
   54.5000     1.9350    43.3970     1.3290     0.3900     0.8360    90.0770 
   54.6250     1.9390    45.0010     1.3130     0.3870     0.8360    89.6790 
   54.7500     1.9420    46.2260     1.3070     0.3810     0.8420    89.1340 
   54.8750     1.9470    44.0660     1.3080     0.3750     0.8590    88.4820 
   55.0000     1.9510    40.0520     1.3110     0.3690     0.8810    87.7260 
   55.1250     1.9530    36.9950     1.3070     0.3640     0.9030    86.9160 
   55.2500     1.9530    36.1790     1.2860     0.3610     0.9140    86.1090 
   55.3750     1.9530    37.1210     1.2430     0.3610     0.9100    85.3860 
   55.5000     1.9540    37.7140     1.1850     0.3640     0.8990    84.8560 
   55.6250     1.9550    36.9370     1.1300     0.3670     0.8840    84.5400 
   55.7500     1.9530    37.1300     1.0970     0.3700     0.8830    84.3950 
   55.8750     1.9480    39.2870     1.0970     0.3700     0.8940    84.3760 
   56.0000     1.9410    40.8830     1.1230     0.3680     0.9100    84.4310 
   56.1250     1.9370    40.3600     1.1500     0.3650     0.9170    84.4750 
   56.2500     1.9400    39.1440     1.1510     0.3640     0.9090    84.4810 
   56.3750     1.9540    40.0350     1.1150     0.3630     0.8850    84.4020 
   56.5000     1.9760    43.8870     1.0440     0.3620     0.8550    84.1920 
   56.6250     2.0010    47.6870     0.9630     0.3600     0.8430    83.8600 
   56.7500     2.0200    48.5630     0.8960     0.3560     0.8480    83.4560 
   56.8750     2.0310    47.1530     0.8560     0.3510     0.8570    83.0050 
   57.0000     2.0290    45.9600     0.8470     0.3480     0.8530    82.4750 
   57.1250     2.0190    44.4660     0.8560     0.3470     0.8370    81.8670 
   57.2500     2.0070    42.2430     0.8690     0.3520     0.8200    81.1410 
   57.3750     2.0020    40.3560     0.8780     0.3640     0.8110    80.2650 
   57.5000     2.0110    39.9370     0.8650     0.3850     0.8030    79.1850 
   57.6250     2.0350    40.0490     0.8150     0.4090     0.7860    77.8640 
   57.7500     2.0780    40.6360     0.7110     0.4230     0.7470    76.2160 
   57.8750     2.1470    42.4630     0.5360     0.4150     0.6850    74.0910 
   58.0000     2.2490    46.9160     0.3050     0.3790     0.4540    71.2120 
   58.1250     2.3760    50.6340     0.0980     0.3330     0.2890    67.4180 
   58.2500     2.4960    50.8000    -0.0240     0.3010     0.2270    62.5640 
   58.3750     2.5720    49.9180    -0.0300     0.3180     0.2100    56.6020 
   58.5000     2.5750    53.1530     0.1390     0.4460     0.2360    49.5030 
   58.6250     2.5280    58.2420     0.5500     0.7610     1.4250    41.6840 
   58.7500     2.4560    59.9130     1.2940     1.3530     3.6590    33.5500 
   58.8750     2.3760    57.8660     2.3640     2.2700     6.1220    25.4940 
   59.0000     2.3060    56.5380     3.5890     3.4590     8.8960    18.0330 
   59.1250     2.2540    57.3030     4.5850     4.6360    10.3760    11.5230 
   59.2500     2.2270    60.0350     4.9120     5.4420     8.9660     6.2430 
   59.3750     2.2240    65.5000     4.5360     5.6680     6.9420     2.3200 
   59.5000     2.2420    73.1850     3.9720     5.4240     5.7640    -0.1550 
   59.6250     2.2620    79.3300     3.5610     5.0440     5.0380    -1.6330 
   59.7500     2.2680    81.4510     3.3260     4.7040     4.5250    -2.4840 
   59.8750     2.2570    81.2220     3.2080     4.4490     4.2320    -2.9780 
   60.0000     2.2360    80.6470     3.1630     4.2910     4.1420    -3.3290 
   60.1250     2.2180    79.5190     3.1630     4.2100     4.1120    -3.6840 
   60.2500     2.2140    77.5410     3.2190     4.2140     4.0950    -4.1150 
   60.3750     2.2260    76.9100     3.3790     4.3430     4.1400    -4.6610 
   60.5000     2.2550    79.2650     3.7450     4.6940     4.3290    -5.3590 
   60.6250     2.2930    81.6870     4.3590     5.2930     4.7510    -6.2070 
   60.7500     2.3280    80.1960     5.1900     6.1120     5.5430    -7.1920 
   60.8750     2.3460    74.0870     6.1150     7.0340     6.9260    -8.2890 
   61.0000     2.3310    67.8780     6.8720     7.8200     9.0790    -9.4630 
   61.1250     2.2920    64.0520     7.2460     8.2620    10.9210   -10.6790 
   61.2500     2.2500    60.9560     7.1660     8.2730    10.4130   -11.9090 
   61.3750     2.2280    57.1320     6.7580     7.9310     8.7620   -13.1050 
   61.5000     2.2340    56.0510     6.2730     7.4320     8.0400   -14.1810 
   61.6250     2.2530    57.5050     5.8800     6.9650     8.3460   -15.0560 
   61.7500     2.2670    58.8560     5.5830     6.5760     9.1630   -15.6520 
   61.8750     2.2690    60.8380     5.3150     6.2300     8.9840   -15.9420 
   62.0000     2.2610    64.7140     5.0220     5.8750     8.0160   -15.9230 
   62.1250     2.2520    69.5760     4.7360     5.5240     7.1770   -15.7090 
   62.2500     2.2430    74.3110     4.5360     5.2440     6.3830   -15.4140 
   62.3750     2.2280    78.5080     4.4960     5.1130     5.3900   -15.1340 
   62.5000     2.2020    79.7120     4.6770     5.2110     4.9420   -14.9280 
   62.6250     2.1700    76.7530     5.0280     5.5060     5.1110   -14.7720 
   62.7500     2.1440    71.6020     5.4710     5.9230     5.7530   -14.6440 
   62.8750     2.1300    67.2550     5.9050     6.3570     6.7120   -14.5080 
   63.0000     2.1340    66.4730     6.1800     6.6580     7.2700   -14.3310 
   63.1250     2.1490    68.1510     6.2150     6.7330     7.3650   -14.0660 
   63.2500     2.1730    70.1790     5.9940     6.5560     7.0960   -13.6460 
   63.3750     2.2000    73.5570     5.5810     6.1680     6.3830   -13.0200 
   63.5000     2.2280    79.1600     5.1000     5.6640     5.8830   -12.1570 
   63.6250     2.2530    83.9210     4.6840     5.1760     5.5740   -11.1670 
   63.7500     2.2720    87.3780     4.4040     4.7910     5.1040   -10.1910 
   63.8750     2.2860    90.9780     4.2830     4.5560     4.5910    -9.3380 
   64.0000     2.2940    93.6620     4.3160     4.4890     4.3590    -8.6750 
   64.1250     2.2980    93.1780     4.4440     4.5400     4.4310    -8.2050 
   64.2500     2.3000    89.7710     4.6110     4.6520     4.7240    -7.9110 
   64.3750     2.2960    87.5920     4.7730     4.7760     5.0350    -7.7540 
   64.5000     2.2830    89.4350     4.8960     4.8800     4.9250    -7.7610 
   64.6250     2.2650    90.8260     4.9940     4.9750     4.7070    -7.9040 
   64.7500     2.2490    87.2810     5.1080     5.0930     4.5610    -8.1320 
   64.8750     2.2440    80.5570     5.2730     5.2580     4.5470    -8.3970 
   65.0000     2.2540    77.7610     5.4800     5.4520     4.7110    -8.6660 
   65.1250     2.2710    78.9020     5.6610     5.6080     5.0650    -8.9110 
   65.2500     2.2850    80.5680     5.7340     5.6550     5.6330    -9.1330 
   65.3750     2.2880    81.2500     5.6510     5.5500     6.1370    -9.3590 
   65.5000     2.2800    80.0190     5.4300     5.3080     5.8500    -9.5980 
   65.6250     2.2720    78.6200     5.1990     5.0330     5.0570    -9.8550 
   65.7500     2.2680    79.0950     5.0830     4.8290     4.7410   -10.1510 
