~V
VERS. 2.00: Ver 2.00
~W
STRT.M 60.0000:
STOP.M 392.0000:
STEP.M 0.1250:
NULL. -999.2500:
UWI. F10306:
~C
DEPT.M :
DEN.GM/CC :
GR.API :
RML.OHMM :
RI. :
RXO.OHMM :
SP.MV :
~A
# ...
   85.7500     2.1550    60.2040     8.5610     6.9770     7.9190   -21.4040 
   85.8750     2.1460    58.1500     8.6820     7.0730     8.2420   -21.6180 
   86.0000     2.1400    55.5890     8.7610     7.1670     8.5300   -21.7490 
   86.1250     2.1380    55.2060     8.7640     7.2250     8.7230   -21.7110 
   86.2500     2.1390    57.7670     8.7190     7.2400     8.8190   -21.5370 
   86.3750     2.1410    61.5780     8.6670     7.2180     8.8510   -21.2900 
   86.5000     2.1440    64.3190     8.6510     7.1820     8.8530   -21.0060 
   86.6250     2.1450    64.9540     8.7090     7.1620     8.8420   -20.6590 
   86.7500     2.1450    64.4340     8.8200     7.1770     8.8620   -20.2630 
   86.8750     2.1440    63.0600     8.9560     7.2280     8.9860   -19.8510 
   87.0000     2.1430    61.7440     9.0820     7.3030     9.1400   -19.4600 
   87.1250     2.1430    62.4690     9.1600     7.3780     9.2060   -19.0730 
   87.2500     2.1420    64.5110     9.1830     7.4320     9.1630   -18.6750 
   87.3750     2.1420    65.3520     9.1520     7.4550     9.0090   -18.2490 
   87.5000     2.1430    66.2110     9.0860     7.4510     8.7630   -17.7950 
   87.6250     2.1490    68.6650     9.0300     7.4390     8.4010   -17.3070 
   87.7500     2.1560    69.2660     9.0330     7.4460     8.0340   -16.7750 
   87.8750     2.1620    66.1210     9.1200     7.4910     7.7530   -16.1830 
   88.0000     2.1640    63.6630     9.2820     7.5750     7.6040   -15.5550 
   88.1250     2.1630    64.7290     9.4470     7.6630     7.5860   -14.9150 
   88.2500     2.1610    66.1500     9.4890     7.6830     7.6310   -14.2290 
   88.3750     2.1650    67.0570     9.3040     7.5710     7.6590   -13.4520 
   88.5000     2.1770    69.4780     8.8640     7.2990     7.5250   -12.5690 
   88.6250     2.2040    73.5360     8.2760     6.9150     7.1600   -11.6210 
   88.7500     2.2410    77.8480     7.8350     6.5970     6.6790   -10.6930 
   88.8750     2.2820    83.3590     7.8040     6.5230     6.3090    -9.8050 
   89.0000     2.3190    89.9340     8.3190     6.8190     6.4520    -8.9340 
   89.1250     2.3470    93.7250     9.2980     7.5090     7.8220    -8.1360 
   89.2500     2.3680    92.9150    10.2620     8.3080     9.9910    -7.4730 
   89.3750     2.3850    89.8270    10.7880     8.9080    12.1300    -6.9760 
   89.5000     2.3990    88.6550    10.5920     9.0330    13.6000    -6.6370 
   89.6250     2.4040    92.1000     9.6100     8.5070    12.2060    -6.4460 
   89.7500     2.3980    98.8430     8.3560     7.6470     8.6150    -6.3390 
   89.8750     2.3840   105.3620     7.2440     6.7760     6.1820    -6.3140 
   90.0000     2.3690   108.1130     6.5120     6.1210     5.4560    -6.3810 
   90.1250     2.3630   108.0570     6.2320     5.7930     5.3640    -6.4890 
   90.2500     2.3650   108.5400     6.1850     5.6690     5.2330    -6.5870 
   90.3750     2.3720   109.7770     6.1970     5.6250     5.1960    -6.6960 
   90.5000     2.3740   111.0540     6.1300     5.5490     5.1540    -6.8310 
   90.6250     2.3650   111.9750     5.9200     5.3740     5.0070    -6.9870 
   90.7500     2.3480   113.8520     5.6550     5.1530     4.8480    -7.1460 
   90.8750     2.3310   116.9190     5.4630     4.9800     4.7270    -7.3120 
   91.0000     2.3200   120.4160     5.4920     4.9630     4.7970    -7.4940 
   91.1250     2.3210   119.5370     5.9370     5.2510     5.3020    -7.7210 
   91.2500     2.3390   112.0810     6.7650     5.8360     6.3330    -7.9840 
   91.3750     2.3720   100.6900     7.8660     6.6570     7.8290    -8.2700 
   91.5000     2.4170    90.2390     9.0150     7.5590     9.4800    -8.6080 
   91.6250     2.4570    84.2120     9.8460     8.2750    10.6830    -9.0430 
   91.7500     2.4770    81.6320    10.1780     8.6270    10.7270    -9.5600 
   91.8750     2.4660    81.6830    10.0100     8.5750     9.9750   -10.1160 
   92.0000     2.4280    82.2730     9.5150     8.2210     9.0290   -10.6560 
   92.1250     2.3710    81.6900     8.9650     7.7610     8.3530   -11.1640 
   92.2500     2.3120    81.9670     8.5700     7.3840     7.9800   -11.6590 
   92.3750     2.2600    83.2170     8.3820     7.1520     7.7660   -12.1240 
   92.5000     2.2180    84.5820     8.3720     7.0580     7.6990   -12.5150 
   92.6250     2.1910    85.7620     8.4740     7.0590     7.6880   -12.7770 
   92.7500     2.1750    87.5350     8.5910     7.0780     7.7720   -12.9160 
   92.8750     2.1710    88.1000     8.6740     7.0760     7.8580   -12.9730 
   93.0000     2.1750    85.9310     8.6950     7.0390     7.8810   -12.9900 
   93.1250     2.1880    84.1470     8.6450     6.9750     7.7870   -12.9540 
   93.2500     2.2050    84.7250     8.5560     6.9060     7.6470   -12.8770 
   93.3750     2.2210    85.8300     8.4530     6.8490     7.5310   -12.7890 
   93.5000     2.2320    85.2700     8.3650     6.8190     7.5590   -12.7290 
   93.6250     2.2310    84.4230     8.3680     6.8690     7.7780   -12.6850 
   93.7500     2.2210    84.2960     8.5270     7.0430     7.9560   -12.6550 
   93.8750     2.2130    84.7830     8.8900     7.3760     7.9100   -12.6350 
   94.0000     2.2210    85.5640     9.4290     7.8490     7.7090   -12.6450 
   94.1250     2.2650    86.6820    10.0110     8.3640     7.5130   -12.7220 
   94.2500     2.3380    84.4620    10.4330     8.7540     7.4090   -12.8150 
   94.3750     2.4150    79.0420    10.5570     8.8990     7.4230   -12.9100 
   94.5000     2.4610    75.4990    10.3420     8.7530     7.5440   -13.0160 
   94.6250     2.4440    77.6140     9.8560     8.3520     7.6960   -13.1600 
   94.7500     2.3870    81.9430     9.3270     7.8840     7.7960   -13.3140 
   94.8750     2.3260    86.0420     8.9000     7.4700     7.8800   -13.4470 
   95.0000     2.2830    87.5180     8.6380     7.1730     7.9760   -13.5360 
   95.1250     2.2680    85.4090     8.5370     7.0160     8.0230   -13.5760 
   95.2500     2.2690    83.7260     8.5100     6.9530     7.9730   -13.6150 
   95.3750     2.2730    84.2470     8.5250     6.9660     7.9700   -13.6310 
   95.5000     2.2750    84.5250     8.6130     7.0690     8.0600   -13.5920 
   95.6250     2.2720    82.5910     8.8890     7.3200     8.2090   -13.5200 
   95.7500     2.2630    80.7540     9.3840     7.7260     8.5610   -13.4830 
   95.8750     2.2480    77.1230    10.0570     8.2640     9.1810   -13.5120 
   96.0000     2.2290    71.1430    10.7830     8.8610     9.8950   -13.5960 
   96.1250     2.2080    66.3420    11.3370     9.3710    10.4360   -13.7090 
   96.2500     2.1910    66.0640    11.5880     9.6730    10.5840   -13.8570 
   96.3750     2.1820    69.4500    11.4970     9.7050    10.1220   -14.0570 
   96.5000     2.1820    72.5460    11.1280     9.4860     9.2820   -14.3130 
   96.6250     2.1890    71.9330    10.6040     9.0930     8.8610   -14.5890 
   96.7500     2.1920    70.1050    10.0800     8.6680     8.8010   -14.8300 
   96.8750     2.1870    71.4400     9.6190     8.2790     8.8240   -15.0310 
   97.0000     2.1730    75.6480     9.2420     7.9520     8.7330   -15.1900 
   97.1250     2.1540    77.4500     8.9550     7.6970     8.5300   -15.3120 
   97.2500     2.1390    74.9260     8.7450     7.5020     8.3530   -15.3750 
   97.3750     2.1340    71.7970     8.6190     7.3700     8.1720   -15.3780 
   97.5000     2.1370    73.3770     8.5810     7.3040     8.0620   -15.3470 
   97.6250     2.1470    78.6340     8.6150     7.3000     8.0990   -15.2670 
   97.7500     2.1560    79.6980     8.6610     7.3190     8.1990   -15.1500 
   97.8750     2.1600    75.4810     8.6710     7.3320     8.2350   -14.9830 
   98.0000     2.1570    72.1570     8.6260     7.3230     8.1820   -14.7820 
   98.1250     2.1490    72.5830     8.5520     7.2980     8.0650   -14.5750 
   98.2500     2.1400    73.9210     8.5250     7.2940     8.0240   -14.3820 
   98.3750     2.1350    76.0570     8.6180     7.3590     8.1300   -14.1750 
   98.5000     2.1380    78.1040     8.8750     7.5390     8.3580   -13.8950 
