~V
VERS. 2.00: Ver 2.00
~W
STRT.M 53.0000:
STOP.M 371.0000:
STEP.M 0.1250:
NULL. -999.2500:
UWI. F10327:
~C
DEPT.M :
DEN.GM/CC :
GR.API :
RML.OHMM :
RI. :
RXO.OHMM :
SP.MV :
~A
# ...
   91.6250     2.3570    63.7590    13.3850    11.2060    14.1250    -3.0740 
   91.7500     2.3340    63.2230    11.9280    10.1870    11.8630    -3.2410 
   91.8750     2.3210    64.0660    10.5080     9.1070    11.2090    -3.4420 
   92.0000     2.3050    65.2970     9.4270     8.2080    10.0580    -3.6790 
   92.1250     2.2790    65.5900     8.7410     7.5640     8.7180    -3.9180 
   92.2500     2.2490    66.1370     8.4170     7.1800     7.4620    -4.1390 
   92.3750     2.2230    67.4250     8.3870     7.0280     6.8410    -4.3640 
   92.5000     2.2070    67.6310     8.5740     7.0730     6.7940    -4.6410 
   92.6250     2.1980    64.9150     8.8410     7.2250     6.9050    -4.9760 
   92.7500     2.1940    61.9340     9.0820     7.4040     7.0100    -5.3330 
   92.8750     2.1920    61.3870     9.2370     7.5500     7.0730    -5.6710 
   93.0000     2.1910    62.1640     9.3010     7.6390     7.1190    -5.9800 
   93.1250     2.1890    63.0220     9.3290     7.6940     7.2150    -6.2790 
   93.2500     2.1840    64.0480     9.3720     7.7470     7.3770    -6.5810 
   93.3750     2.1770    63.9390     9.4550     7.8200     7.5690    -6.8580 
   93.5000     2.1680    60.1720     9.5780     7.9190     7.7260    -7.0660 
   93.6250     2.1620    55.0690     9.7100     8.0220     7.7900    -7.2430 
   93.7500     2.1590    52.6470     9.8150     8.1020     7.7270    -7.4280 
   93.8750     2.1590    53.1790     9.8690     8.1410     7.6270    -7.6240 
   94.0000     2.1610    54.4230     9.8590     8.1250     7.6050    -7.7990 
   94.1250     2.1630    55.2490     9.8080     8.0740     7.6070    -7.9310 
   94.2500     2.1650    56.8310     9.7420     8.0110     7.5470    -8.0250 
   94.3750     2.1670    59.2100     9.6860     7.9590     7.4460    -8.1180 
   94.5000     2.1720    59.8320     9.6490     7.9310     7.3870    -8.2330 
   94.6250     2.1760    57.9470     9.6190     7.9200     7.3810    -8.3260 
   94.7500     2.1720    55.3140     9.5820     7.9120     7.3880    -8.3700 
   94.8750     2.1550    54.3140     9.5290     7.8940     7.3920    -8.3740 
   95.0000     2.1270    55.2290     9.4640     7.8630     7.3180    -8.3630 
   95.1250     2.0970    55.5760     9.3990     7.8260     7.1600    -8.3620 
   95.2500     2.0750    54.8810     9.3460     7.7960     6.9710    -8.3470 
   95.3750     2.0640    54.4700     9.3130     7.7820     6.8560    -8.2770 
   95.5000     2.0650    55.9100     9.3040     7.7940     6.8670    -8.1560 
   95.6250     2.0750    57.4050     9.3120     7.8260     6.9680    -8.0490 
   95.7500     2.0890    56.6980     9.3260     7.8630     7.1930    -7.9850 
   95.8750     2.1050    54.8620     9.3320     7.8930     7.4060    -7.9440 
   96.0000     2.1180    54.9580     9.3100     7.8960     7.5410    -7.8950 
   96.1250     2.1260    56.5940     9.2590     7.8730     7.5550    -7.8550 
   96.2500     2.1250    57.6740     9.1980     7.8380     7.4590    -7.8350 
   96.3750     2.1180    57.5680     9.1530     7.8050     7.3380    -7.8430 
   96.5000     2.1100    58.0050     9.1630     7.8040     7.3020    -7.8450 
   96.6250     2.1040    57.6230     9.2380     7.8470     7.3370    -7.8020 
   96.7500     2.1040    56.1510     9.3700     7.9350     7.4560    -7.7170 
   96.8750     2.1080    56.7570     9.5380     8.0620     7.6290    -7.6260 
   97.0000     2.1130    59.8480     9.7230     8.2140     7.7700    -7.5330 
   97.1250     2.1180    60.7320     9.9000     8.3690     7.8180    -7.3990 
   97.2500     2.1220    58.8180    10.0530     8.5080     7.8860    -7.2330 
   97.3750     2.1270    57.0340    10.1610     8.6130     8.0200    -7.0700 
   97.5000     2.1320    57.0810    10.1960     8.6590     8.1920    -6.9490 
   97.6250     2.1350    56.7790    10.1540     8.6420     8.2380    -6.8800 
   97.7500     2.1340    55.3560    10.0450     8.5690     8.1850    -6.8280 
   97.8750     2.1320    53.2450     9.8980     8.4570     8.0770    -6.7510 
   98.0000     2.1290    52.1510     9.7580     8.3400     7.9840    -6.6610 
   98.1250     2.1250    53.5950     9.6650     8.2520     7.8840    -6.6070 
   98.2500     2.1220    57.1500     9.6330     8.2130     7.8070    -6.5820 
   98.3750     2.1220    60.0040     9.6540     8.2280     7.8350    -6.5540 
   98.5000     2.1250    59.3470     9.7140     8.2920     8.0120    -6.4900 
   98.6250     2.1300    56.0780     9.7940     8.3870     8.2430    -6.4000 
   98.7500     2.1350    53.4500     9.8900     8.4970     8.4910    -6.3270 
   98.8750     2.1400    53.6920    10.0040     8.6170     8.7270    -6.3030 
   99.0000     2.1410    55.1170    10.1340     8.7390     8.8600    -6.3140 
   99.1250     2.1390    54.8990    10.2650     8.8540     8.9250    -6.3170 
   99.2500     2.1350    53.8960    10.3770     8.9550     8.8970    -6.3040 
   99.3750     2.1320    53.4900    10.4540     9.0320     8.7570    -6.3100 
   99.5000     2.1330    53.7680    10.4880     9.0800     8.6470    -6.3780 
   99.6250     2.1380    54.8910    10.4920     9.1070     8.6360    -6.4730 
   99.7500     2.1450    56.1270    10.4880     9.1260     8.6110    -6.5440 
   99.8750     2.1510    54.6230    10.4880     9.1440     8.5020    -6.5740 
  100.0000     2.1520    50.5360    10.4920     9.1620     8.4470    -6.6040 
  100.1250     2.1490    49.0780    10.4870     9.1690     8.4680    -6.6520 
  100.2500     2.1430    50.6840    10.4620     9.1600     8.5020    -6.6940 
  100.3750     2.1380    51.6820    10.4180     9.1300     8.5230    -6.6890 
  100.5000     2.1340    51.2380    10.3700     9.0840     8.4960    -6.6250 
  100.6250     2.1290    51.3680    10.3420     9.0380     8.4640    -6.5580 
  100.7500     2.1250    52.2380    10.3390     9.0080     8.4130    -6.5030 
  100.8750     2.1220    53.2160    10.3530     9.0080     8.3630    -6.4470 
  101.0000     2.1190    54.2040    10.3940     9.0490     8.3520    -6.3650 
  101.1250     2.1210    54.7620    10.4680     9.1290     8.3860    -6.2570 
  101.2500     2.1260    54.8300    10.5900     9.2430     8.5010    -6.1560 
  101.3750     2.1370    54.0500    10.7540     9.3820     8.7260    -6.0880 
  101.5000     2.1540    53.3510    10.9450     9.5330     9.0080    -6.0390 
  101.6250     2.1690    55.6470    11.1630     9.6700     9.2000    -5.9450 
  101.7500     2.1800    60.1860    11.3460     9.7560     9.2140    -5.8120 
  101.8750     2.1840    61.6100    11.4050     9.7410     9.2180    -5.6850 
  102.0000     2.1830    57.8910    11.1340     9.5510     9.3100    -5.5690 
  102.1250     2.1840    54.5910    10.6490     9.1960     9.2100    -5.4410 
  102.2500     2.1900    55.7010    10.0810     8.7410     8.8510    -5.2880 
  102.3750     2.2000    60.7190     9.5830     8.2960     8.3390    -5.1270 
  102.5000     2.2150    67.1920     9.3380     8.0150     7.6900    -5.0070 
  102.6250     2.2360    71.3330     9.3630     7.9400     7.2810    -4.9510 
  102.7500     2.2680    69.9820     9.5550     8.0230     7.6420    -4.9360 
  102.8750     2.3120    64.2480     9.7520     8.1580     8.9290    -4.9390 
  103.0000     2.3580    59.1770     9.7800     8.2150    11.2660    -4.9900 
  103.1250     2.3870    59.3100     9.6280     8.1500    13.5940    -5.1330 
  103.2500     2.3850    64.4450     9.4060     8.0120    13.2600    -5.3880 
  103.3750     2.3520    68.4990     9.2790     7.9050     9.8480    -5.7080 
  103.5000     2.3040    65.2110     9.4050     7.9530     8.3580    -6.0240 
  103.6250     2.2600    58.5090     9.7510     8.1630     8.5880    -6.3530 
  103.7500     2.2270    54.0600    10.1910     8.4720     9.1040    -6.7300 
  103.8750     2.2060    52.7690    10.5870     8.7870     9.1810    -7.1550 
  104.0000     2.1990    51.5050    10.8050     9.0020     8.9570    -7.5730 
  104.1250     2.2020    50.6230    10.8380     9.0880     8.6300    -7.9250 
  104.2500     2.2090    51.3990    10.7490     9.0740     8.3710    -8.2060 
  104.3750     2.2110    53.7830    10.6140     9.0090     8.2370    -8.4540 
