~V
VERS. 2.00: Ver 2.00
~W
STRT.M 60.0000:
STOP.M 392.0000:
STEP.M 0.1250:
NULL. -999.2500:
UWI. F10306:
~C
DEPT.M :
DEN.GM/CC :
GR.API :
RML.OHMM :
RI. :
RXO.OHMM :
SP.MV :
~A
# ...
  343.2500     2.4220    61.1110    17.3000    16.0820    15.8850   -19.2580 
  343.3750     2.4140    60.4460    17.2980    16.1680    15.7230   -19.3910 
  343.5000     2.4160    63.3040    17.2380    16.1440    15.3130   -19.5290 
  343.6250     2.4270    62.9190    17.3850    16.2360    14.9230   -19.6540 
  343.7500     2.4430    59.8900    17.8310    16.5540    14.8430   -19.7330 
  343.8750     2.4570    59.0580    18.5270    17.0780    15.2540   -19.7570 
  344.0000     2.4680    61.3450    19.3050    17.6820    16.0600   -19.7230 
  344.1250     2.4740    62.7600    19.9050    18.1530    16.6160   -19.6210 
  344.2500     2.4770    61.1080    20.1840    18.3620    17.1310   -19.4820 
  344.3750     2.4730    58.4910    20.1120    18.2720    17.7650   -19.3240 
  344.5000     2.4580    57.1750    19.7710    17.9460    17.5860   -19.1470 
  344.6250     2.4260    57.1190    19.3260    17.5270    16.8970   -18.9590 
  344.7500     2.3860    56.1750    18.9960    17.2070    16.4920   -18.7920 
  344.8750     2.3530    55.6770    18.9210    17.1130    16.4470   -18.6570 
  345.0000     2.3420    56.9190    19.1650    17.3040    16.5360   -18.5530 
  345.1250     2.3640    58.2950    19.6930    17.7690    16.8370   -18.4780 
  345.2500     2.4050    58.4360    20.2580    18.3090    17.7180   -18.4010 
  345.3750     2.4450    59.0430    20.6690    18.7570    18.8410   -18.3110 
  345.5000     2.4680    59.3530    20.8310    19.0130    19.7990   -18.2170 
  345.6250     2.4700    56.2910    20.8130    19.0980    20.1980   -18.1260 
  345.7500     2.4680    54.9230    20.8630    19.2000    19.7910   -18.0310 
  345.8750     2.4700    58.4220    21.1340    19.4560    18.8930   -17.9300 
  346.0000     2.4780    62.8410    21.6130    19.8870    18.5480   -17.8200 
  346.1250     2.4800    60.5980    22.0710    20.3500    19.4780   -17.7280 
  346.2500     2.4690    56.4950    22.2310    20.6050    20.7970   -17.6840 
  346.3750     2.4520    55.1270    21.9800    20.5100    21.3330   -17.6830 
  346.5000     2.4410    56.0550    21.4220    20.0850    20.3100   -17.7180 
  346.6250     2.4490    56.6020    20.8970    19.5620    18.3220   -17.7910 
  346.7500     2.4710    56.6470    20.7460    19.2730    17.1610   -17.8530 
  346.8750     2.4890    56.6430    21.0870    19.3850    17.4900   -17.8920 
  347.0000     2.4840    56.1640    21.8040    19.8680    18.8160   -17.9040 
  347.1250     2.4370    54.6480    22.5640    20.4920    20.6430   -17.8690 
  347.2500     2.3670    54.0840    23.0150    20.9210    21.7450   -17.7710 
  347.3750     2.3010    55.4520    23.0260    20.9930    21.6800   -17.6250 
  347.5000     2.2670    57.2810    22.7190    20.7550    20.4690   -17.4390 
  347.6250     2.2900    57.1220    22.5200    20.5150    18.4750   -17.2050 
  347.7500     2.3580    55.6840    22.9070    20.6880    17.1440   -16.9470 
  347.8750     2.4490    53.9750    24.1740    21.5600    16.8490   -16.6750 
  348.0000     2.5340    53.0790    26.3500    23.2360    17.5210   -16.3790 
  348.1250     2.5770    53.7120    29.1500    25.6030    18.8780   -16.0590 
  348.2500     2.5740    54.3890    31.7630    28.0100    20.2500   -15.7640 
  348.3750     2.5370    54.3760    33.4830    29.8110    20.9230   -15.5000 
  348.5000     2.4860    54.5280    33.8660    30.4910    20.0820   -15.2600 
  348.6250     2.4470    55.6380    32.8430    29.8030    18.0230   -15.0330 
  348.7500     2.4300    56.5460    31.3290    28.4850    16.5730   -14.8170 
  348.8750     2.4330    57.0430    30.0780    27.2320    16.2730   -14.6110 
  349.0000     2.4460    58.3790    29.5930    26.5730    16.7530   -14.4420 
  349.1250     2.4590    59.6260    30.1390    26.8480    17.2990   -14.3350 
  349.2500     2.4720    59.3170    31.3520    27.7870    17.4620   -14.2550 
  349.3750     2.4920    58.0190    32.9090    29.0960    16.9760   -14.2060 
  349.5000     2.5250    56.7500    34.4760    30.4300    15.9980   -14.2050 
  349.6250     2.5680    56.6870    35.6780    31.4000    14.5900   -14.2750 
  349.7500     2.6030    58.0840    36.3360    31.8560    13.1080   -14.4000 
  349.8750     2.6200    59.4040    36.3120    31.7250    11.8170   -14.5750 
  350.0000     2.6120    59.0290    35.5210    31.0000    10.8540   -14.7620 
  350.1250     2.5870    56.2800    33.9020    29.6920    10.3040   -14.9230 
  350.2500     2.5610    53.2390    31.9070    28.1510    10.2460   -15.0650 
  350.3750     2.5460    52.5290    30.1240    26.7940    10.7140   -15.1990 
  350.5000     2.5480    55.6760    29.3790    26.2080    11.7960   -15.3480 
  350.6250     2.5720    59.0130    30.9880    27.3740    13.7630   -15.5460 
  350.7500     2.6060    59.6280    34.9980    30.3720    16.5740   -15.7840 
  350.8750     2.6380    57.6480    40.6330    34.6880    20.1110   -16.0300 
  351.0000     2.6620    53.9020    45.9180    38.8560    23.9570   -16.2630 
  351.1250     2.6730    50.9200    47.1770    39.9880    26.6070   -16.4390 
  351.2500     2.6810    51.7700    42.7020    36.5210    26.7970   -16.5110 
  351.3750     2.6850    55.5470    33.1310    28.8030    23.7940   -16.4080 
  351.5000     2.6740    56.8230    21.8940    19.6350    17.7780   -16.0310 
  351.6250     2.6320    57.9750    13.3930    12.6010    11.4510   -15.2730 
  351.7500     2.5700    64.0400     8.3750     8.2170     7.1510   -14.2300 
  351.8750     2.5040    72.4690     6.0920     5.9110     5.0920   -13.0000 
  352.0000     2.4520    78.7980     5.6090     5.0510     5.0070   -11.6670 
  352.1250     2.4260    80.5050     6.2950     5.2940     6.2720   -10.3010 
  352.2500     2.4120    77.5770     7.3890     6.0860     7.9940    -8.9630 
  352.3750     2.4030    70.4110     8.4370     7.0640     9.7400    -7.7130 
  352.5000     2.3930    64.4470     9.0610     7.8500    11.2430    -6.6310 
  352.6250     2.3870    66.1650     8.9670     8.0720    11.3470    -5.8300 
  352.7500     2.3880    71.8070     8.4150     7.8240     9.0690    -5.2640 
  352.8750     2.3980    75.8810     7.7320     7.3540     6.9250    -4.8710 
  353.0000     2.4120    75.0660     7.2050     6.9200     6.1580    -4.5990 
  353.1250     2.4220    73.9240     7.0050     6.7010     6.0950    -4.4280 
  353.2500     2.4280    76.2190     7.0310     6.6610     6.1670    -4.3170 
  353.3750     2.4300    79.6260     7.1540     6.7100     6.2750    -4.2470 
  353.5000     2.4280    80.0910     7.2450     6.7460     6.3490    -4.2050 
  353.6250     2.4220    77.2730     7.2130     6.6860     6.3120    -4.1740 
  353.7500     2.4130    75.8530     7.0910     6.5450     6.1320    -4.1470 
  353.8750     2.4040    76.2240     6.9360     6.3660     5.8940    -4.1290 
  354.0000     2.3950    79.1080     6.8040     6.1940     5.7180    -4.1370 
  354.1250     2.3890    84.7840     6.7420     6.0730     5.6410    -4.1660 
  354.2500     2.3870    87.0860     6.7480     6.0070     5.6170    -4.2070 
  354.3750     2.3890    83.5510     6.8130     5.9880     5.6320    -4.2420 
  354.5000     2.3940    77.2960     6.9210     6.0050     5.6770    -4.2740 
  354.6250     2.4010    74.0580     7.0400     6.0450     5.7340    -4.3060 
  354.7500     2.4070    76.0670     7.1270     6.0960     5.7810    -4.3350 
  354.8750     2.4120    79.6660     7.1560     6.1470     5.8150    -4.3680 
  355.0000     2.4130    81.3180     7.1210     6.1940     5.8390    -4.3730 
  355.1250     2.4090    80.7210     7.0490     6.2290     5.8570    -4.3530 
  355.2500     2.4020    80.8490     6.9870     6.2520     5.8780    -4.3230 
  355.3750     2.3960    81.2850     6.9570     6.2650     5.9140    -4.3140 
  355.5000     2.3940    80.0480     6.9620     6.2710     5.9640    -4.3260 
  355.6250     2.3970    79.2290     6.9890     6.2740     6.0230    -4.3460 
  355.7500     2.4010    78.8960     7.0260     6.2760     6.0950    -4.3810 
  355.8750     2.4050    78.2270     7.0660     6.2790     6.1650    -4.4280 
  356.0000     2.4060    77.7600     7.1080     6.2840     6.2240    -4.5140 
