~V
VERS. 2.00: Ver 2.00
~W
STRT.M 53.0000:
STOP.M 371.0000:
STEP.M 0.1250:
NULL. -999.2500:
UWI. F10327:
~C
DEPT.M :
DEN.GM/CC :
GR.API :
RML.OHMM :
RI. :
RXO.OHMM :
SP.MV :
~A
# ...
  362.0000     2.3020    72.7650     7.3690     6.9170     8.9950   -21.5090 
  362.1250     2.3190    72.7650     7.1100     6.6890     8.3470   -20.8150 
  362.2500     2.3310    72.7650     6.8920     6.4920     7.7190   -20.2460 
  362.3750     2.3370    72.7650     6.7480     6.3480     7.6250   -19.7950 
  362.5000     2.3390    72.7650     6.6800     6.2700     7.9300   -19.4260 
  362.6250     2.3390    72.7650     6.6500     6.2310     8.1840   -19.0980 
  362.7500     2.3370    72.7650     6.6190     6.2020     8.0510   -18.8200 
  362.8750     2.3310    72.7650     6.5670     6.1650     7.6040   -18.6040 
  363.0000     2.3230    72.7650     6.4900     6.1100     7.2110   -18.4450 
  363.1250     2.3150    72.7650     6.4030     6.0430     7.0640   -18.2490 
  363.2500     2.3140    72.7650     6.3140     5.9710     7.0500   -17.9810 
  363.3750     2.3220    72.7650     6.2220     5.8990     7.0020   -17.6360 
  363.5000     2.3390    72.7650     6.1180     5.8210     6.9000   -17.2350 
  363.6250     2.3600    72.7650     6.0010     5.7370     6.8070   -16.7940 
  363.7500     2.3780    72.7650     5.8830     5.6530     6.6630   -16.3420 
  363.8750     2.3910    72.7650     5.7810     5.5800     6.4390   -15.8740 
  364.0000     2.3870    72.7650     5.7120     5.5290     6.1810   -15.3890 
  364.1250     2.3680    72.7650     5.6740     5.5010     6.1420   -14.9420 
  364.2500     2.3330    72.7650     5.6580     5.4880     6.0800   -14.5260 
  364.3750     2.2960    72.7650     5.6520     5.4840     5.8820   -14.1300 
  364.5000     2.2670    72.7650     5.6490     5.4830     5.5470   -13.7850 
  364.6250     2.2530    72.7650     5.6490     5.4820     5.0930   -13.5000 
  364.7500     2.2530    72.7650     5.6500     5.4810     4.6450   -13.2820 
  364.8750     2.2590    72.7650     5.6520     5.4810     4.4400   -13.1270 
  365.0000     2.2660    72.7650     5.6560     5.4820     4.4330   -13.0200 
  365.1250     2.2670    72.7650     5.6590     5.4830     4.4080   -12.9530 
  365.2500     2.2650    72.7650     5.6620     5.4840     4.3470   -12.9380 
  365.3750     2.2630    72.7650     5.6630     5.4850     4.3470   -12.9750 
  365.5000     2.2710    72.7650     5.6610     5.4850     4.4130   -13.0600 
  365.6250     2.2920    72.7650     5.6550     5.4840     4.4290   -13.1710 
  365.7500     2.3310    72.7650     5.6480     5.4850     4.5010   -13.2770 
  365.8750     2.3790    72.7650     5.6400     5.4860     4.7690   -13.3910 
  366.0000     2.4240    72.7650     5.6330     5.4870     5.0660   -13.5040 
  366.1250     2.4550    72.7650     5.6290     5.4880     5.3930   -13.5970 
  366.2500     2.4700    72.7650     5.6270     5.4880     5.7380   -13.6780 
  366.3750     2.4750    72.7650     5.6270     5.4880     6.0540   -13.7600 
  366.5000     2.4750    72.7650     5.6270     5.4880     5.5200   -13.8390 
  366.6250     2.4670    72.7650     5.6270     5.4880     5.0650   -13.9150 
  366.7500     2.4470    72.7650     5.6270     5.4880     4.9180   -13.9830 
  366.8750     2.4160    72.7650     5.6270     5.4880     5.0950   -14.0260 
  367.0000     2.3750    72.7650     5.6270     5.4880     5.6370   -14.0690 
  367.1250     2.3330    72.7650     5.6270     5.4880     6.7750   -14.1160 
  367.2500     2.2990    72.7650     5.6270     5.4880     8.6720   -14.1520 
  367.3750     2.2770    72.7650     5.6270     5.4880    10.0070   -14.1890 
  367.5000     2.2680    72.7650     5.6270     5.4880    10.0680   -14.2360 
  367.6250     2.2690    72.7650     5.6270     5.4880     9.6030   -14.3120 
  367.7500     2.2760    72.7650     5.6270     5.4880     8.5910   -14.4630 
  367.8750     2.2810    72.7650     5.6270     5.4880     7.8420   -14.7150 
  368.0000     2.2820    72.7650     5.6270     5.4880     8.5650   -15.0030 
  368.1250     2.2790    72.7650     5.6270     5.4880    10.1480   -15.2880 
  368.2500     2.2740    72.7650     5.6270     5.4880    10.9050   -15.5760 
  368.3750     2.2710    72.7650     5.6270     5.4880     9.5810   -15.8380 
  368.5000     2.2700    72.7650     5.6270     5.4880     7.0350   -16.0820 
  368.6250     2.2640    72.7650     5.6270     5.4880     5.5770   -16.2770 
  368.7500     2.2500    72.7650     5.6270     5.4880     5.1070   -16.3640 
  368.8750     2.2280    72.7650     5.6270     5.4880     4.7430   -16.3760 
  369.0000     2.2030    72.7650     5.6270     5.4880     4.4410   -16.3760 
  369.1250     2.1840    72.7650     5.6270     5.4880     4.2930  -999.2500 
  369.2500     2.1710    72.7650     5.6270     5.4880     4.2600  -999.2500 
  369.3750     2.1660    72.7650     5.6270     5.4880     4.2580  -999.2500 
  369.5000     2.1640    72.7650     5.6270     5.4880     4.2580  -999.2500 
  369.6250     2.1630    72.7650     5.6270     5.4880     4.2570  -999.2500 
  369.7500     2.1620    72.7650     5.6270     5.4880     4.2570  -999.2500 
  369.8750     2.1620    72.7650     5.6270     5.4880     4.2560  -999.2500 
  370.0000     2.1620    72.7650     5.6270     5.4880     4.2560  -999.2500 
  370.1250     2.1630    72.7650     5.6270     5.4880     4.2560  -999.2500 
  370.2500     2.1630    72.7650     5.6270     5.4880     4.2560  -999.2500 
  370.3750     2.1640    72.7650     5.6270     5.4880     4.2550  -999.2500 
  370.5000     2.1650    72.7650     5.6270     5.4880     4.2540  -999.2500 
  370.6250     2.1660    72.7650     5.6270     5.4880     4.2540  -999.2500 
  370.7500     2.1670    72.7650     5.6270     5.4880     4.2550  -999.2500 
  370.8750     2.1680    72.7650     5.6270     5.4880     4.2550  -999.2500 
  371.0000     2.1680    72.7650     5.6270     5.4880     4.2550  -999.2500 
