~V
VERS. 2.00: Ver 2.00
~W
STRT.M 54.0000:
STOP.M 355.0000:
STEP.M 0.1250:
NULL. -999.2500:
UWI. F10328:
~C
DEPT.M :
DEN.GM/CC :
SP.MV :
R2M. :
R025. :
RA2. :
GR.API :
RML.OHMM :
RI. :
RXO.OHMM :
~A
# ...
  136.1250     2.2290    -8.8720     9.7920     7.7440     9.7920    87.8210     9.2720     7.8410     7.5480 
  136.2500     2.1760    -9.1260     9.8240     8.4900     9.8240    79.5510    10.8840     9.1930    10.9140 
  136.3750     2.1400    -9.3710     9.9100     9.2420     9.9100    73.7990    12.8670    10.9820    12.6140 
  136.5000     2.1210    -9.5740    10.1180     9.8150    10.1180    68.9910    14.9300    12.9590    12.0760 
  136.6250     2.1170    -9.7030    10.6610    10.0590    10.6610    64.4790    16.4930    14.5930    11.4980 
  136.7500     2.1240    -9.7620    11.2260    10.0160    11.2260    63.9970    16.9790    15.2880    12.1900 
  136.8750     2.1430    -9.7470    11.5110     9.7290    11.5110    70.3300    15.9660    14.5890    13.9820 
  137.0000     2.1730    -9.6930    11.3700     9.2430    11.3700    80.9490    13.5700    12.5670    15.1430 
  137.1250     2.2100    -9.6320    10.8770     8.5940    10.8770    91.9410    10.6170     9.9400    13.4230 
  137.2500     2.2420    -9.6160    10.2130     7.9000    10.2130   103.3750     8.1920     7.6710     9.9650 
  137.3750     2.2640    -9.6830     9.5230     7.3080     9.5230   111.8710     6.7340     6.1370     6.2780 
  137.5000     2.2720    -9.8800     8.9470     7.0020     8.9470   112.2310     6.3360     5.4270     4.5380 
  137.6250     2.2610   -10.2400     8.3090     7.2880     8.3090   101.8930     7.2100     5.7160     5.2690 
  137.7500     2.2320   -10.6880     7.7760     8.2470     7.7760    87.6210     9.2950     6.9890     8.3420 
  137.8750     2.1910   -11.2000     7.5800     9.9160     7.5800    74.6750    12.7640     9.4850    12.1870 
  138.0000     2.1490   -11.7460     7.9030    12.1880     7.9030    65.2350    17.7020    13.4810    16.7410 
  138.1250     2.1170   -12.3070     8.8100    14.8060     8.8100    60.9420    23.8600    19.1360    26.5580 
  138.2500     2.0980   -12.8010    10.0200    17.3410    10.0200    59.8410    29.7690    25.1600    43.8860 
  138.3750     2.0930   -13.2620    11.3060    19.5180    11.3060    59.4670    33.8950    29.9130    52.8880 
  138.5000     2.0980   -13.6230    12.5310    21.2090    12.5310    58.6410    35.4270    32.2520    47.7350 
  138.6250     2.1080   -13.9100    13.7650    22.3680    13.7650    58.7470    34.7140    32.0880    37.0800 
  138.7500     2.1170   -14.1590    14.9980    23.1830    14.9980    60.2520    33.4240    30.9240    32.2590 
  138.8750     2.1230   -14.3950    15.9330    23.7360    15.9330    61.7830    32.3920    29.6360    31.3020 
  139.0000     2.1260   -14.6100    16.6210    24.0540    16.6210    62.1100    31.8780    28.6580    32.8570 
  139.1250     2.1250   -14.8140    17.1860    24.1100    17.1860    60.4400    31.7610    28.0840    35.2680 
  139.2500     2.1240   -15.0360    17.6060    24.0020    17.6060    58.9350    31.7520    27.7570    36.9070 
  139.3750     2.1230   -15.2580    18.0500    23.8330    18.0500    58.8320    31.8530    27.6770    34.4910 
  139.5000     2.1260   -15.4930    18.7150    23.7100    18.7150    59.2400    32.2410    27.9420    31.2720 
  139.6250     2.1310   -15.7470    19.8260    23.6790    19.8260    59.3700    33.1460    28.7310    31.0980 
  139.7500     2.1350   -16.0070    21.5000    23.6280    21.5000    59.6440    34.3410    29.8840    32.5730 
  139.8750     2.1380   -16.2770    24.0610    23.3980    24.0610    61.0240    35.3880    31.0770    36.1760 
  140.0000     2.1380   -16.5400    27.3750    22.8380    27.3750    62.6410    35.6660    31.7970    42.6190 
  140.1250     2.1360   -16.8360    31.0480    21.8030    31.0480    62.5430    34.3370    31.2170    46.8960 
  140.2500     2.1310   -17.1680    34.8840    20.4180    34.8840    61.6750    31.5140    29.2100    40.2020 
  140.3750     2.1260   -17.4860    38.6200    18.8180    38.6200    60.0970    27.6540    26.0430    30.7060 
  140.5000     2.1230   -17.8260    41.7490    17.1680    41.7490    57.6190    23.4710    22.3450    25.7550 
  140.6250     2.1280   -18.1350    43.4600    15.6280    43.4600    55.8980    19.7310    18.8720    22.1880 
  140.7500     2.1400   -18.4170    43.7870    14.2630    43.7870    56.5370    16.7680    16.0300    16.4880 
  140.8750     2.1600   -18.6710    42.8430    13.0950    42.8430    59.5280    14.6600    13.9270    12.2750 
  141.0000     2.1880   -18.8730    40.8790    12.1280    40.8790    62.5470    13.3350    12.5270    10.6570 
  141.1250     2.2150   -18.9840    38.2940    11.4280    38.2940    62.9460    12.7820    11.8430    10.6050 
  141.2500     2.2280   -18.9790    35.6160    11.0130    35.6160    62.2380    12.8210    11.7040    10.8400 
  141.3750     2.2190   -18.8960    33.1430    10.9020    33.1430    61.9820    13.4610    12.0930    10.9180 
  141.5000     2.1980   -18.7060    31.3110    11.0440    31.3110    62.7610    14.7000    13.0160    11.2650 
  141.6250     2.2030   -18.4490    31.1280    11.2980    31.1280    63.4430    16.3940    14.4220    13.0320 
  141.7500     2.2620   -18.1320    32.7090    11.4330    32.7090    63.6990    17.9160    15.8240    15.1630 
  141.8750     2.3690   -17.7590    35.3810    11.2960    35.3810    62.3830    18.5530    16.5810    14.9800 
  142.0000     2.4680   -17.3980    37.7760    10.8440    37.7760    59.5710    17.7890    16.1320    17.0620 
  142.1250     2.4830   -17.1120    38.6490    10.1610    38.6490    58.6560    15.6690    14.3840    20.7370 
  142.2500     2.4350   -16.9330    38.2890     9.4840    38.2890    62.5530    13.3080    12.3000    18.5450 
  142.3750     2.3630   -16.8820    37.1330     8.9710    37.1330    69.1790    11.4410    10.5320    11.2320 
  142.5000     2.2980   -16.9560    35.4200     8.6780    35.4200    74.2900    10.3730     9.3680     8.3680 
  142.6250     2.2550   -17.1530    32.6700     8.5580    32.6700    75.9710    10.1660     8.9080     8.2530 
  142.7500     2.2270   -17.4460    28.6370     8.4590    28.6370    75.1940    10.4410     8.9140     9.0230 
  142.8750     2.2080   -17.8180    23.8300     8.3200    23.8300    72.0960    10.8940     9.1920     9.4750 
  143.0000     2.1920   -18.2360    19.4690     8.1620    19.4690    68.6350    11.2480     9.5220     9.5910 
  143.1250     2.1660   -18.6080    16.6790     8.0750    16.6790    66.8970    11.3530     9.7240     9.7330 
  143.2500     2.1280   -18.9370    14.9840     8.1060    14.9840    65.5540    11.3430     9.8070     9.7060 
  143.3750     2.0950   -19.1790    13.8600     8.2430    13.8600    63.2810    11.3520     9.8470     9.5470 
  143.5000     2.0870   -19.3570    13.0730     8.4120    13.0730    62.3750    11.4460     9.9070     9.3560 
  143.6250     2.1220   -19.4340    12.6390     8.5040    12.6390    65.6950    11.6010    10.0010     9.4140 
  143.7500     2.1780   -19.4650    12.4770     8.4810    12.4770    69.8150    11.7080    10.0800     9.5820 
  143.8750     2.2230   -19.4510    12.5010     8.3690    12.5010    71.5550    11.6990    10.0910     9.8730 
  144.0000     2.2370   -19.4400    12.6440     8.2360    12.6440    73.1170    11.5820    10.0140    10.0500 
  144.1250     2.2220   -19.4620    12.9220     8.1830    12.9220    75.8110    11.4580     9.8770    10.1170 
  144.2500     2.2060   -19.4910    13.2400     8.2460    13.2400    76.0020    11.4440     9.7510    10.3070 
  144.3750     2.1970   -19.5600    13.5620     8.3980    13.5620    73.8890    11.5890     9.6820    10.5640 
  144.5000     2.1920   -19.6450    13.8120     8.5750    13.8120    72.7130    11.8680     9.6850    10.8510 
  144.6250     2.1920   -19.7730    13.9190     8.7060    13.9190    73.4440    12.1690     9.7470    11.0060 
  144.7500     2.1930   -19.9160    13.9130     8.7900    13.9130    73.6160    12.3610     9.8130    11.2110 
  144.8750     2.1930   -20.0580    13.8280     8.8790    13.8280    73.6320    12.4080     9.8540    11.4760 
  145.0000     2.1840   -20.1740    13.7280     9.0480    13.7280    73.9680    12.3640     9.8780    11.6590 
  145.1250     2.1660   -20.2040    13.6410     9.3710    13.6410    71.7010    12.3880     9.9630    11.7470 
