~V
VERS. 2.00: Ver 2.00
~W
STRT.M 60.0000:
STOP.M 392.0000:
STEP.M 0.1250:
NULL. -999.2500:
UWI. F10306:
~C
DEPT.M :
DEN.GM/CC :
GR.API :
RML.OHMM :
RI. :
RXO.OHMM :
SP.MV :
~A
# ...
  291.7500     2.2250    65.4340    58.9530    54.0710    46.8140   -26.4820 
  291.8750     2.2060    65.6610    60.4200    55.0240    47.7990   -26.7020 
  292.0000     2.1920    64.1940    61.3950    55.6500    48.0250   -26.9020 
  292.1250     2.1880    62.7330    61.8750    55.9340    46.6010   -27.0650 
  292.2500     2.1860    62.5740    62.0850    56.0330    44.1140   -27.1960 
  292.3750     2.1770    63.7540    62.1390    56.0320    41.2250   -27.3190 
  292.5000     2.1510    64.7850    62.0290    55.9350    38.7560   -27.4370 
  292.6250     2.0980    63.8920    61.4910    55.5540    36.6770   -27.5460 
  292.7500     2.0320    62.3640    60.2550    54.6550    34.6890   -27.6520 
  292.8750     1.9690    62.1850    58.0860    53.0070    32.1250   -27.7110 
  293.0000     1.9270    62.2280    54.9660    50.5330    28.8870   -27.7160 
  293.1250     1.9180    62.0120    51.1110    47.3320    24.5620   -27.7010 
  293.2500     1.9350    63.2950    47.1650    43.9270    19.5740   -27.6800 
  293.3750     1.9640    67.0570    43.6170    40.7380    15.2370   -27.6370 
  293.5000     1.9870    71.1680    40.8550    38.1320    12.8990   -27.5640 
  293.6250     1.9880    70.7680    39.3340    36.5360    12.9810   -27.4440 
  293.7500     1.9720    67.1010    38.9720    35.9380    14.5180   -27.2840 
  293.8750     1.9500    64.0610    39.6900    36.3190    16.9880   -27.1370 
  294.0000     1.9320    64.8000    41.2570    37.5400    19.8340   -27.0080 
  294.1250     1.9330    67.1900    43.3320    39.3890    21.7780   -26.8960 
  294.2500     1.9530    67.3030    45.3850    41.3950    22.2780   -26.7950 
  294.3750     1.9910    65.6800    47.1290    43.2580    21.5600   -26.6960 
  294.5000     2.0410    63.8920    48.4790    44.8100    20.5810   -26.6060 
  294.6250     2.0920    64.0710    49.5460    46.0250    20.7730   -26.5480 
  294.7500     2.1310    65.9660    50.5880    47.0940    21.9270   -26.4940 
  294.8750     2.1560    67.5670    51.6150    48.0440    23.4720   -26.4280 
  295.0000     2.1690    66.9080    52.3430    48.6690    24.8710   -26.3440 
  295.1250     2.1760    64.1060    52.0660    48.3640    25.4920   -26.2170 
  295.2500     2.1860    62.1000    50.4520    46.8410    24.8310   -26.0470 
  295.3750     2.2010    62.0510    47.4210    44.0250    22.9640   -25.8360 
  295.5000     2.2200    63.4830    43.2960    40.2250    20.6060   -25.6100 
  295.6250     2.2420    66.8110    38.7970    36.1270    17.7820   -25.3910 
  295.7500     2.2640    70.1830    34.8740    32.5760    15.5860   -25.2150 
  295.8750     2.2790    70.8700    32.1580    30.0930    14.3980   -25.1010 
  296.0000     2.2840    68.5700    31.0180    28.9690    13.8590   -25.0570 
  296.1250     2.2790    66.5580    31.7620    29.5060    13.7890   -25.0860 
  296.2500     2.2710    66.7870    33.7690    31.2690    14.5040   -25.1680 
  296.3750     2.2650    66.6170    36.4760    33.8500    16.7400   -25.3100 
  296.5000     2.2620    63.2390    39.2380    36.6930    20.6080   -25.4960 
  296.6250     2.2610    59.7390    41.3480    39.0720    25.4220   -25.6910 
  296.7500     2.2590    60.5690    42.5920    40.6000    30.5320   -25.8430 
  296.8750     2.2560    64.5660    43.0020    41.1780    35.0820   -25.9360 
  297.0000     2.2520    66.5760    42.7330    40.8980    37.6430   -25.9660 
  297.1250     2.2500    63.3130    41.6960    39.6870    37.5010   -25.9360 
  297.2500     2.2510    58.5440    39.7650    37.5720    35.7000   -25.8940 
  297.3750     2.2590    55.0170    36.7890    34.5300    32.7380   -25.8450 
  297.5000     2.2750    54.2460    33.0410    30.8910    31.3310   -25.7790 
  297.6250     2.2980    56.6780    29.5920    27.5650    29.1830   -25.7270 
  297.7500     2.3160    62.1740    27.9070    25.6060    26.5900   -25.7330 
  297.8750     2.3210    68.3690    29.3670    26.0470    26.3910   -25.8220 
  298.0000     2.3080    69.8000    34.9690    29.8880    33.2290   -26.0010 
  298.1250     2.2790    62.8310    45.3130    38.2910    47.8990   -26.2410 
  298.2500     2.2500    55.5560    57.8270    49.5950    66.7020   -26.4800 
  298.3750     2.2300    53.7520    69.2870    61.1430    82.2420   -26.6970 
  298.5000     2.2220    55.4920    75.9640    69.1900    85.6120   -26.8910 
  298.6250     2.2250    55.7680    74.1360    69.2530    78.2640   -27.0740 
  298.7500     2.2330    55.2690    66.4270    62.9710    65.2460   -27.2290 
  298.8750     2.2420    56.7840    56.7360    54.0610    50.8800   -27.3130 
  299.0000     2.2490    60.8430    48.4200    46.0370    39.1470   -27.3220 
  299.1250     2.2540    65.3330    43.2630    40.7810    33.8880   -27.2730 
  299.2500     2.2590    67.8430    40.5070    37.7220    32.3150   -27.2160 
  299.3750     2.2650    67.7730    39.4360    36.2810    32.4530   -27.1810 
  299.5000     2.2700    66.5710    39.3610    35.9040    33.3330   -27.1590 
  299.6250     2.2750    63.9210    39.8100    36.2200    34.3150   -27.1060 
  299.7500     2.2760    61.5920    40.4690    36.8680    35.4500   -27.0310 
  299.8750     2.2740    61.3680    41.3090    37.7650    36.5030   -26.9430 
  300.0000     2.2700    61.9980    42.3010    38.8450    37.6530   -26.8340 
  300.1250     2.2660    60.8680    43.2110    39.8920    39.5300   -26.7050 
  300.2500     2.2650    59.1630    43.6250    40.5030    41.2820   -26.5520 
  300.3750     2.2660    58.7190    43.1130    40.2340    40.3780   -26.3690 
  300.5000     2.2680    60.0140    41.3740    38.7360    37.8500   -26.1720 
  300.6250     2.2740    63.1990    38.2290    35.7670    34.4660   -25.9610 
  300.7500     2.2860    66.7420    34.3200    31.9810    31.3280   -25.7280 
  300.8750     2.3050    68.0480    30.2740    28.0410    28.6600   -25.4920 
  301.0000     2.3280    66.3070    26.7360    24.6030    25.7470   -25.2650 
  301.1250     2.3440    64.7200    24.4500    22.3450    22.2610   -25.0480 
  301.2500     2.3460    64.8450    23.5470    21.3330    19.9370   -24.8520 
  301.3750     2.3310    66.3260    24.0590    21.5990    20.0350   -24.6640 
  301.5000     2.3070    66.9630    25.8070    23.0540    22.3470   -24.4580 
  301.6250     2.2840    63.8400    28.4350    25.5330    26.3540   -24.2750 
  301.7500     2.2690    59.1890    31.1190    28.3260    30.3100   -24.1290 
  301.8750     2.2630    57.2220    33.2200    30.7940    32.7770   -24.0250 
  302.0000     2.2640    58.0530    34.2930    32.3720    34.5150   -23.9590 
  302.1250     2.2700    59.4410    34.0920    32.6130    35.6660   -23.9300 
  302.2500     2.2780    59.9990    33.1230    31.9270    36.5630   -23.8880 
  302.3750     2.2860    61.8840    31.7620    30.6930    36.1080   -23.8390 
  302.5000     2.2920    66.3150    30.2350    29.1790    34.5580   -23.8030 
  302.6250     2.2950    69.6920    28.5230    27.4050    32.8270   -23.7840 
  302.7500     2.2980    67.8440    26.5650    25.3690    31.2270   -23.7850 
  302.8750     2.3030    63.2930    24.4020    23.1450    28.8790   -23.7900 
  303.0000     2.3110    62.8010    22.2640    20.9690    25.3690   -23.8100 
  303.1250     2.3210    67.4890    20.6370    19.2810    21.5220   -23.8420 
  303.2500     2.3290    70.1940    19.8080    18.2980    18.3110   -23.9130 
  303.3750     2.3340    69.1550    19.8950    18.1110    17.2540   -24.0350 
  303.5000     2.3340    67.2900    20.7870    18.6640    18.6330   -24.2010 
  303.6250     2.3280    65.1380    22.2250    19.8300    21.2920   -24.3940 
  303.7500     2.3190    62.0140    23.7310    21.2190    23.4490   -24.5760 
  303.8750     2.3080    60.2060    25.0340    22.5630    24.6910   -24.7590 
  304.0000     2.2990    61.5360    26.0010    23.6750    25.7860   -24.9390 
  304.1250     2.3000    63.9870    26.6020    24.4530    26.8670   -25.1120 
  304.2500     2.3100    63.8680    27.0000    25.0080    27.5640   -25.2640 
  304.3750     2.3230    63.1230    27.2910    25.4150    26.8050   -25.3900 
  304.5000     2.3330    63.6360    27.5440    25.7210    25.4150   -25.4830 
