~V
VERS. 2.00: Ver 2.00
~W
STRT.M 60.0000:
STOP.M 392.0000:
STEP.M 0.1250:
NULL. -999.2500:
UWI. F10306:
~C
DEPT.M :
DEN.GM/CC :
GR.API :
RML.OHMM :
RI. :
RXO.OHMM :
SP.MV :
~A
# ...
  381.8750     2.3050    87.2120     3.8710     3.3720     3.4020     2.2400 
  382.0000     2.3210    87.2120     3.9670     3.4400     3.6220     2.0230 
  382.1250     2.3500    87.2120     4.1230     3.5610     4.0070     1.7890 
  382.2500     2.3810    87.2120     4.3080     3.7110     4.3830     1.5310 
  382.3750     2.4020    87.2120     4.4890     3.8650     4.7050     1.2860 
  382.5000     2.4090    87.2120     4.6410     4.0030     4.8790     1.0530 
  382.6250     2.4020    87.2120     4.7460     4.1110     4.7480     0.8070 
  382.7500     2.3930    87.2120     4.8370     4.2110     4.5540     0.5810 
  382.8750     2.3910    87.2120     4.9510     4.3300     4.6580     0.3770 
  383.0000     2.3980    87.2120     5.1100     4.4860     4.9630     0.1810 
  383.1250     2.4100    87.2120     5.3080     4.6670     5.3100    -0.0220 
  383.2500     2.4210    87.2120     5.4960     4.8330     5.8040    -0.2060 
  383.3750     2.4270    87.2120     5.6360     4.9510     6.3990    -0.3690 
  383.5000     2.4290    87.2120     5.7140     5.0130     7.0110    -0.4860 
  383.6250     2.4260    87.2120     5.7370     5.0270     7.1580    -0.5550 
  383.7500     2.4220    87.2120     5.7410     5.0270     7.3080    -0.6180 
  383.8750     2.4140    87.2120     5.7410     5.0260     6.7960    -0.6840 
  384.0000     2.4020    87.2120     5.7400     5.0270     5.7290    -0.7280 
  384.1250     2.3860    87.2120     5.7390     5.0260     5.0220    -0.7420 
  384.2500     2.3680    87.2120     5.7360     5.0250     4.6300    -0.7650 
  384.3750     2.3500    87.2120     5.7320     5.0230     4.5430    -0.8230 
  384.5000     2.3360    87.2120     5.7270     5.0200     4.7150    -0.9500 
  384.6250     2.3280    87.2120     5.7210     5.0180     5.0080    -1.0920 
  384.7500     2.3250    87.2120     5.7150     5.0150     5.2170    -1.2520 
  384.8750     2.3260    87.2120     5.7130     5.0120     5.2420    -1.4310 
  385.0000     2.3280    87.2120     5.7140     5.0100     4.9190    -1.6070 
  385.1250     2.3270    87.2120     5.7180     5.0080     4.4400    -1.7850 
  385.2500     2.3230    87.2120     5.7210     5.0090     4.4460    -1.9260 
  385.3750     2.3180    87.2120     5.7220     5.0090     4.7820    -2.0510 
  385.5000     2.3150    87.2120     5.7210     5.0100     5.1440    -2.1190 
  385.6250     2.3150    87.2120     5.7170     5.0090     5.3430    -2.1700 
  385.7500     2.3200    87.2120     5.7140     5.0090     5.2380    -2.1760 
  385.8750     2.3270    87.2120     5.7120     5.0080     4.9220    -2.1480 
  386.0000     2.3310    87.2120     5.7110     5.0070     4.5690    -2.1320 
  386.1250     2.3320    87.2120     5.7100     5.0070     4.1860    -2.0820 
  386.2500     2.3290    87.2120     5.7090     5.0080     3.9160    -2.0540 
  386.3750     2.3280    87.2120     5.7100     5.0100     3.7710    -2.0150 
  386.5000     2.3340    87.2120     5.7120     5.0120     3.6960    -1.9540 
  386.6250     2.3480    87.2120     5.7150     5.0150     3.6340    -1.9020 
  386.7500     2.3670    87.2120     5.7170     5.0170     3.6270    -1.8800 
  386.8750     2.3850    87.2120     5.7170     5.0180     3.7140    -1.8570 
  387.0000     2.3950    87.2120     5.7150     5.0180     3.8460    -1.8180 
  387.1250     2.3950    87.2120     5.7130     5.0190     3.9770    -1.7940 
  387.2500     2.3880    87.2120     5.7120     5.0190     4.1180    -1.7500 
  387.3750     2.3760    87.2120     5.7110     5.0190     4.3330    -1.7120 
  387.5000     2.3630    87.2120     5.7110     5.0190     4.6450    -1.7070 
  387.6250     2.3570    87.2120     5.7110     5.0190     5.0240    -1.6950 
  387.7500     2.3590    87.2120     5.7110     5.0190     5.3630    -1.6540 
  387.8750     2.3680    87.2120     5.7110     5.0190     5.4430    -1.6260 
  388.0000     2.3760    87.2120     5.7110     5.0190     5.1100    -1.5880 
  388.1250     2.3660    87.2120     5.7110     5.0190     4.4010    -1.5410 
  388.2500     2.3290    87.2120     5.7110     5.0190     4.0140    -1.5050 
  388.3750     2.2680    87.2120     5.7110     5.0190     3.8830    -1.4620 
  388.5000     2.1980    87.2120     5.7110     5.0190     3.8650    -1.4340 
  388.6250     2.1380    87.2120     5.7110     5.0190     3.8650    -1.4170 
  388.7500     2.0970    87.2120     5.7110     5.0190     3.8660    -1.4010 
  388.8750     2.0730    87.2120     5.7110     5.0190     3.8660    -1.3790 
  389.0000     2.0630    87.2120     5.7110     5.0190     3.8660    -1.3770 
  389.1250     2.0590    87.2120     5.7110     5.0190     3.8670    -1.3720 
  389.2500     2.0570    87.2120     5.7110     5.0190     3.8670    -1.3250 
  389.3750     2.0560    87.2120     5.7110     5.0190     3.8670    -1.2560 
  389.5000     2.0550    87.2120     5.7110     5.0190     3.8680    -1.1720 
  389.6250     2.0550    87.2120     5.7110     5.0190     3.8680    -1.0750 
  389.7500     2.0550    87.2120     5.7110     5.0190     3.8670    -1.0050 
  389.8750     2.0570    87.2120     5.7110     5.0190     3.8670    -0.9470 
  390.0000     2.0590    87.2120     5.7110     5.0190     3.8670    -0.8780 
  390.1250     2.0600    87.2120     5.7110     5.0190     3.8670    -0.8320 
  390.2500     2.0600    87.2120     5.7110     5.0190     3.8670    -0.8230 
  390.3750     2.0580    87.2120     5.7110     5.0190     3.8670    -0.8290 
  390.5000     2.0560    87.2120     5.7110     5.0190     3.8670    -0.8360 
  390.6250     2.0540    87.2120     5.7110     5.0190     3.8670  -999.2500 
  390.7500     2.0530    87.2120     5.7110     5.0190     3.8680  -999.2500 
  390.8750     2.0520    87.2120     5.7110     5.0190     3.8680  -999.2500 
  391.0000     2.0520    87.2120     5.7110     5.0190     3.8680  -999.2500 
  391.1250     2.0530    87.2120     5.7110     5.0190     3.8680  -999.2500 
  391.2500     2.0540    87.2120     5.7110     5.0190     3.8670  -999.2500 
  391.3750     2.0560    87.2120     5.7110     5.0190     3.8670  -999.2500 
  391.5000     2.0560    87.2120     5.7110     5.0190     3.8670  -999.2500 
  391.6250     2.0550    87.2120     5.7110     5.0190     3.8670  -999.2500 
  391.7500     2.0540    87.2120     5.7110     5.0190     3.8670  -999.2500 
  391.8750     2.0530    87.2120     5.7110     5.0190     3.8670  -999.2500 
  392.0000     2.0520    87.2120     5.7110     5.0190     3.8660  -999.2500 
