~V
VERS. 2.00: Ver 2.00
~W
STRT.M 60.0000:
STOP.M 392.0000:
STEP.M 0.1250:
NULL. -999.2500:
UWI. F10306:
~C
DEPT.M :
DEN.GM/CC :
GR.API :
RML.OHMM :
RI. :
RXO.OHMM :
SP.MV :
~A
# ...
  214.5000     2.2030    66.1540    35.9310    32.9320    41.1260   -27.2570 
  214.6250     2.1940    63.5950    36.1670    33.3330    38.9610   -27.8020 
  214.7500     2.1930    63.1890    36.6030    33.7490    36.8930   -28.2620 
  214.8750     2.1950    64.3930    37.5500    34.4910    37.5970   -28.6260 
  215.0000     2.1940    64.8360    39.1350    35.7470    40.5480   -28.9160 
  215.1250     2.1930    63.8040    41.1930    37.5080    44.5290   -29.1370 
  215.2500     2.1920    63.4680    43.1370    39.3170    47.6480   -29.3100 
  215.3750     2.1950    62.6780    44.5390    40.7440    48.9650   -29.4220 
  215.5000     2.2020    61.5010    45.2660    41.5320    48.8390   -29.4560 
  215.6250     2.2130    62.3830    45.5570    41.7380    49.7760   -29.4110 
  215.7500     2.2260    65.0290    46.0300    41.9350    51.9600   -29.3000 
  215.8750     2.2380    66.7790    47.0940    42.6000    54.2300   -29.1240 
  216.0000     2.2520    65.8600    48.9060    44.0130    56.7790   -28.8710 
  216.1250     2.2700    65.4290    51.3100    46.1890    59.2950   -28.5580 
  216.2500     2.2920    67.1910    53.5760    48.4830    61.8220   -28.1710 
  216.3750     2.3170    68.1580    54.9280    50.1730    64.3590   -27.7350 
  216.5000     2.3420    68.5000    54.6560    50.5580    64.4500   -27.2870 
  216.6250     2.3630    69.3510    52.1550    48.9820    59.8800   -26.8510 
  216.7500     2.3750    69.8240    48.2380    46.0390    53.0590   -26.4280 
  216.8750     2.3760    69.9650    43.8860    42.5290    43.8680   -26.0280 
  217.0000     2.3690    70.1150    40.1400    39.3550    35.0860   -25.6530 
  217.1250     2.3600    70.7580    37.9850    37.3900    29.8130   -25.2940 
  217.2500     2.3560    71.4640    37.3340    36.6670    27.7570   -24.9480 
  217.3750     2.3560    72.1160    37.8520    36.9980    28.7860   -24.6160 
  217.5000     2.3560    71.2810    38.9590    37.9710    31.6210   -24.2930 
  217.6250     2.3510    68.3280    39.9410    39.0250    33.0540   -23.9870 
  217.7500     2.3430    65.7940    40.3700    39.6950    32.2180   -23.7030 
  217.8750     2.3390    65.8470    40.2570    39.8750    29.9490   -23.4330 
  218.0000     2.3470    67.7540    39.9680    39.7690    27.6580   -23.1560 
  218.1250     2.3730    68.6500    40.2150    39.9170    26.6280   -22.8440 
  218.2500     2.4050    66.5100    41.4790    40.8100    27.8210   -22.5300 
  218.3750     2.4350    62.6090    44.0080    42.7610    31.7960   -22.2110 
  218.5000     2.4580    59.8410    47.7690    45.8560    38.1490   -21.8890 
  218.6250     2.4740    59.6980    52.4420    49.9620    46.9610   -21.5780 
  218.7500     2.4880    60.1780    57.0630    54.2440    56.2580   -21.2640 
  218.8750     2.4970    60.4500    60.7390    57.8600    64.0770   -20.9380 
  219.0000     2.4970    60.7280    62.7250    60.0330    70.4980   -20.6160 
  219.1250     2.4860    61.6760    62.4430    60.0990    69.3410   -20.3290 
  219.2500     2.4700    62.6800    60.7040    58.7170    63.9410   -20.0670 
  219.3750     2.4550    62.9190    58.3380    56.6300    55.0440   -19.8240 
  219.5000     2.4400    62.6570    56.1190    54.5820    50.4970   -19.5900 
  219.6250     2.4210    63.3190    54.5370    53.1030    51.7600   -19.3360 
  219.7500     2.3950    64.2000    53.3510    52.0630    53.9130   -19.0440 
  219.8750     2.3670    65.2270    52.1250    51.1040    55.2260   -18.7440 
  220.0000     2.3490    67.4730    50.4230    49.7970    54.5630   -18.4290 
  220.1250     2.3540    71.3410    47.9250    47.7380    51.2140   -18.0910 
  220.2500     2.3790    74.8200    44.9180    45.0890    47.4680   -17.7130 
  220.3750     2.4140    76.0150    41.7730    42.1560    43.1380   -17.2840 
  220.5000     2.4440    73.6140    38.9070    39.3300    38.4860   -16.8190 
  220.6250     2.4540    67.5410    36.8730    37.1390    35.5540   -16.3490 
  220.7500     2.4470    63.9400    35.9140    35.8730    34.6790   -15.9310 
  220.8750     2.4260    65.2760    36.2390    35.7800    34.1100   -15.5440 
  221.0000     2.3970    66.8760    37.8310    36.9260    34.7600   -15.1810 
  221.1250     2.3640    64.7620    40.3510    39.1280    39.0930   -14.8220 
  221.2500     2.3360    61.7110    42.8010    41.4760    45.9660   -14.4500 
  221.3750     2.3220    60.9670    44.3460    43.1400    53.3420   -14.1080 
  221.5000     2.3260    63.3790    44.4200    43.4760    57.7340   -13.7800 
  221.6250     2.3430    69.0000    42.7530    42.0910    55.5920   -13.4650 
  221.7500     2.3580    73.6080    40.1380    39.6940    45.8760   -13.1540 
  221.8750     2.3620    72.2590    37.1970    36.8890    38.4260   -12.8610 
  222.0000     2.3540    67.0640    34.3650    34.1320    36.5500   -12.5910 
  222.1250     2.3380    66.6890    31.8650    31.6840    36.7600   -12.3850 
  222.2500     2.3230    71.0270    29.6520    29.5450    34.1280   -12.2540 
  222.3750     2.3120    73.8700    27.7520    27.7380    29.5580   -12.1640 
  222.5000     2.3080    72.7390    26.2900    26.3340    25.6710   -12.1300 
  222.6250     2.3100    71.8100    25.5960    25.5420    23.3820   -12.1620 
  222.7500     2.3110    72.3340    25.6790    25.3570    22.3900   -12.2200 
  222.8750     2.3080    71.3960    26.4300    25.7410    22.4080   -12.2790 
  223.0000     2.2970    68.3900    27.5660    26.5410    23.8240   -12.3490 
  223.1250     2.2750    67.6460    28.6670    27.4990    26.5070   -12.4130 
  223.2500     2.2470    69.5720    29.4070    28.2970    28.9870   -12.4670 
  223.3750     2.2150    71.2330    29.6910    28.7710    30.0760   -12.5290 
  223.5000     2.1860    71.6310    29.6270    28.9060    30.0740   -12.5780 
  223.6250     2.1690    71.4470    29.5100    28.8480    30.8100   -12.5890 
  223.7500     2.1680    71.3930    29.6600    28.8740    32.5170   -12.5800 
  223.8750     2.1860    70.8680    30.2030    29.1320    34.0050   -12.5720 
  224.0000     2.2220    69.9990    31.0550    29.6270    34.3030   -12.5680 
  224.1250     2.2710    68.6040    31.9270    30.2130    33.8170   -12.5630 
  224.2500     2.3240    67.2410    32.5030    30.6640    34.4020   -12.5570 
  224.3750     2.3710    67.5340    32.6470    30.8440    36.0790   -12.5480 
  224.5000     2.4030    69.9370    32.3990    30.7270    37.6790   -12.5230 
  224.6250     2.4060    73.9160    31.9320    30.3860    36.2040   -12.5020 
  224.7500     2.3860    78.1710    31.5060    30.0140    35.0480   -12.5010 
  224.8750     2.3510    79.7440    31.2440    29.7220    34.5550   -12.5280 
  225.0000     2.3120    77.1020    31.1540    29.5420    33.9990   -12.5790 
  225.1250     2.2840    73.3950    31.1190    29.4130    34.1850   -12.6440 
  225.2500     2.2730    71.9910    30.9580    29.2000    33.6690   -12.7060 
  225.3750     2.2820    72.4450    30.5670    28.8130    32.6350   -12.7530 
  225.5000     2.3090    73.1850    29.9410    28.2380    32.2170   -12.8040 
  225.6250     2.3440    74.5060    29.1470    27.5230    32.0560   -12.8330 
  225.7500     2.3770    76.2230    28.3360    26.7850    31.2660   -12.8560 
  225.8750     2.4040    77.9660    27.5950    26.0970    30.2240   -12.8800 
  226.0000     2.4250    80.1090    26.9760    25.5030    30.1230   -12.9270 
  226.1250     2.4440    81.5130    26.5330    25.0600    30.2600   -12.9970 
  226.2500     2.4620    80.3710    26.2620    24.7810    29.8970   -13.0880 
  226.3750     2.4740    76.5240    26.1620    24.6860    28.8920   -13.1990 
  226.5000     2.4790    72.7880    26.1880    24.7520    27.6190   -13.3190 
  226.6250     2.4720    72.7460    26.2460    24.8960    27.8220   -13.4640 
  226.7500     2.4600    76.0960    26.2180    24.9720    29.0970   -13.6070 
  226.8750     2.4460    79.2840    26.0500    24.8880    30.6770   -13.7410 
  227.0000     2.4340    78.3030    25.7410    24.6140    31.3310   -13.8630 
  227.1250     2.4280    74.7080    25.3110    24.1820    29.1710   -13.9830 
  227.2500     2.4260    72.6070    24.8120    23.7070    27.1900   -14.1030 
