~V
VERS. 2.00: Ver 2.00
~W
STRT.M 53.0000:
STOP.M 371.0000:
STEP.M 0.1250:
NULL. -999.2500:
UWI. F10327:
~C
DEPT.M :
DEN.GM/CC :
GR.API :
RML.OHMM :
RI. :
RXO.OHMM :
SP.MV :
~A
# ...
  284.7500     2.2820    46.8050    33.6430    31.1090    33.7760   -22.3680 
  284.8750     2.2920    45.2480    33.1970    30.6120    33.4220   -22.2760 
  285.0000     2.2980    49.1890    32.7030    30.1080    32.3910   -22.2170 
  285.1250     2.2980    54.4230    32.2740    29.6880    31.9630   -22.1880 
  285.2500     2.2930    57.7520    32.0020    29.4160    31.9590   -22.2020 
  285.3750     2.2860    59.4140    31.9360    29.3220    32.0640   -22.2560 
  285.5000     2.2800    59.7020    32.0890    29.4210    32.2820   -22.3330 
  285.6250     2.2770    59.1790    32.3820    29.6510    32.7200   -22.4090 
  285.7500     2.2740    58.9210    32.7270    29.9440    33.5030   -22.4720 
  285.8750     2.2730    58.8530    33.0440    30.2280    34.4530   -22.4980 
  286.0000     2.2740    58.2410    33.2140    30.3870    34.8820   -22.4870 
  286.1250     2.2780    57.6410    33.1330    30.3150    34.6130   -22.4460 
  286.2500     2.2880    57.7510    32.6800    29.8950    33.5470   -22.3790 
  286.3750     2.3040    57.0340    31.7330    29.0220    31.5870   -22.2870 
  286.5000     2.3250    53.8700    30.1800    27.5980    29.3880   -22.1620 
  286.6250     2.3410    51.1920    28.2080    25.8000    28.2270   -22.0170 
  286.7500     2.3470    51.4470    26.1060    23.8930    27.3850   -21.8580 
  286.8750     2.3420    53.7540    24.1730    22.1390    25.3620   -21.6960 
  287.0000     2.3320    55.6780    22.6840    20.7750    22.1690   -21.5150 
  287.1250     2.3230    57.0390    21.6480    19.8010    20.1650   -21.3040 
  287.2500     2.3180    58.7230    20.9770    19.1430    20.4250   -21.0450 
  287.3750     2.3190    59.5440    20.5730    18.7230    21.5050   -20.7290 
  287.5000     2.3260    58.2910    20.3950    18.5100    21.9230   -20.3630 
  287.6250     2.3350    57.6690    20.3940    18.4630    21.0690   -19.9620 
  287.7500     2.3480    57.9550    20.5190    18.5380    20.2630   -19.5130 
  287.8750     2.3650    56.5330    20.6510    18.6380    20.8000   -18.9940 
  288.0000     2.3850    52.8820    20.5670    18.5670    22.4400   -18.3950 
  288.1250     2.4030    51.1440    20.1250    18.1830    23.6110   -17.7190 
  288.2500     2.4160    54.6920    19.3280    17.4670    22.9820   -16.9870 
  288.3750     2.4240    61.4830    18.2860    16.5510    20.1040   -16.2390 
  288.5000     2.4320    66.0870    17.3390    15.7040    17.1770   -15.5100 
  288.6250     2.4440    68.1890    16.6640    15.1250    15.5290   -14.8390 
  288.7500     2.4570    69.7280    16.2340    14.8530    15.1700   -14.2680 
  288.8750     2.4720    71.5930    16.1990    14.8030    15.8950   -13.8280 
  289.0000     2.4820    73.3970    16.2730    14.8070    16.8870   -13.5380 
  289.1250     2.4840    74.2350    16.1980    14.7170    16.8680   -13.3930 
  289.2500     2.4770    73.0860    15.9390    14.4900    16.2910   -13.3680 
  289.3750     2.4640    69.6590    15.5900    14.1840    15.4740   -13.4290 
  289.5000     2.4510    66.7350    15.3190    13.9320    14.5130   -13.5660 
  289.6250     2.4430    67.0020    15.2300    13.8330    13.9680   -13.7500 
  289.7500     2.4420    70.5320    15.3350    13.9090    13.9760   -13.9670 
  289.8750     2.4450    74.7710    15.5690    14.1100    14.4700   -14.1960 
  290.0000     2.4460    74.5810    15.8020    14.3330    15.1690   -14.4360 
  290.1250     2.4410    70.9930    15.9210    14.4720    15.6200   -14.6780 
  290.2500     2.4290    68.8510    15.8770    14.4750    15.6820   -14.9240 
  290.3750     2.4150    69.7480    15.6870    14.3530    15.3060   -15.1730 
  290.5000     2.4050    71.0950    15.4260    14.1590    14.6430   -15.4130 
  290.6250     2.4030    71.6570    15.1770    13.9630    14.0930   -15.6260 
  290.7500     2.4090    71.2380    14.9820    13.7970    14.0430   -15.8130 
  290.8750     2.4220    69.8450    14.8310    13.6580    14.1670   -15.9830 
  291.0000     2.4350    69.7850    14.6870    13.5220    14.1800   -16.1490 
  291.1250     2.4460    73.3730    14.5120    13.3650    14.1940   -16.3210 
  291.2500     2.4510    77.7440    14.3010    13.1810    14.0940   -16.5200 
  291.3750     2.4500    78.2660    14.0780    12.9770    13.5620   -16.7590 
  291.5000     2.4430    75.3670    13.8790    12.7720    12.9890   -17.0520 
  291.6250     2.4300    73.8610    13.7160    12.5840    12.7910   -17.3870 
  291.7500     2.4150    76.0190    13.5810    12.4210    12.7950   -17.7540 
  291.8750     2.4020    79.0370    13.4590    12.2880    12.7450   -18.1430 
  292.0000     2.3910    77.7260    13.3440    12.1890    12.4870   -18.5690 
  292.1250     2.3840    72.4070    13.2460    12.1220    12.4740   -19.0320 
  292.2500     2.3770    69.1850    13.1820    12.0880    12.7060   -19.5210 
  292.3750     2.3700    70.6880    13.1700    12.0940    12.9050   -20.0320 
  292.5000     2.3630    71.2490    13.2400    12.1640    12.9750   -20.5490 
  292.6250     2.3550    67.9010    13.4040    12.3150    12.8850   -21.0620 
  292.7500     2.3480    64.3180    13.6710    12.5610    12.8060   -21.5620 
  292.8750     2.3470    64.0010    14.0250    12.8920    12.8160   -22.0470 
  293.0000     2.3490    64.5630    14.4090    13.2690    13.0420   -22.4890 
  293.1250     2.3530    63.1540    14.7390    13.6130    13.4620   -22.8650 
  293.2500     2.3550    60.1720    14.9440    13.8580    14.1740   -23.1580 
  293.3750     2.3520    57.7850    14.9980    13.9700    15.0080   -23.3610 
  293.5000     2.3450    57.8530    14.9370    13.9650    14.8530   -23.4820 
  293.6250     2.3380    58.9070    14.8650    13.9320    14.5840   -23.5450 
  293.7500     2.3310    59.8490    14.8620    13.9440    14.5220   -23.5570 
  293.8750     2.3280    60.5350    14.9540    14.0340    14.7200   -23.5150 
  294.0000     2.3270    62.1990    15.1100    14.1870    15.2840   -23.4330 
  294.1250     2.3290    64.1220    15.2720    14.3530    16.1420   -23.3380 
  294.2500     2.3310    65.7420    15.4220    14.5040    16.8650   -23.2420 
  294.3750     2.3330    66.1690    15.5950    14.6560    16.4740   -23.1420 
  294.5000     2.3350    65.6050    15.8770    14.8670    15.7540   -23.0360 
  294.6250     2.3380    65.8920    16.3030    15.1780    15.5850   -22.9360 
  294.7500     2.3390    65.6370    16.8480    15.5890    16.1180   -22.8500 
  294.8750     2.3380    62.8140    17.4480    16.0580    16.9580   -22.7950 
  295.0000     2.3350    61.2410    18.0560    16.5400    17.5490   -22.7620 
  295.1250     2.3320    63.4580    18.7120    17.0490    17.8030   -22.7380 
  295.2500     2.3330    67.3360    19.5840    17.6980    18.0640   -22.7280 
  295.3750     2.3360    68.7040    20.9500    18.7020    17.9630   -22.7240 
  295.5000     2.3430    67.1530    23.3320    20.5010    19.3740   -22.6960 
  295.6250     2.3530    64.1080    27.0300    23.4090    22.4710   -22.6380 
  295.7500     2.3650    59.9060    32.2850    27.7420    27.0530   -22.5620 
  295.8750     2.3800    54.9770    39.1760    33.7220    33.4280   -22.4720 
  296.0000     2.3980    50.6920    47.4310    41.3730    43.0780   -22.3840 
  296.1250     2.4240    49.1630    55.7450    49.6370    56.3010   -22.2960 
  296.2500     2.4550    49.4750    62.3910    56.9290    66.2910   -22.1930 
  296.3750     2.4850    49.0530    65.6430    61.4720    66.9380   -22.0710 
  296.5000     2.4990    48.5500    64.3150    61.4060    63.3390   -21.9450 
  296.6250     2.4910    51.7120    59.5040    57.4680    59.0450   -21.8100 
  296.7500     2.4650    57.1990    53.4530    51.5550    48.7420   -21.6560 
  296.8750     2.4330    60.9710    48.7160    45.7720    37.0030   -21.4800 
  297.0000     2.4120    60.9300    45.0990    41.8940    32.0580   -21.2780 
  297.1250     2.4040    57.7930    43.7550    40.2720    31.8670   -21.0570 
  297.2500     2.4090    53.4700    44.6930    40.7550    35.3880   -20.8340 
  297.3750     2.4250    51.0090    47.3810    43.0080    42.0830   -20.6410 
  297.5000     2.4530    51.0310    51.3670    46.7500    53.7720   -20.5000 
