~V
VERS. 2.00: Ver 2.00
~W
STRT.M 53.0000:
STOP.M 371.0000:
STEP.M 0.1250:
NULL. -999.2500:
UWI. F10327:
~C
DEPT.M :
DEN.GM/CC :
GR.API :
RML.OHMM :
RI. :
RXO.OHMM :
SP.MV :
~A
# ...
  233.2500     2.2580    79.9550     5.2000     4.3580     4.7460    -4.5090 
  233.3750     2.2580    81.1390     5.3060     4.4460     4.6990    -4.6630 
  233.5000     2.2600    77.4440     5.4150     4.5410     4.7060    -4.8450 
  233.6250     2.2640    73.3680     5.5190     4.6360     4.8380    -5.0530 
  233.7500     2.2670    72.4040     5.6090     4.7260     5.0030    -5.2380 
  233.8750     2.2680    73.6920     5.6800     4.8060     5.1060    -5.3500 
  234.0000     2.2700    76.2910     5.7190     4.8590     5.1960    -5.3650 
  234.1250     2.2720    80.7680     5.7190     4.8790     5.2630    -5.3200 
  234.2500     2.2760    86.5720     5.6780     4.8600     5.3410    -5.2380 
  234.3750     2.2810    90.9980     5.5970     4.8050     5.3800    -5.1120 
  234.5000     2.2840    92.0000     5.4870     4.7230     5.4270    -4.9150 
  234.6250     2.2860    89.7070     5.3810     4.6400     5.3500    -4.6620 
  234.7500     2.2880    85.3180     5.3060     4.5800     5.1770    -4.3950 
  234.8750     2.2940    81.2830     5.2870     4.5610     5.0040    -4.1750 
  235.0000     2.3040    81.7170     5.3350     4.6000     4.9570    -4.0020 
  235.1250     2.3120    84.5290     5.4210     4.6800     5.1010    -3.8360 
  235.2500     2.3130    85.1360     5.5020     4.7720     5.2680    -3.6840 
  235.3750     2.3040    84.6900     5.5380     4.8420     5.3540    -3.5630 
  235.5000     2.2910    85.2790     5.4850     4.8480     5.3330    -3.4880 
  235.6250     2.2820    84.5520     5.3490     4.7800     5.2330    -3.4370 
  235.7500     2.2840    81.1730     5.1600     4.6510     5.1030    -3.3660 
  235.8750     2.2940    77.9440     4.9540     4.4850     4.9700    -3.2700 
  236.0000     2.3060    78.3420     4.7720     4.3170     4.8020    -3.2010 
  236.1250     2.3130    81.0730     4.6320     4.1700     4.6210    -3.1650 
  236.2500     2.3150    83.3980     4.5350     4.0570     4.5400    -3.1240 
  236.3750     2.3120    83.0070     4.4720     3.9770     4.5350    -3.0560 
  236.5000     2.3080    80.2960     4.4460     3.9310     4.5870    -2.9800 
  236.6250     2.3040    78.0790     4.4600     3.9210     4.6740    -2.9270 
  236.7500     2.3020    77.5560     4.5270     3.9540     4.7820    -2.9150 
  236.8750     2.3040    77.7620     4.6510     4.0360     4.8320    -2.9200 
  237.0000     2.3070    77.8170     4.8230     4.1690     4.8190    -2.9100 
  237.1250     2.3110    80.0860     5.0070     4.3320     4.8760    -2.8930 
  237.2500     2.3140    84.4160     5.1730     4.5020     5.0810    -2.9160 
  237.3750     2.3170    86.5110     5.3030     4.6600     5.3070    -2.9920 
  237.5000     2.3170    84.5170     5.4030     4.7980     5.4630    -3.0670 
  237.6250     2.3190    82.0070     5.5040     4.9280     5.5370    -3.1240 
  237.7500     2.3220    82.0800     5.6310     5.0670     5.5900    -3.1890 
  237.8750     2.3270    83.7060     5.7980     5.2250     5.6690    -3.2850 
  238.0000     2.3340    85.2110     5.9970     5.4060     5.8290    -3.4160 
  238.1250     2.3420    85.6060     6.1940     5.5860     6.0940    -3.5670 
  238.2500     2.3520    83.9360     6.3510     5.7370     6.3840    -3.7230 
  238.3750     2.3640    80.9540     6.4370     5.8300     6.6210    -3.8970 
  238.5000     2.3770    77.6250     6.4230     5.8350     6.7100    -4.1080 
  238.6250     2.3810    75.4010     6.3240     5.7590     6.7550    -4.3350 
  238.7500     2.3690    74.5560     6.1670     5.6210     6.7400    -4.5760 
  238.8750     2.3320    75.2280     5.9880     5.4500     6.6100    -4.8330 
  239.0000     2.2670    78.1160     5.8430     5.2950     6.3920    -5.1350 
  239.1250     2.1940    80.1720     5.7840     5.1990     6.2030    -5.4990 
  239.2500     2.1310    76.9780     5.8510     5.2040     6.0720    -5.8970 
  239.3750     2.0920    70.0180     6.0710     5.3350     6.0300    -6.3140 
  239.5000     2.0820    68.4510     6.4540     5.6120     6.1610    -6.7960 
  239.6250     2.0910    72.2250     6.9400     5.9970     6.5210    -7.3920 
  239.7500     2.1100    74.4970     7.4580     6.4330     7.0610    -8.0820 
  239.8750     2.1320    72.8070     7.9330     6.8550     7.6930    -8.8330 
  240.0000     2.1560    70.8880     8.2850     7.1840     8.1600    -9.6130 
  240.1250     2.1840    70.6810     8.4960     7.3930     8.3570   -10.3990 
  240.2500     2.2120    70.3920     8.5870     7.4880     8.4160   -11.1960 
  240.3750     2.2340    68.8060     8.6000     7.5030     8.4590   -11.9880 
  240.5000     2.2400    67.4880     8.5950     7.4850     8.5950   -12.6960 
  240.6250     2.2310    68.1170     8.6230     7.4840     8.6810   -13.2750 
  240.7500     2.2170    70.1230     8.7050     7.5280     8.7090   -13.7270 
  240.8750     2.2050    72.2270     8.8410     7.6290     8.6850   -14.0760 
  241.0000     2.2010    72.6310     9.0100     7.7840     8.8600   -14.3130 
  241.1250     2.2010    70.9810     9.1790     7.9700     9.1610   -14.4280 
  241.2500     2.2030    67.6740     9.3250     8.1600     9.3990   -14.3910 
  241.3750     2.2020    64.5300     9.4380     8.3340     9.5690   -14.1990 
  241.5000     2.2000    64.4470     9.5000     8.4620     9.7680   -13.8600 
  241.6250     2.1970    66.6450     9.4910     8.5190     9.9070   -13.3890 
  241.7500     2.1980    68.5490     9.3700     8.4660     9.9120   -12.7620 
  241.8750     2.2020    68.4500     9.0950     8.2660     9.7570   -11.9400 
  242.0000     2.2060    67.3210     8.6220     7.8750     9.4540   -10.9410 
  242.1250     2.2090    67.9810     8.0000     7.3320     8.9570    -9.8540 
  242.2500     2.2110    72.0410     7.3040     6.7010     8.2100    -8.7490 
  242.3750     2.2160    77.6950     6.6170     6.0580     7.2010    -7.6630 
  242.5000     2.2270    82.4040     6.0370     5.4910     6.3320    -6.6650 
  242.6250     2.2420    84.9480     5.6140     5.0490     5.7250    -5.7870 
  242.7500     2.2580    85.0770     5.3770     4.7640     5.3170    -5.0810 
  242.8750     2.2740    83.5400     5.3470     4.6570     5.1270    -4.5580 
  243.0000     2.2930    81.8180     5.5550     4.7610     5.1800    -4.2070 
  243.1250     2.3160    81.0520     5.9590     5.0500     5.4430    -3.9740 
  243.2500     2.3390    80.0920     6.4990     5.4890     5.9590    -3.8280 
  243.3750     2.3540    78.1230     7.0950     6.0280     6.8050    -3.7540 
  243.5000     2.3550    75.1050     7.6310     6.5860     7.7830    -3.7190 
  243.6250     2.3430    72.0660     8.0150     7.0700     8.3140    -3.6840 
  243.7500     2.3260    71.1470     8.1910     7.4040     8.2570    -3.6140 
  243.8750     2.3090    73.2780     8.1430     7.5380     8.1230    -3.5180 
  244.0000     2.2960    75.8680     7.8630     7.4240     8.1270    -3.4120 
  244.1250     2.2840    77.4440     7.4040     7.0940     8.0160    -3.2890 
  244.2500     2.2710    78.4030     6.8080     6.5880     7.7280    -3.1300 
  244.3750     2.2580    78.0930     6.1260     5.9600     7.3320    -2.9370 
  244.5000     2.2500    76.7200     5.4280     5.2900     6.7640    -2.7470 
  244.6250     2.2510    75.8050     4.7940     4.6620     5.8930    -2.5680 
  244.7500     2.2570    75.1140     4.2730     4.1300     4.8870    -2.3910 
  244.8750     2.2640    72.1920     3.8800     3.7130     4.0810    -2.2350 
  245.0000     2.2670    68.3830     3.6080     3.4140     3.6850    -2.1030 
  245.1250     2.2650    68.4230     3.4170     3.2010     3.5290    -2.0180 
  245.2500     2.2630    71.7930     3.2960     3.0580     3.4280    -2.0140 
  245.3750     2.2670    74.0020     3.2560     2.9880     3.3000    -2.0670 
  245.5000     2.2780    73.1850     3.3320     3.0190     3.2120    -2.1220 
  245.6250     2.2910    70.4110     3.5270     3.1540     3.2430    -2.2120 
  245.7500     2.3000    67.7910     3.8190     3.3830     3.4480    -2.3480 
  245.8750     2.2990    67.7510     4.1590     3.6760     3.9440    -2.5020 
  246.0000     2.2880    73.0290     4.4700     3.9710     4.6580    -2.6630 
