~V
VERS. 2.00: Ver 2.00
~W
STRT.M 54.0000:
STOP.M 355.0000:
STEP.M 0.1250:
NULL. -999.2500:
UWI. F10328:
~C
DEPT.M :
DEN.GM/CC :
SP.MV :
R2M. :
R025. :
RA2. :
GR.API :
RML.OHMM :
RI. :
RXO.OHMM :
~A
# ...
  291.2500     2.2190   -33.2530    50.7280    27.2480    50.7280    50.1410    39.2680    37.5530    76.9670 
  291.3750     2.2800   -33.2210    50.9550    26.8660    50.9550    53.5580    37.1410    35.3260    65.9630 
  291.5000     2.3250   -33.1320    50.8830    26.2770    50.8830    56.7320    35.4840    33.4610    54.2710 
  291.6250     2.3300   -33.0250    50.5510    25.5490    50.5510    56.9570    34.2690    32.0220    53.8150 
  291.7500     2.3130   -32.8660    50.0010    24.8240    50.0010    54.9180    33.1010    30.7320    58.9680 
  291.8750     2.2860   -32.7070    49.2670    24.1850    49.2670    52.7760    31.6720    29.3380    60.4350 
  292.0000     2.2650   -32.5200    48.4740    23.6540    48.4740    52.7000    29.9070    27.7390    55.2660 
  292.1250     2.2650   -32.2840    47.8510    23.1840    47.8510    55.3600    28.1380    26.1560    47.0590 
  292.2500     2.2760   -32.0300    47.5900    22.6870    47.5900    58.0060    26.8740    24.9760    44.0320 
  292.3750     2.2820   -31.7450    47.7580    22.1600    47.7580    59.9440    26.4300    24.4650    41.5480 
  292.5000     2.2730   -31.4310    48.1530    21.6970    48.1530    61.1560    26.8920    24.7300    39.9500 
  292.6250     2.2550   -31.0950    48.6120    21.5170    48.6120    59.9360    28.2010    25.7900    41.7880 
  292.7500     2.2430   -30.7370    49.1800    21.6840    49.1800    55.9120    29.8470    27.2420    50.3360 
  292.8750     2.2420   -30.3570    49.9010    22.1180    49.9010    52.8760    31.4500    28.7470    57.1440 
  293.0000     2.2530   -29.9700    50.6900    22.6040    50.6900    54.2640    32.7260    30.0000    52.8660 
  293.1250     2.2670   -29.5970    51.4480    22.8380    51.4480    56.0140    33.4370    30.6930    51.1600 
  293.2500     2.2790   -29.2090    52.1470    22.7300    52.1470    54.5860    33.6040    30.8120    53.7680 
  293.3750     2.2840   -28.8070    52.7250    22.3280    52.7250    52.4720    33.1090    30.2800    57.5380 
  293.5000     2.2810   -28.3990    53.1590    21.7580    53.1590    52.4150    31.7030    28.9280    57.7700 
  293.6250     2.2730   -27.9410    53.2960    21.1240    53.2960    53.8360    29.1000    26.5350    53.2970 
  293.7500     2.2750   -27.4740    53.0290    20.4650    53.0290    55.6410    25.9450    23.6680    48.4050 
  293.8750     2.2960   -26.9790    52.2390    19.7600    52.2390    58.7570    23.0700    21.0240    42.3120 
  294.0000     2.3260   -26.4440    50.9290    19.0360    50.9290    62.9130    21.2190    19.2040    34.1950 
  294.1250     2.3400   -25.9430    49.2980    18.4790    49.2980    66.7760    21.0590    18.7560    24.5790 
  294.2500     2.3230   -25.4420    47.6100    18.2950    47.6100    68.5390    22.3710    19.5820    25.0760 
  294.3750     2.2790   -24.9640    46.0060    18.5940    46.0060    66.5720    24.8830    21.5860    35.7410 
  294.5000     2.2280   -24.4890    44.7140    19.2850    44.7140    61.7190    28.0720    24.4660    49.1280 
  294.6250     2.1870   -23.9600    44.0650    20.0420    44.0650    57.1020    31.0760    27.5810    56.1470 
  294.7500     2.1730   -23.3920    44.0570    20.4700    44.0570    53.6950    33.0640    30.0150    54.2380 
  294.8750     2.1890   -22.7460    44.7180    20.3700    44.7180    51.8460    33.4520    31.0240    52.3570 
  295.0000     2.2310   -22.0140    45.9470    19.7200    45.9470    52.6740    31.9260    30.0980    50.3790 
  295.1250     2.2870   -21.1640    47.4480    18.5610    47.4480    55.4170    28.3570    26.9670    46.9120 
  295.2500     2.3370   -20.1980    48.6770    17.1280    48.6770    58.7800    23.7930    22.7300    41.7890 
  295.3750     2.3750   -19.1620    48.9580    15.5530    48.9580    64.9280    19.2080    18.3980    32.6160 
  295.5000     2.4040   -18.1180    47.8110    13.9450    47.8110    74.7010    15.4360    14.7750    19.6700 
  295.6250     2.4280   -17.1470    45.2800    12.4310    45.2800    81.6010    13.0780    12.3820    11.1830 
  295.7500     2.4450   -16.3040    42.0670    11.1210    42.0670    81.5970    11.8020    10.9460    10.4670 
  295.8750     2.4540   -15.6350    38.4240    10.1100    38.4240    78.3030    11.2720    10.2200    11.0470 
  296.0000     2.4550   -15.1370    34.5240     9.4570    34.5240    78.1920    11.1580     9.9590    10.8440 
  296.1250     2.4510   -14.8440    30.4720     9.2000    30.4720    85.3560    11.2150     9.9810    10.0460 
  296.2500     2.4470   -14.7360    26.5600     9.1760    26.5600    94.0080    11.3040    10.1010     9.4500 
  296.3750     2.4430   -14.7850    23.3690     9.2500    23.3690    98.3640    11.4710    10.2990     8.9190 
  296.5000     2.4410   -14.9400    21.3020     9.3200    21.3020    97.6830    11.8240    10.6230     8.8170 
  296.6250     2.4380   -15.1960    20.2530     9.3790    20.2530    93.0220    12.4440    11.1440     9.6490 
  296.7500     2.4300   -15.4760    19.6210     9.4950    19.6210    87.9410    13.1820    11.7800    11.9340 
  296.8750     2.4140   -15.7510    19.2150     9.7280    19.2150    82.8070    13.8530    12.3950    14.0670 
  297.0000     2.3880   -16.0790    18.9370    10.0780    18.9370    78.1470    14.2930    12.8450    15.0150 
  297.1250     2.3620   -16.4090    18.7070    10.4530    18.7070    76.5130    14.4130    13.0090    15.3670 
  297.2500     2.3460   -16.7980    18.5180    10.7210    18.5180    78.7900    14.3800    12.9880    14.5430 
  297.3750     2.3480   -17.2190    18.3840    10.8280    18.3840    82.3240    14.3620    12.9080    13.7700 
  297.5000     2.3680   -17.6150    18.2280    10.8090    18.2280    81.1140    14.4610    12.8800    15.0460 
  297.6250     2.3960   -18.0060    17.8760    10.7660    17.8760    75.9090    14.6890    12.9610    16.2380 
  297.7500     2.4140   -18.3400    17.5670    10.7970    17.5670    73.0020    14.9480    13.1100    17.5690 
  297.8750     2.4210   -18.5870    17.3190    10.9320    17.3190    73.1170    15.1740    13.2770    18.5270 
  298.0000     2.4210   -18.7540    17.0790    11.1320    17.0790    74.2060    15.3340    13.4160    17.4040 
  298.1250     2.4220   -18.8300    16.9010    11.2890    16.9010    75.4410    15.4080    13.4850    17.4040 
  298.2500     2.4260   -18.8080    16.7510    11.3210    16.7510    78.0700    15.4030    13.4770    22.6800 
  298.3750     2.4360   -18.7350    16.5700    11.2260    16.5700    80.2750    15.3060    13.3830    28.1930 
  298.5000     2.4480   -18.6360    16.3950    11.0770    16.3950    80.4550    15.1170    13.2040    20.6130 
  298.6250     2.4610   -18.5400    16.3840    10.9940    16.3840    79.1090    14.8530    12.9490    14.4910 
  298.7500     2.4740   -18.5090    16.3000    11.0130    16.3000    78.6340    14.5630    12.6620    12.8160 
  298.8750     2.4880   -18.5650    16.1280    11.0870    16.1280    79.1040    14.2780    12.3760    12.8900 
  299.0000     2.5020   -18.7130    15.9480    11.1280    15.9480    79.5230    14.0120    12.1130    12.9230 
  299.1250     2.5090   -18.9900    15.7610    11.0840    15.7610    81.2640    13.7800    11.8870    12.9810 
  299.2500     2.5020   -19.3980    15.5760    11.0420    15.5760    83.5340    13.6440    11.7220    12.9640 
  299.3750     2.4830   -19.9160    15.4210    11.1320    15.4210    84.1020    13.7430    11.7050    13.1900 
  299.5000     2.4540   -20.5720    15.3160    11.4750    15.3160    82.1210    14.2600    11.9690    13.2950 
  299.6250     2.4210   -21.3500    15.3390    12.1620    15.3390    78.7130    15.4960    12.7550    13.8770 
  299.7500     2.3900   -22.1760    15.6000    13.0860    15.6000    75.3980    17.4660    14.1300    15.8790 
  299.8750     2.3610   -23.0760    16.1550    14.1520    16.1550    71.4130    20.1110    16.1320    21.4370 
  300.0000     2.3370   -23.9450    17.0370    15.2690    17.0370    66.6190    23.1410    18.6300    32.2130 
  300.1250     2.3210   -24.7500    18.0840    16.3870    18.0840    64.6170    25.9110    21.1920    43.2660 
  300.2500     2.3130   -25.4940    19.0280    17.4880    19.0280    66.1910    27.8280    23.2080    45.5420 
