~V
VERS. 2.00: Ver 2.00
~W
STRT.M 54.0000:
STOP.M 355.0000:
STEP.M 0.1250:
NULL. -999.2500:
UWI. F10328:
~C
DEPT.M :
DEN.GM/CC :
SP.MV :
R2M. :
R025. :
RA2. :
GR.API :
RML.OHMM :
RI. :
RXO.OHMM :
~A
# ...
  327.7500     2.3600    -0.4810     7.9130     5.3280     7.9130    99.3980     7.7100     6.3030     6.6220 
  327.8750     2.3630    -0.4830     7.8950     5.1570     7.8950    98.2400     7.7400     6.3880     6.8610 
  328.0000     2.3760    -0.4490     7.8650     4.9810     7.8650    93.9350     7.7020     6.3900     6.6930 
  328.1250     2.3940    -0.3640     7.7960     4.8750     7.7960    91.3350     7.5850     6.2870     6.5630 
  328.2500     2.4080    -0.2310     7.5610     4.8480     7.5610    92.3730     7.4040     6.1130     6.6880 
  328.3750     2.4140    -0.0750     7.2490     4.8690     7.2490    93.3290     7.1690     5.9000     6.7730 
  328.5000     2.4120     0.1150     6.9620     4.8710     6.9620    91.9480     6.9070     5.6760     6.3610 
  328.6250     2.4060     0.3120     6.6160     4.7680     6.6160    88.1430     6.6780     5.4780     5.9270 
  328.7500     2.4020     0.4640     6.2530     4.5600     6.2530    85.8880     6.5210     5.3240     5.5890 
  328.8750     2.4010     0.5560     5.9300     4.2970     5.9300    85.9940     6.4420     5.2170     5.2720 
  329.0000     2.4020     0.5990     5.6680     4.0650     5.6680    87.7290     6.4300     5.1520     5.0890 
  329.1250     2.3940     0.5800     5.4780     3.9680     5.4780    88.2370     6.4560     5.1210     5.1970 
  329.2500     2.3760     0.5120     5.4100     4.0040     5.4100    86.1870     6.4760     5.0990     5.4070 
  329.3750     2.3500     0.4120     5.3480     4.1230     5.3480    85.6870     6.4590     5.0680     5.3720 
  329.5000     2.3190     0.2780     5.2110     4.2450     5.2110    88.6130     6.3810     5.0110     5.0780 
  329.6250     2.2930     0.1150     5.0940     4.2900     5.0940    91.4640     6.2310     4.9210     4.9440 
  329.7500     2.2750    -0.0350     5.0040     4.2570     5.0040    90.2050     6.0760     4.8300     5.0110 
  329.8750     2.2620    -0.1540     4.9560     4.1980     4.9560    84.9920     6.0130     4.7950     5.2150 
  330.0000     2.2570    -0.2630     4.9420     4.2050     4.9420    78.7910     6.1570     4.8970     5.4890 
  330.1250     2.2640    -0.3450     5.0330     4.4060     5.0330    74.4350     6.6840     5.2770     5.8330 
  330.2500     2.2920    -0.4080     5.2660     4.8060     5.2660    73.1830     7.6240     5.9850     6.3870 
  330.3750     2.3460    -0.4580     5.6070     5.3440     5.6070    73.8700     8.9300     7.0290     7.4990 
  330.5000     2.4240    -0.4740     6.0330     5.8880     6.0330    73.9350    10.3530     8.2720     9.3420 
  330.6250     2.4860    -0.4660     6.5420     6.2290     6.5420    70.3180    11.2750     9.2540    11.5540 
  330.7500     2.5000    -0.4490     7.0340     6.2680     7.0340    66.2660    11.2430     9.4990    13.2160 
  330.8750     2.4650    -0.4410     7.3970     6.0020     7.3970    67.0680    10.2380     8.8770    12.7160 
  331.0000     2.4010    -0.4230     7.5090     5.5330     7.5090    75.4470     8.7110     7.6950    10.3390 
  331.1250     2.3360    -0.4500     7.3450     5.0520     7.3450    85.0760     7.3220     6.4670     6.8900 
  331.2500     2.2900    -0.5080     7.0290     4.7150     7.0290    87.7410     6.3760     5.5130     5.1320 
  331.3750     2.2670    -0.5600     6.5800     4.5440     6.5800    86.2460     5.8620     4.8850     4.5690 
  331.5000     2.2600    -0.6650     6.0070     4.4600     6.0070    87.1790     5.6480     4.5330     4.5090 
  331.6250     2.2560    -0.8280     5.3390     4.3500     5.3390    91.8880     5.5960     4.3910     4.4890 
  331.7500     2.2480    -0.9940     4.6770     4.1870     4.6770    94.5220     5.6020     4.3610     4.5680 
  331.8750     2.2400    -1.1910     4.1170     4.0450     4.1170    95.6230     5.7060     4.4390     4.5970 
  332.0000     2.2350    -1.4440     3.7930     4.0440     3.7930    95.5740     6.0150     4.6730     4.6890 
  332.1250     2.2390    -1.7040     3.7390     4.3410     3.7390    91.6150     6.7080     5.1880     5.2750 
  332.2500     2.2430    -1.9710     3.8200     4.9180     3.8200    83.4130     7.7610     5.9990     6.7840 
  332.3750     2.2440    -2.2740     4.0110     5.7080     4.0110    75.5360     9.0710     7.0770     9.2710 
  332.5000     2.2480    -2.5710     4.2960     6.5890     4.2960    71.9940    10.4170     8.2840    11.3490 
  332.6250     2.2780    -2.8120     4.6360     7.3950     4.6360    71.4140    11.4480     9.3360    12.8760 
  332.7500     2.3330    -3.0670     5.0120     8.0520     5.0120    69.5650    12.0460    10.0410    12.9400 
  332.8750     2.3920    -3.3140     5.4300     8.5860     5.4300    67.6000    12.3070    10.3990    12.3910 
  333.0000     2.4220    -3.5090     5.8760     9.0990     5.8760    67.5760    12.4830    10.5820    11.6380 
  333.1250     2.4000    -3.6740     6.3140     9.7370     6.3140    68.1310    12.9220    10.8680    11.7100 
  333.2500     2.3520    -3.8100     6.7130    10.5320     6.7130    66.5200    13.7990    11.4530    13.2310 
  333.3750     2.3040    -3.9170     7.0420    11.4470     7.0420    65.2140    15.1890    12.4400    15.4740 
  333.5000     2.2690    -4.0250     7.2760    12.4070     7.2760    66.0910    17.0470    13.8510    17.1130 
  333.6250     2.2550    -4.1530     7.6350    13.3120     7.6350    66.2570    19.1360    15.5800    19.1040 
  333.7500     2.2570    -4.2590     8.1310    14.0980     8.1310    63.5240    20.9260    17.2170    23.5200 
  333.8750     2.2690    -4.3880     8.6750    14.7170     8.6750    62.5520    21.9390    18.3400    29.2220 
  334.0000     2.2830    -4.5420     9.2040    15.1570     9.2040    65.5560    21.9280    18.6650    30.2570 
  334.1250     2.2870    -4.6620     9.6520    15.4210     9.6520    67.0010    20.9950    18.1540    26.7010 
  334.2500     2.2800    -4.8120    10.0910    15.5990    10.0910    66.6130    19.8250    17.3230    22.9390 
  334.3750     2.2690    -4.9900    10.6130    15.7420    10.6130    66.3230    18.8570    16.5390    19.9620 
  334.5000     2.2620    -5.1500    11.2780    15.8730    11.2780    65.7230    18.3300    16.0420    19.5610 
  334.6250     2.2630    -5.3130    11.9410    16.0110    11.9410    63.6720    18.4180    16.0290    20.0510 
  334.7500     2.2670    -5.5090    12.5920    16.1970    12.5920    63.9370    19.0660    16.5000    20.7240 
  334.8750     2.2670    -5.6870    13.3130    16.5090    13.3130    65.2940    20.3130    17.5110    21.0480 
  335.0000     2.2590    -5.8430    14.2300    17.0290    14.2300    63.0680    22.1860    19.1000    22.9850 
  335.1250     2.2490    -6.0640    15.5460    17.8440    15.5460    58.9950    24.6540    21.3080    25.6140 
  335.2500     2.2460    -6.2820    17.1120    18.8480    17.1120    58.6920    27.2390    23.7760    31.8900 
  335.3750     2.2560    -6.4580    18.7690    19.8970    18.7690    61.2940    29.3930    26.0510    38.1740 
  335.5000     2.2780    -6.6530    20.4270    20.8120    20.4270    63.7290    30.6550    27.6650    40.0140 
  335.6250     2.2990    -6.8280    22.0270    21.3920    22.0270    63.6770    30.7740    28.2520    37.5610 
  335.7500     2.3040    -6.9540    23.5940    21.6550    23.5940    61.1570    30.2500    28.1210    33.6550 
  335.8750     2.2880    -7.0660    25.1420    21.6810    25.1420    57.7500    29.4800    27.5890    32.0250 
  336.0000     2.2610    -7.1450    26.6400    21.5990    26.6400    55.9860    28.7270    26.9350    33.0690 
  336.1250     2.2360    -7.1840    27.8160    21.5150    27.8160    56.0060    28.0860    26.3300    35.5970 
  336.2500     2.2200    -7.2140    28.6590    21.4580    28.6590    55.7100    27.5290    25.8180    33.2240 
  336.3750     2.2130    -7.2170    29.3320    21.4070    29.3320    54.7730    27.0870    25.4350    29.9460 
  336.5000     2.2150    -7.1800    29.9850    21.3360    29.9850    54.2770    26.8220    25.2270    27.9210 
  336.6250     2.2250    -7.1700    30.6830    21.2240    30.6830    56.0720    26.8090    25.2580    28.6290 
  336.7500     2.2360    -7.1510    31.3890    21.0780    31.3890    58.4840    26.9800    25.4840    30.4530 
