~V
VERS. 2.00: Ver 2.00
~W
STRT.M 60.0000:
STOP.M 392.0000:
STEP.M 0.1250:
NULL. -999.2500:
UWI. F10306:
~C
DEPT.M :
DEN.GM/CC :
GR.API :
RML.OHMM :
RI. :
RXO.OHMM :
SP.MV :
~A
# ...
  188.7500     2.3310    95.4070     6.4500     5.4560     5.8300   -14.6730 
  188.8750     2.2830    90.4180     6.9400     5.9030     7.0770   -15.0820 
  189.0000     2.2420    81.3820     7.5170     6.5450     8.4580   -15.6310 
  189.1250     2.2170    72.6510     7.9670     7.1580     9.1960   -16.2690 
  189.2500     2.2050    66.7260     8.2100     7.5720     9.1620   -16.9200 
  189.3750     2.2030    63.9430     8.2780     7.7510     8.9310   -17.5170 
  189.5000     2.2050    64.1020     8.2690     7.7500     8.7970   -18.0220 
  189.6250     2.2090    64.4370     8.2720     7.6590     8.7790   -18.3860 
  189.7500     2.2110    62.9280     8.3060     7.5560     8.7930   -18.5980 
  189.8750     2.2110    60.4370     8.3500     7.4610     8.8530   -18.6610 
  190.0000     2.2100    59.0970     8.3780     7.3870     8.9860   -18.5940 
  190.1250     2.2090    60.3130     8.3710     7.3530     9.1450   -18.4220 
  190.2500     2.2070    62.5610     8.3430     7.3680     9.2480   -18.2270 
  190.3750     2.2060    64.7680     8.3220     7.4440     9.2650   -18.0040 
  190.5000     2.2060    66.6270     8.3620     7.5920     9.2510   -17.7040 
  190.6250     2.2080    68.7330     8.5550     7.8510     9.2880   -17.2900 
  190.7500     2.2130    68.8210     8.9010     8.2040     9.4650   -16.8260 
  190.8750     2.2230    64.2230     9.3260     8.5940     9.8610   -16.3300 
  191.0000     2.2380    57.8920     9.6650     8.8990    10.3890   -15.7990 
  191.1250     2.2580    58.2290     9.6600     8.9010    10.8200   -15.1730 
  191.2500     2.2760    65.0450     9.2590     8.5350    10.7590   -14.4230 
  191.3750     2.2860    73.7880     8.5460     7.8440     9.6650   -13.6140 
  191.5000     2.2880    82.1310     7.7150     6.9960     7.6880   -12.8260 
  191.6250     2.2820    83.4970     7.5640     6.8370     7.3940   -12.1000 
  191.7500     2.2760    89.2430     6.8700     6.1130     6.1100   -11.4490 
  191.8750     2.2730    90.8630     6.3590     5.6300     5.5380   -10.8900 
  192.0000     2.2750    89.2490     6.0030     5.3990     5.5120   -10.4570 
  192.1250     2.2820    89.7530     5.7760     5.3840     5.7090   -10.2350 
  192.2500     2.2880    92.0550     5.6570     5.4770     5.7800   -10.2220 
  192.3750     2.2890    93.0570     5.6850     5.6500     5.7050   -10.3510 
  192.5000     2.2820    92.3380     5.9080     5.9080     5.6180   -10.5660 
  192.6250     2.2660    92.0130     6.3670     6.2750     5.6660   -10.8990 
  192.7500     2.2460    92.6650     6.9440     6.6980     6.0440   -11.2760 
  192.8750     2.2270    92.5250     7.4900     7.0970     6.7210   -11.6350 
  193.0000     2.2160    89.1170     7.8550     7.3740     7.5000   -11.9370 
  193.1250     2.2180    83.3590     7.9060     7.4230     7.8730   -12.1360 
  193.2500     2.2290    79.4470     7.7290     7.2840     7.7370   -12.2250 
  193.3750     2.2460    80.4690     7.4350     7.0350     7.3050   -12.2310 
  193.5000     2.2640    84.0840     7.1390     6.7780     6.7710   -12.1620 
  193.6250     2.2790    85.8560     6.9270     6.6040     6.3620   -11.9940 
  193.7500     2.2910    86.6080     6.7960     6.5230     6.1850   -11.7960 
  193.8750     2.3000    87.2980     6.7190     6.5020     6.1190   -11.6340 
  194.0000     2.3050    89.8330     6.6680     6.4930     6.0320   -11.5230 
  194.1250     2.3000    93.6360     6.6450     6.4560     5.9240   -11.4890 
  194.2500     2.2840    96.9800     6.6860     6.3990     5.8990   -11.5480 
  194.3750     2.2630    97.4550     6.8480     6.3700     5.9780   -11.7100 
  194.5000     2.2420    95.5890     7.1640     6.4260     6.0870   -12.0080 
  194.6250     2.2280    93.2760     7.6160     6.6270     6.1910   -12.4300 
  194.7500     2.2220    89.6710     8.0580     6.9300     6.3540   -12.8890 
  194.8750     2.2210    86.2140     8.3560     7.2550     6.6020   -13.3740 
  195.0000     2.2210    85.4410     8.4300     7.5070     6.9710   -13.9010 
  195.1250     2.2200    84.6110     8.2830     7.5950     7.3750   -14.4170 
  195.2500     2.2180    81.4240     8.0820     7.5560     7.4980   -14.8840 
  195.3750     2.2160    79.6820     7.9420     7.4530     7.4570   -15.2910 
  195.5000     2.2150    82.4930     7.9100     7.3500     7.4390   -15.6200 
  195.6250     2.2120    83.9660     7.9590     7.2850     7.5260   -15.8760 
  195.7500     2.2080    81.3810     8.0010     7.2380     7.6760   -16.0840 
  195.8750     2.2020    78.8770     7.9850     7.1830     7.7910   -16.2090 
  196.0000     2.1980    78.1610     7.8980     7.1000     7.7540   -16.2630 
  196.1250     2.1990    78.2200     7.7490     6.9810     7.6210   -16.3210 
  196.2500     2.2060    80.2240     7.5840     6.8490     7.4080   -16.4110 
  196.3750     2.2160    85.1210     7.4360     6.7260     7.1770   -16.5170 
  196.5000     2.2270    88.9060     7.3270     6.6320     7.0030   -16.6250 
  196.6250     2.2350    86.5560     7.2620     6.5930     6.8990   -16.7470 
  196.7500     2.2400    82.4710     7.2290     6.6080     6.8490   -16.9280 
  196.8750     2.2420    81.5080     7.2530     6.6770     6.8340   -17.1910 
  197.0000     2.2410    83.7380     7.3750     6.7990     6.8280   -17.5060 
  197.1250     2.2390    84.2880     7.6450     6.9740     6.8940   -17.8760 
  197.2500     2.2340    81.0770     8.0010     7.1770     6.9690   -18.2950 
  197.3750     2.2260    74.3840     8.3520     7.3750     7.1230   -18.7720 
  197.5000     2.2170    66.5010     8.6010     7.5350     7.2830   -19.2820 
  197.6250     2.2080    63.4320     8.6750     7.6230     7.3250   -19.7470 
  197.7500     2.2000    65.4180     8.6420     7.6570     7.2800   -20.1320 
  197.8750     2.1930    68.6700     8.5850     7.6720     7.2810   -20.4390 
  198.0000     2.1890    69.5440     8.5710     7.7010     7.3770   -20.7070 
  198.1250     2.1870    67.9070     8.6370     7.7600     7.6640   -20.8860 
  198.2500     2.1850    66.4470     8.7490     7.8210     7.9680   -20.9570 
  198.3750     2.1830    66.5070     8.8460     7.8500     8.0850   -20.9100 
  198.5000     2.1820    68.1040     8.8670     7.8250     7.9520   -20.7980 
  198.6250     2.1820    68.6960     8.7710     7.7370     7.7110   -20.6780 
  198.7500     2.1810    68.8220     8.6230     7.6160     7.6510   -20.5430 
  198.8750     2.1800    70.1130     8.5060     7.4930     7.7460   -20.3850 
  199.0000     2.1770    70.6160     8.4910     7.4040     7.9110   -20.1590 
  199.1250     2.1760    67.4700     8.6260     7.4220     8.0750   -19.8620 
  199.2500     2.1770    63.5220     8.8920     7.6070     8.3920   -19.5350 
  199.3750     2.1790    61.2220     9.3030     8.0080     8.8020   -19.1390 
  199.5000     2.1800    61.0760     9.8370     8.6220     9.1530   -18.6210 
  199.6250     2.1810    62.3580    10.4110     9.3380     9.3410   -17.9510 
  199.7500     2.1850    64.4500    10.7790     9.9010     9.3800   -17.1960 
  199.8750     2.1990    67.0420    10.7670    10.0790     9.2440   -16.3910 
  200.0000     2.2230    72.1320    10.2420     9.7360     8.7920   -15.5440 
  200.1250     2.2530    80.9270     9.4430     8.8880     7.9880   -14.6640 
  200.2500     2.2790    89.3830     8.6340     7.8840     7.0390   -13.8270 
  200.3750     2.2940    93.2500     7.8570     6.9770     6.2850   -13.1370 
  200.5000     2.3010    92.0420     7.2580     6.3060     6.0880   -12.6310 
  200.6250     2.3030    88.6070     6.9620     5.9270     6.2910   -12.3110 
  200.7500     2.3040    86.5670     6.7770     5.7440     6.4440   -12.1200 
  200.8750     2.3060    87.6100     6.6530     5.7140     6.3710   -12.0420 
  201.0000     2.3060    91.0750     6.6900     5.8560     6.3560   -12.0680 
  201.1250     2.3040    92.7220     7.2700     6.3600     6.7770   -12.1840 
  201.2500     2.2940    89.3550     8.6400     7.3890     7.8940   -12.3240 
  201.3750     2.2730    82.3750    10.8540     9.0570    10.1030   -12.4550 
  201.5000     2.2400    75.4410    13.5680    11.2460    13.8490   -12.5640 
