~V
VERS. 2.00: Ver 2.00
~W
STRT.M 54.0000:
STOP.M 355.0000:
STEP.M 0.1250:
NULL. -999.2500:
UWI. F10328:
~C
DEPT.M :
DEN.GM/CC :
SP.MV :
R2M. :
R025. :
RA2. :
GR.API :
RML.OHMM :
RI. :
RXO.OHMM :
~A
# ...
   72.2500     2.3970   -25.4480     9.5470     6.0600     9.5470    91.7270     9.5300     6.9550     7.9350 
   72.3750     2.3730   -25.4330     9.2890     6.1880     9.2890    94.2520     8.9340     6.4200     6.4140 
   72.5000     2.3360   -25.7490     8.8760     6.3650     8.8760    90.6410     8.5940     6.0560     6.3470 
   72.6250     2.2850   -26.3840     8.1770     6.5880     8.1770    84.5090     8.5170     5.9270     6.7600 
   72.7500     2.2260   -27.1730     7.3950     6.8490     7.3950    78.4130     8.5850     5.9790     7.7650 
   72.8750     2.1650   -28.0300     6.8930     7.1730     6.8930    71.8280     8.8440     6.2180     9.0380 
   73.0000     2.1250   -28.8650     6.8230     7.6310     6.8230    64.1740     9.5260     6.7340     9.9800 
   73.1250     2.1510   -29.6570     7.3040     8.3660     7.3040    59.5330    11.1570     7.8140    10.5650 
   73.2500     2.2620   -30.3990     8.2290     9.3530     8.2290    59.3290    13.8150     9.5800    12.6640 
   73.3750     2.4270   -31.0780     9.3410    10.4180     9.3410    60.0120    17.2470    12.0160    19.1110 
   73.5000     2.5450   -31.6950    10.3830    11.2480    10.3830    58.5430    20.5640    14.6680    39.0630 
   73.6250     2.5240   -32.2360    11.0840    11.4160    11.0840    56.5130    21.7860    16.1320    63.2650 
   73.7500     2.4250   -32.7530    11.5420    10.9350    11.5420    55.7260    20.2620    15.5840    74.8300 
   73.8750     2.3100   -33.2280    11.7810     9.9970    11.7810    55.3090    16.9520    13.4880    45.2550 
   74.0000     2.2190   -33.6760    11.7310     8.9240    11.7310    54.6210    13.5560    11.0220    18.0850 
   74.1250     2.1760   -34.0390    11.2610     8.0620    11.2610    55.5300    11.3360     9.1400    12.4770 
   74.2500     2.1680   -34.3250    10.4910     7.5150    10.4910    56.8860    10.2030     7.9520    10.9640 
   74.3750     2.1770   -34.4930     9.5390     7.2540     9.5390    57.0210     9.8450     7.3490    10.9260 
   74.5000     2.1850   -34.5160     8.6140     7.1850     8.6140    56.6320     9.9090     7.1620    10.9490 
   74.6250     2.1830   -34.4010     7.9630     7.1980     7.9630    57.9280    10.1150     7.2440    10.6760 
   74.7500     2.1800   -34.1610     7.5080     7.1870     7.5080    59.9000    10.3110     7.4180    10.2970 
   74.8750     2.1830   -33.8480     7.1750     7.1190     7.1750    62.1170    10.4990     7.6200    10.0870 
   75.0000     2.1950   -33.4710     7.1220     6.9950     7.1220    64.2710    10.6940     7.8140     9.9560 
   75.1250     2.2110   -33.0980     7.3270     6.8300     7.3270    68.5160    10.8520     7.9540     9.8800 
   75.2500     2.2160   -32.7190     7.5890     6.6750     7.5890    74.2130    10.9040     8.0170     9.5620 
   75.3750     2.2040   -32.3630     7.9370     6.5710     7.9370    77.9600    10.8140     7.9930     9.0780 
   75.5000     2.1800   -32.0400     8.3410     6.5480     8.3410    74.3270    10.6080     7.8980     8.4390 
   75.6250     2.1550   -31.7470     8.7790     6.6100     8.7790    62.7690    10.3700     7.7670     8.1870 
   75.7500     2.1370   -31.4930     9.2230     6.6830     9.2230    54.8410    10.1870     7.6480     8.2860 
   75.8750     2.1290   -31.2660     9.6360     6.6980     9.6360    55.4710    10.0900     7.5610     8.4500 
   76.0000     2.1320   -31.0490     9.8470     6.6130     9.8470    58.4370    10.0650     7.5030     8.8090 
   76.1250     2.1400   -30.7690     9.8690     6.4340     9.8690    57.7590    10.0840     7.4550     9.4210 
   76.2500     2.1520   -30.4250     9.8560     6.2570     9.8560    56.3910    10.1290     7.4080     9.8410 
   76.3750     2.1660   -29.9760     9.7690     6.1570     9.7690    56.6000    10.2070     7.3730     9.9480 
   76.5000     2.1740   -29.4230     9.6140     6.1720     9.6140    56.9460    10.3150     7.3630    10.2440 
   76.6250     2.1660   -28.7270     9.3920     6.2830     9.3920    54.2060    10.4080     7.3730    10.7110 
   76.7500     2.1430   -27.9180     9.1940     6.3870     9.1940    50.6520    10.4210     7.3670    10.8560 
   76.8750     2.1150   -26.9890     9.0810     6.3970     9.0810    51.0070    10.3170     7.3090    10.7220 
   77.0000     2.0980   -25.9600     9.0180     6.2740     9.0180    56.8660    10.1080     7.1770    10.5380 
   77.1250     2.1170   -24.8750     8.9340     6.0440     8.9340    64.4380     9.8350     6.9750    10.3250 
   77.2500     2.1590   -23.7860     8.8260     5.8340     8.8260    70.2480     9.5600     6.7600     9.7770 
   77.3750     2.2020   -22.7570     8.8580     5.7450     8.8580    74.8590     9.3310     6.5910     8.9880 
   77.5000     2.2230   -21.8080     9.0000     5.8280     9.0000    77.1400     9.2170     6.5290     8.5210 
   77.6250     2.2300   -20.9600     9.1030     6.0660     9.1030    74.8790     9.3710     6.6570     8.5010 
   77.7500     2.2460   -20.1890     9.2750     6.3270     9.2750    72.0530     9.8530     6.9790     8.5480 
   77.8750     2.2820   -19.5000     9.5200     6.5080     9.5200    70.5110    10.6430     7.4850     9.3120 
   78.0000     2.3290   -18.8880     9.8520     6.5470     9.8520    68.1910    11.5560     8.0950    10.9450 
   78.1250     2.3620   -18.3500    10.2450     6.4220    10.2450    65.2640    12.1890     8.5920    12.4850 
   78.2500     2.3720   -17.8710    10.5650     6.2140    10.5650    65.8490    12.2460     8.7480    13.4750 
   78.3750     2.3590   -17.4600    10.6190     5.9830    10.6190    71.6460    11.6480     8.4480    13.7220 
   78.5000     2.3360   -17.1280    10.4740     5.7680    10.4740    81.6990    10.5700     7.7540    13.3000 
   78.6250     2.3160   -16.9700    10.3500     5.5800    10.3500    94.6420     9.3810     6.8870     8.0820 
   78.7500     2.3050   -16.9830    10.1280     5.3900    10.1280   109.7360     8.4150     6.1170     6.2250 
   78.8750     2.3050   -17.1800     9.7650     5.1760     9.7650   122.9960     7.7960     5.5590     5.6450 
   79.0000     2.3130   -17.5900     9.2640     4.9480     9.2640   131.5620     7.5380     5.2480     5.6560 
   79.1250     2.3190   -18.2540     8.7030     4.7820     8.7030   135.7270     7.6240     5.2030     5.7240 
   79.2500     2.3150   -19.1200     8.2200     4.7560     8.2200   138.6060     7.9000     5.3270     5.9170 
   79.3750     2.2980   -20.1470     7.8440     4.9060     7.8440   139.5410     8.2760     5.5540     6.3530 
   79.5000     2.2700   -21.3170     7.5510     5.1880     7.5510   137.2990     8.6800     5.8260     6.9600 
   79.6250     2.2350   -22.5660     7.3010     5.4900     7.3010   129.5900     9.0500     6.1070     7.3980 
   79.7500     2.1990   -23.8330     7.0960     5.6940     7.0960   115.5980     9.3500     6.3720     7.7150 
   79.8750     2.1670   -25.0590     6.9770     5.7590     6.9770    97.3680     9.5660     6.6010     8.4350 
   80.0000     2.1390   -26.1790     6.9240     5.7060     6.9240    79.8000     9.7000     6.7730     9.1810 
   80.1250     2.1180   -27.1460     6.8810     5.6050     6.8810    69.2920     9.7520     6.8590     9.5090 
   80.2500     2.1040   -27.9140     6.8520     5.5350     6.8520    65.4520     9.7500     6.8730     9.4510 
   80.3750     2.0980   -28.4810     6.8470     5.5320     6.8470    66.4540     9.7030     6.8340     9.2730 
   80.5000     2.0980   -28.7830     6.8610     5.5910     6.8610    67.3280     9.6350     6.7670     9.2900 
   80.6250     2.1020   -28.8220     6.8860     5.6650     6.8860    64.6050     9.5760     6.6960     9.4230 
   80.7500     2.1080   -28.6350     6.9160     5.6920     6.9160    60.7550     9.5430     6.6390     9.5250 
   80.8750     2.1140   -28.2840     6.9070     5.6600     6.9070    59.2560     9.5410     6.6110     9.5630 
   81.0000     2.1220   -27.7800     6.8770     5.6020     6.8770    61.2100     9.5680     6.6180     9.5610 
   81.1250     2.1290   -27.1050     6.9050     5.5930     6.9050    64.7600     9.6300     6.6680     9.5880 
   81.2500     2.1350   -26.2980     6.9750     5.6630     6.9750    67.2920     9.7300     6.7440     9.7230 
