~V
VERS. 2.00: Ver 2.00
~W
STRT.M 54.0000:
STOP.M 355.0000:
STEP.M 0.1250:
NULL. -999.2500:
UWI. F10328:
~C
DEPT.M :
DEN.GM/CC :
SP.MV :
R2M. :
R025. :
RA2. :
GR.API :
RML.OHMM :
RI. :
RXO.OHMM :
~A
# ...
  227.3750     2.3020    -6.8810    13.1820     4.4470    13.1820    82.8290     6.0930     5.3630     5.1640 
  227.5000     2.3000    -6.7230    12.8860     4.2130    12.8860    79.8460     5.9360     5.1510     5.3290 
  227.6250     2.3110    -6.5790    12.2800     4.1740    12.2800    82.2800     5.9250     5.0780     5.2530 
  227.7500     2.3230    -6.4630    11.5020     4.2620    11.5020    82.5670     5.9970     5.0960     4.9710 
  227.8750     2.3320    -6.3690    10.6880     4.3760    10.6880    80.0570     6.1200     5.1760     4.7330 
  228.0000     2.3380    -6.3060     9.9120     4.4190     9.9120    79.9420     6.2640     5.2880     4.8200 
  228.1250     2.3400    -6.2580     9.1080     4.3330     9.1080    82.4180     6.3910     5.4010     5.0800 
  228.2500     2.3370    -6.2290     8.2640     4.1850     8.2640    82.1830     6.4730     5.4790     5.2110 
  228.3750     2.3280    -6.2170     7.4860     4.0530     7.4860    81.2090     6.5010     5.4990     5.1720 
  228.5000     2.3140    -6.2310     6.8760     3.9850     6.8760    84.0740     6.4720     5.4490     5.0550 
  228.6250     2.2970    -6.2890     6.4720     3.9890     6.4720    89.7690     6.3740     5.3240     4.9620 
  228.7500     2.2820    -6.3550     6.2290     4.0080     6.2290    93.8330     6.2200     5.1510     4.8820 
  228.8750     2.2710    -6.4240     6.0610     3.9900     6.0610    96.4700     6.0290     4.9590     4.7590 
  229.0000     2.2730    -6.5090     5.9320     3.9030     5.9320    96.6220     5.8480     4.7810     4.5850 
  229.1250     2.2910    -6.5970     5.8840     3.7510     5.8840    90.6970     5.7470     4.6690     4.5560 
  229.2500     2.3140    -6.7180     5.8770     3.6090     5.8770    82.8740     5.7550     4.6410     4.5730 
  229.3750     2.3280    -6.8310     5.8600     3.5530     5.8600    80.2790     5.8660     4.6950     4.6990 
  229.5000     2.3260    -6.9770     5.8140     3.6400     5.8140    82.6760     6.0520     4.8110     5.0530 
  229.6250     2.3130    -7.0950     5.8020     3.8720     5.8020    84.6620     6.2710     4.9550     5.2970 
  229.7500     2.3010    -7.2110     5.7980     4.1220     5.7980    83.6350     6.4720     5.0830     5.3830 
  229.8750     2.2960    -7.3580     5.8210     4.2860     5.8210    80.9650     6.6210     5.1720     5.3060 
  230.0000     2.2960    -7.4750     5.8770     4.3080     5.8770    78.6830     6.6990     5.2150     5.2730 
  230.1250     2.2950    -7.6000     5.9470     4.1980     5.9470    77.5520     6.7050     5.2180     5.5250 
  230.2500     2.2920    -7.7180     5.9990     4.0750     5.9990    76.5220     6.6870     5.2090     5.7400 
  230.3750     2.2900    -7.8180     6.0250     4.0300     6.0250    75.7470     6.6760     5.1990     5.8010 
  230.5000     2.2930    -7.8940     6.0300     4.1060     6.0300    76.9110     6.6780     5.1860     5.6310 
  230.6250     2.3020    -7.9450     5.9960     4.2720     5.9960    83.4640     6.6620     5.1510     5.9750 
  230.7500     2.3110    -7.9690     6.0190     4.4150     6.0190    90.6310     6.6010     5.0850     6.1930 
  230.8750     2.3180    -7.9650     6.0940     4.4480     6.0940    93.2140     6.5060     4.9990     5.8040 
  231.0000     2.3230    -7.9530     6.0670     4.3530     6.0670    90.9000     6.4180     4.9210     5.0230 
  231.1250     2.3230    -7.9410     6.0030     4.1970     6.0030    89.3890     6.4240     4.9020     5.0140 
  231.2500     2.3220    -7.9030     5.9850     4.1050     5.9850    89.3620     6.5820     4.9820     5.1980 
  231.3750     2.3290    -7.8640     5.9940     4.1410     5.9940    86.2010     6.8980     5.1820     5.4030 
  231.5000     2.3540    -7.7920     6.0240     4.3060     6.0240    78.4660     7.2900     5.4710     5.9220 
  231.6250     2.3970    -7.6800     6.1500     4.5260     6.1500    71.9710     7.5610     5.7300     5.9670 
  231.7500     2.4300    -7.5460     6.2300     4.6800     6.2300    68.9150     7.5730     5.8340     5.8540 
  231.8750     2.4310    -7.3720     6.1670     4.6910     6.1670    68.5890     7.2930     5.7240     5.9700 
  232.0000     2.3980    -7.2040     6.1200     4.5350     6.1200    72.8410     6.8250     5.4320     6.1410 
  232.1250     2.3550    -6.9940     6.0880     4.2530     6.0880    78.9620     6.3700     5.0760     5.1620 
  232.2500     2.3240    -6.8030     6.0310     3.9860     6.0310    80.9020     6.0680     4.7830     4.6230 
  232.3750     2.3130    -6.6110     5.9700     3.8370     5.9700    80.3140     5.9380     4.6020     4.6680 
  232.5000     2.3150    -6.4320     5.8980     3.8370     5.8980    81.4750     5.9460     4.5340     5.0390 
  232.6250     2.3150    -6.3200     5.7540     3.9330     5.7540    84.6640     6.0410     4.5620     5.2020 
  232.7500     2.3080    -6.2210     5.5890     3.9960     5.5890    86.5980     6.1470     4.6220     4.9620 
  232.8750     2.2950    -6.1620     5.4940     3.9580     5.4940    86.4370     6.2310     4.6730     4.6390 
  233.0000     2.2810    -6.1070     5.4640     3.8200     5.4640    83.9070     6.2840     4.6990     4.4980 
  233.1250     2.2670    -6.0590     5.4680     3.6620     5.4680    79.7400     6.2960     4.6940     4.5850 
  233.2500     2.2600    -6.0140     5.4720     3.5830     5.4720    77.5470     6.2600     4.6680     4.6420 
  233.3750     2.2610    -5.9600     5.4280     3.6190     5.4280    77.2860     6.1690     4.6230     4.5930 
  233.5000     2.2660    -5.9270     5.3950     3.7290     5.3950    76.6190     6.0420     4.5630     4.4880 
  233.6250     2.2760    -5.8950     5.4110     3.7860     5.4110    78.2820     5.9180     4.4950     4.3380 
  233.7500     2.2870    -5.8900     5.4270     3.7040     5.4270    82.8030     5.8370     4.4400     4.2740 
  233.8750     2.2960    -5.9030     5.4500     3.5030     5.4500    86.3960     5.8240     4.4210     4.2230 
  234.0000     2.3040    -5.9070     5.4640     3.2940     5.4640    86.3060     5.8900     4.4560     4.2610 
  234.1250     2.3130    -5.9400     5.4460     3.2400     5.4460    87.1640     6.0410     4.5590     4.4100 
  234.2500     2.3200    -5.9760     5.4120     3.3790     5.4120    91.2390     6.2370     4.7080     4.6240 
  234.3750     2.3230    -6.0300     5.4080     3.6590     5.4080    94.6490     6.4400     4.8770     4.9480 
  234.5000     2.3230    -6.0750     5.3870     3.9710     5.3870    95.4350     6.6090     5.0390     5.2780 
  234.6250     2.3220    -6.1110     5.3260     4.1750     5.3260    95.8150     6.7120     5.1640     5.3900 
  234.7500     2.3210    -6.1410     5.2790     4.2200     5.2790    97.2620     6.7600     5.2440     5.2910 
  234.8750     2.3240    -6.1350     5.2470     4.1180     5.2470    97.4860     6.7630     5.2760     5.2120 
  235.0000     2.3330    -6.1460     5.2340     3.9390     5.2340    95.5340     6.7270     5.2620     5.1870 
  235.1250     2.3470    -6.1240     5.2550     3.8070     5.2550    93.2090     6.6510     5.1980     5.1560 
  235.2500     2.3600    -6.1090     5.2940     3.7860     5.2940    91.5370     6.5470     5.0950     5.0520 
  235.3750     2.3660    -6.0970     5.3210     3.8500     5.3210    90.5560     6.4220     4.9540     4.8760 
  235.5000     2.3590    -6.0770     5.3260     3.9160     5.3260    88.4960     6.2730     4.7830     4.6240 
  235.6250     2.3420    -6.0840     5.3000     3.8750     5.3000    86.0850     6.0820     4.5850     4.3200 
  235.7500     2.3260    -6.0820     5.2740     3.7140     5.2740    84.9380     5.8550     4.3800     4.1430 
  235.8750     2.3190    -6.1070     5.3380     3.4870     5.3380    84.2800     5.6180     4.1870     4.0410 
  236.0000     2.3190    -6.1600     5.5260     3.2850     5.5260    83.1350     5.4130     4.0300     3.9920 
  236.1250     2.3290    -6.2420     5.5770     3.2270     5.5770    80.3130     5.2920     3.9490     3.9070 
  236.2500     2.3450    -6.3420     5.4910     3.3250     5.4910    79.6380     5.2660     3.9500     3.8750 
  236.3750     2.3610    -6.4650     5.4020     3.5310     5.4020    81.6240     5.3420     4.0370     3.9930 
