~V
VERS. 2.00: Ver 2.00
~W
STRT.M 54.0000:
STOP.M 355.0000:
STEP.M 0.1250:
NULL. -999.2500:
UWI. F10328:
~C
DEPT.M :
DEN.GM/CC :
SP.MV :
R2M. :
R025. :
RA2. :
GR.API :
RML.OHMM :
RI. :
RXO.OHMM :
~A
# ...
  309.5000     2.2710   -24.0980    44.4190    19.8380    44.4190    57.3590    27.4100    24.2800    33.1840 
  309.6250     2.2800   -24.1440    44.3090    20.0460    44.3090    57.5180    28.1330    24.9270    37.8970 
  309.7500     2.2880   -24.2130    44.1790    20.1960    44.1790    57.6690    28.4390    25.2750    41.3700 
  309.8750     2.2970   -24.2530    43.9580    20.1640    43.9580    57.7920    28.2410    25.1980    40.9330 
  310.0000     2.3080   -24.2790    43.7150    19.9440    43.7150    57.8580    27.6870    24.7660    36.8020 
  310.1250     2.3230   -24.3130    43.5370    19.6490    43.5370    56.8290    27.0750    24.2020    32.8290 
  310.2500     2.3410   -24.3170    43.3540    19.4430    43.3540    54.9640    26.6200    23.7310    31.3020 
  310.3750     2.3560   -24.3070    42.9950    19.3750    42.9950    54.3390    26.3180    23.3980    32.4920 
  310.5000     2.3620   -24.2760    42.3570    19.3800    42.3570    56.3670    26.0710    23.1510    35.7330 
  310.6250     2.3580   -24.2130    41.5970    19.3320    41.5970    60.0150    25.8050    22.9270    35.2040 
  310.7500     2.3470   -24.1410    40.8130    19.1970    40.8130    61.9460    25.5690    22.7340    33.3730 
  310.8750     2.3360   -24.0960    40.0360    19.0390    40.0360    62.1940    25.4940    22.6610    28.8020 
  311.0000     2.3290   -24.0240    39.3370    18.9660    39.3370    61.3870    25.6950    22.8170    24.3940 
  311.1250     2.3330   -23.9500    38.7180    19.0930    38.7180    58.9890    26.2000    23.2800    26.2090 
  311.2500     2.3400   -23.8910    38.2380    19.3580    38.2380    56.3970    26.8220    23.9130    31.6270 
  311.3750     2.3410   -23.8050    37.9730    19.6400    37.9730    55.6730    27.3970    24.5630    36.9780 
  311.5000     2.3270   -23.7530    37.8810    19.8160    37.8810    57.6130    27.8010    25.0740    38.9940 
  311.6250     2.2990   -23.7050    37.7610    19.8120    37.7610    60.1230    27.9530    25.2970    35.4440 
  311.7500     2.2710   -23.6300    37.7170    19.7140    37.7170    60.5590    27.9190    25.2770    33.4290 
  311.8750     2.2570   -23.5450    37.8780    19.6120    37.8780    60.2570    27.7200    25.0540    34.0740 
  312.0000     2.2630   -23.4940    38.1740    19.5780    38.1740    61.1250    27.3270    24.6380    35.7270 
  312.1250     2.2870   -23.4340    38.4970    19.6160    38.4970    62.9140    26.6930    24.0080    34.8140 
  312.2500     2.3120   -23.3900    38.6800    19.6460    38.6800    63.1040    25.9750    23.2900    35.4560 
  312.3750     2.3280   -23.3860    38.6190    19.6340    38.6190    62.2170    25.3800    22.6500    37.9870 
  312.5000     2.3330   -23.3700    38.3590    19.6090    38.3590    62.2420    25.1340    22.2700    35.7040 
  312.6250     2.3240   -23.3800    38.0540    19.7160    38.0540    62.0540    25.5440    22.4220    29.7140 
  312.7500     2.3080   -23.4240    37.7960    20.0710    37.7960    60.4490    26.6210    23.1720    32.6840 
  312.8750     2.2910   -23.4770    37.5740    20.7160    37.5740    57.6390    28.3070    24.5290    40.9260 
  313.0000     2.2850   -23.5270    37.3220    21.5830    37.3220    54.5150    30.4100    26.3720    46.8910 
  313.1250     2.3040   -23.5870    37.1540    22.5180    37.1540    53.2910    32.6200    28.4600    43.9880 
  313.2500     2.3340   -23.6570    37.3860    23.3470    37.3860    54.4640    34.5450    30.3900    44.8290 
  313.3750     2.3520   -23.7220    37.9340    23.9950    37.9340    57.1360    35.9050    31.8620    52.4240 
  313.5000     2.3390   -23.8170    38.6340    24.4790    38.6340    59.6080    36.6030    32.7350    47.2810 
  313.6250     2.2980   -23.8720    39.3190    24.8770    39.3190    60.5990    36.6800    33.0000    40.7600 
  313.7500     2.2520   -23.9290    39.9070    25.2930    39.9070    58.5070    36.4440    32.9210    36.2900 
  313.8750     2.2220   -23.9680    40.4040    25.7400    40.4040    53.3830    36.0960    32.6650    35.9790 
  314.0000     2.2220   -23.9610    40.9290    26.1810    40.9290    48.6010    35.8640    32.4420    38.0500 
  314.1250     2.2520   -23.9530    41.4930    26.5460    41.4930    48.4760    36.1210    32.5900    39.7270 
  314.2500     2.2880   -23.8750    41.8880    26.8540    41.8880    50.6020    37.0360    33.3040    42.0400 
  314.3750     2.3150   -23.7370    42.3720    27.2030    42.3720    50.2950    38.6950    34.7070    43.6550 
  314.5000     2.3260   -23.5750    43.3010    27.7110    43.3010    47.1390    41.0270    36.8140    41.8060 
  314.6250     2.3190   -23.3860    44.8280    28.4640    44.8280    45.2000    43.7240    39.4990    46.1120 
  314.7500     2.3040   -23.1650    46.6310    29.3410    46.6310    46.0690    46.1130    42.1860    58.1350 
  314.8750     2.2850   -22.9380    48.6350    30.1800    48.6350    47.5690    47.7000    44.3470    67.0870 
  315.0000     2.2680   -22.6870    50.9300    30.8310    50.9300    47.2590    48.4520    45.7410    73.5040 
  315.1250     2.2620   -22.4090    53.6690    31.1760    53.6690    45.8990    49.1160    46.7370    68.3500 
  315.2500     2.2770   -22.1370    56.9330    31.3030    56.9330    44.2770    50.9020    48.3660    66.4540 
  315.3750     2.3070   -21.8420    60.8630    31.2890    60.8630    42.2970    54.5170    51.4230    55.8810 
  315.5000     2.3380   -21.5130    65.4590    31.1530    65.4590    40.8230    59.4450    55.7810    54.4340 
  315.6250     2.3570   -21.1690    71.2040    30.7090    71.2040    42.4190    62.2230    58.7540    77.9870 
  315.7500     2.3710   -20.8100    78.0640    29.7240    78.0640    45.7790    58.6050    56.2960   152.9170 
  315.8750     2.3970   -20.4560    85.1350    28.0050    85.1350    46.7550    47.8280    47.1140   228.4470 
  316.0000     2.4540   -20.1380    90.6540    25.5790    90.6540    44.2350    34.2540    34.8100   119.9120 
  316.1250     2.5370   -19.8790    92.5940    22.7900    92.5940    42.7650    26.9740    24.9370    41.0850 
  316.2500     2.5970   -19.6700    91.5040    20.3090    91.5040    46.3320    20.3370    18.9880    16.0990 
  316.3750     2.6070   -19.5470    88.3280    18.6270    88.3280    53.1430    18.2050    16.5610    12.2270 
  316.5000     2.5830   -19.4640    83.9990    17.9880    83.9990    59.3530    19.6800    17.0820    18.0400 
  316.6250     2.5610   -19.4290    78.8060    18.3760    78.8060    62.6550    24.1270    20.5110    23.0040 
  316.7500     2.5450   -19.4510    73.2280    19.1270    73.2280    63.4180    29.3630    25.4290    31.8960 
  316.8750     2.5190   -19.4640    68.0040    19.6870    68.0040    62.3170    32.7810    29.5240    54.0830 
  317.0000     2.4730   -19.5050    64.0000    19.6420    64.0000    59.0020    32.0700    30.0140    78.5820 
  317.1250     2.4180   -19.5190    61.3870    18.8210    61.3870    54.0520    27.3160    26.2010    40.4310 
  317.2500     2.3900   -19.4880    59.1460    17.6890    59.1460    51.0500    22.1520    21.5140    20.5270 
  317.3750     2.4190   -19.4430    56.9000    16.6890    56.9000    50.5920    18.4250    17.8600    11.9110 
  317.5000     2.5030   -19.3740    54.4380    16.1200    54.4380    51.8040    16.5240    15.7630    12.6710 
  317.6250     2.5820   -19.2710    51.0460    16.0980    51.0460    54.5190    16.3250    15.2060    25.0690 
  317.7500     2.6130   -19.1410    46.4700    16.3930    46.4700    58.5590    17.1900    15.6570    26.6850 
  317.8750     2.5950   -18.9830    41.1320    16.8740    41.1320    61.6620    18.9190    16.9440    17.1550 
  318.0000     2.5530   -18.7560    36.0420    17.5090    36.0420    62.7290    21.3910    18.9340    19.2000 
  318.1250     2.5150   -18.4760    32.8550    18.3790    32.8550    65.0000    24.5990    21.5970    26.4420 
  318.2500     2.5040   -18.1320    31.7970    19.4850    31.7970    68.1890    26.5830    24.7410    30.0470 
  318.3750     2.5230   -17.6960    32.2900    20.7940    32.2900    67.2030    28.5420    28.2260    22.6460 
  318.5000     2.5580   -17.1910    33.4170    22.2220    33.4170    62.2290    31.8170    31.6550    25.3730 
