~V
VERS. 2.00: Ver 2.00
~W
STRT.M 60.0000:
STOP.M 392.0000:
STEP.M 0.1250:
NULL. -999.2500:
UWI. F10306:
~C
DEPT.M :
DEN.GM/CC :
GR.API :
RML.OHMM :
RI. :
RXO.OHMM :
SP.MV :
~A
# ...
  356.1250     2.4050    77.7680     7.1580     6.3010     6.2950    -4.6700 
  356.2500     2.4080    76.8390     7.2340     6.3460     6.3920    -4.8860 
  356.3750     2.4200    76.6030     7.3680     6.4390     6.5280    -5.1450 
  356.5000     2.4420    78.2480     7.5880     6.5990     6.7080    -5.4160 
  356.6250     2.4700    77.8940     7.9090     6.8340     7.1350    -5.6870 
  356.7500     2.4920    75.5100     8.2620     7.1020     7.7640    -5.9810 
  356.8750     2.5010    74.2500     8.5720     7.3480     8.3850    -6.3060 
  357.0000     2.4940    75.6360     8.7770     7.5190     8.6410    -6.6610 
  357.1250     2.4740    77.1010     8.8540     7.5780     8.4420    -7.0520 
  357.2500     2.4510    77.2330     8.9150     7.6020     8.1730    -7.4520 
  357.3750     2.4320    76.4660     9.1120     7.7060     8.1230    -7.8700 
  357.5000     2.4210    75.4180     9.6010     8.0240     8.6310    -8.3120 
  357.6250     2.4180    73.7890    10.5650     8.7330     9.9460    -8.7880 
  357.7500     2.4200    70.1300    11.9510     9.8380    11.7440    -9.2580 
  357.8750     2.4230    65.4460    13.6970    11.3330    13.8260    -9.7070 
  358.0000     2.4270    62.0510    15.7080    13.1730    15.4670   -10.1240 
  358.1250     2.4320    60.1370    17.9350    15.3310    15.5400   -10.4780 
  358.2500     2.4320    58.3800    20.3000    17.6850    16.0940   -10.7860 
  358.3750     2.4170    57.6860    22.7570    20.1530    17.1720   -11.0190 
  358.5000     2.3790    58.0050    25.2240    22.6150    18.0770   -11.1640 
  358.6250     2.3180    57.6470    27.4840    24.8150    18.5710   -11.2070 
  358.7500     2.2540    59.5700    29.2610    26.4770    18.9010   -11.1680 
  358.8750     2.2070    64.7270    30.2080    27.2930    18.3750   -11.0470 
  359.0000     2.1900    68.4050    29.9770    27.0060    17.2890   -10.8520 
  359.1250     2.2120    65.9610    28.1230    25.3140    16.8640   -10.5710 
  359.2500     2.2600    61.5190    25.1160    22.6710    16.6180   -10.2410 
  359.3750     2.3200    59.2360    21.6750    19.6770    16.0560    -9.8930 
  359.5000     2.3820    59.9650    18.7550    17.0760    14.9480    -9.5570 
  359.6250     2.4330    61.4160    17.4440    15.7070    12.9730    -9.2420 
  359.7500     2.4640    61.4110    17.8080    15.6700    13.0270    -8.9300 
  359.8750     2.4670    60.4090    19.5390    16.8300    16.0180    -8.6150 
  360.0000     2.4400    60.9890    21.8920    18.7210    20.7240    -8.3140 
  360.1250     2.3920    64.5010    23.6580    20.4580    24.5850    -8.0370 
  360.2500     2.3470    69.4180    23.9870    21.1850    25.2650    -7.7850 
  360.3750     2.3240    73.6420    22.7080    20.5420    21.7850    -7.5710 
  360.5000     2.3310    73.9630    20.4000    18.8270    16.0350    -7.4000 
  360.6250     2.3710    70.1930    18.1750    16.8930    11.7510    -7.2640 
  360.7500     2.4200    64.7400    16.7970    15.5140    10.5150    -7.1470 
  360.8750     2.4620    59.9130    16.4260    14.9370    11.0050    -7.0520 
  361.0000     2.4840    58.9760    16.9270    15.1510    12.3530    -6.9520 
  361.1250     2.4810    63.8230    18.1470    16.1030    16.1430    -6.8510 
  361.2500     2.4640    70.7740    19.8340    17.5500    21.0070    -6.7390 
  361.3750     2.4430    75.2210    22.0630    19.4840    25.7660    -6.6020 
  361.5000     2.4270    75.7040    24.9780    21.9570    28.8000    -6.4350 
  361.6250     2.4310    74.0470    28.4860    24.8700    28.0110    -6.2360 
  361.7500     2.4520    70.8410    31.5880    27.4660    28.1780    -6.0190 
  361.8750     2.4760    67.8350    32.9200    28.6720    30.6570    -5.7800 
  362.0000     2.4830    65.3110    31.2370    27.4300    34.7530    -5.5360 
  362.1250     2.4560    64.9740    25.9170    23.1020    37.8430    -5.2740 
  362.2500     2.4090    66.3970    19.2040    17.4820    35.2950    -4.9880 
  362.3750     2.3620    66.6130    13.1590    12.2950    24.1990    -4.7010 
  362.5000     2.3310    66.5440     8.9260     8.5160    11.8260    -4.4230 
  362.6250     2.3240    67.7810     6.7640     6.4020     5.9800    -4.1880 
  362.7500     2.3310    68.3560     5.8120     5.3200     4.6760    -4.0140 
  362.8750     2.3430    64.6890     5.5860     4.9200     4.4900    -3.9060 
  363.0000     2.3500    57.3550     5.7100     4.9180     4.6090    -3.8530 
  363.1250     2.3450    54.4910     5.8860     5.0760     4.7760    -3.8510 
  363.2500     2.3300    56.8190     5.9260     5.1790     4.8820    -3.8900 
  363.3750     2.3110    58.8960     5.7830     5.1390     4.8190    -3.9280 
  363.5000     2.2940    55.9960     5.4890     4.9460     4.4750    -3.9690 
  363.6250     2.2830    48.5240     5.1160     4.6380     3.8980    -4.0050 
  363.7500     2.2800    40.7020     4.7550     4.3070     3.4820    -4.0280 
  363.8750     2.2830    33.4700     4.4540     4.0050     3.2070    -4.0530 
  364.0000     2.2920    28.2430     4.2370     3.7630     3.0730    -4.1070 
  364.1250     2.3090    27.4030     4.1210     3.6040     3.0970    -4.2250 
  364.2500     2.3320    29.1360     4.0980     3.5200     3.2220    -4.4120 
  364.3750     2.3570    31.1530     4.1900     3.5260     3.4390    -4.6690 
  364.5000     2.3780    33.1150     4.4190     3.6510     3.7250    -4.9600 
  364.6250     2.3910    36.4010     4.8540     3.9610     4.0620    -5.2580 
  364.7500     2.4000    41.8100     5.4190     4.4380     4.5480    -5.5500 
  364.8750     2.4110    47.3720     6.0330     5.0350     5.2330    -5.8190 
  365.0000     2.4230    49.5720     6.5670     5.6410     5.9710    -6.0360 
  365.1250     2.4270    46.2560     6.8030     6.0550     6.7770    -6.1700 
  365.2500     2.4120    42.2880     6.8490     6.1680     7.1400    -6.2040 
  365.3750     2.3830    40.1450     6.5310     5.9660     6.8100    -6.1610 
  365.5000     2.3480    39.3060     6.0020     5.5530     6.4860    -6.0860 
  365.6250     2.3240    38.7630     5.5150     5.1190     6.0550    -6.0180 
  365.7500     2.3160    37.6010     5.2460     4.8220     5.5980    -5.9790 
  365.8750     2.3210    34.4160     5.2310     4.7100     5.1750    -5.9380 
  366.0000     2.3280    31.0190     5.4040     4.7570     5.2840    -5.8820 
  366.1250     2.3310    33.1730     5.6430     4.8980     5.7000    -5.8340 
  366.2500     2.3290    39.0640     5.8290     5.0390     5.9170    -5.8190 
  366.3750     2.3250    42.4260     5.9310     5.1440     5.7710    -5.8270 
  366.5000     2.3200    40.5510     5.9760     5.2130     5.4530    -5.8500 
  366.6250     2.3150    37.5830     6.0090     5.2620     5.3210    -5.8590 
  366.7500     2.3090    39.0780     6.0280     5.2900     5.7010    -5.8400 
  366.8750     2.3030    44.6260     5.9850     5.2700     6.4080    -5.8510 
  367.0000     2.3000    49.8120     5.8440     5.1740     7.1400    -5.8940 
  367.1250     2.2990    50.7560     5.6220     5.0130     7.1630    -6.0100 
  367.2500     2.2990    49.2560     5.4450     4.8680     6.1680    -6.2250 
  367.3750     2.2990    47.8250     5.4210     4.8200     5.0570    -6.5240 
  367.5000     2.2970    47.8030     5.6000     4.9160     5.0920    -6.9030 
  367.6250     2.2960    50.0660     5.9380     5.1500     5.9000    -7.3700 
  367.7500     2.2980    54.1930     6.2600     5.4050     6.5440    -7.8590 
  367.8750     2.3090    56.9220     6.4320     5.5770     6.6210    -8.3630 
  368.0000     2.3310    54.7710     6.3840     5.5890     6.2980    -8.9170 
  368.1250     2.3670    47.7700     6.1250     5.4160     6.0120    -9.4560 
  368.2500     2.4040    40.7870     5.8060     5.1650     5.7920    -9.9800 
  368.3750     2.4290    36.6690     5.5530     4.9360     5.7240   -10.5170 
  368.5000     2.4300    35.1300     5.4710     4.8250     6.0440   -11.0400 
  368.6250     2.4030    35.6200     5.7130     4.9650     6.9280   -11.5620 
  368.7500     2.3640    39.7020     6.3060     5.3890     8.2280   -12.1640 
  368.8750     2.3270    48.7300     7.2430     6.1140     9.9960   -12.8350 
