~V
VERS. 2.00: Ver 2.00
~W
STRT.M 53.0000:
STOP.M 371.0000:
STEP.M 0.1250:
NULL. -999.2500:
UWI. F10327:
~C
DEPT.M :
DEN.GM/CC :
GR.API :
RML.OHMM :
RI. :
RXO.OHMM :
SP.MV :
~A
# ...
   78.7500     2.1650    54.5430     8.7000     6.7880     7.8130   -13.6870 
   78.8750     2.1500    54.1430     8.5200     6.6890     7.5330   -13.0890 
   79.0000     2.1370    53.4460     8.3440     6.5760     7.3580   -12.2670 
   79.1250     2.1280    52.5630     8.1730     6.4590     7.1820   -11.2740 
   79.2500     2.1290    52.0160     7.9970     6.3370     7.0580   -10.1550 
   79.3750     2.1440    53.6750     7.8090     6.2070     6.9130    -8.9170 
   79.5000     2.1740    58.1690     7.6280     6.0790     6.6890    -7.5610 
   79.6250     2.2060    63.4810     7.4930     5.9730     6.4650    -6.1600 
   79.7500     2.2350    69.1670     7.4440     5.9190     6.3350    -4.8050 
   79.8750     2.2590    74.6410     7.4950     5.9350     6.2910    -3.5630 
   80.0000     2.2820    78.7630     7.6180     6.0230     6.5000    -2.4770 
   80.1250     2.3110    81.5500     7.7330     6.1370     6.9130    -1.5440 
   80.2500     2.3400    83.4820     7.7760     6.2260     7.7660    -0.7790 
   80.3750     2.3600    84.8860     7.7150     6.2550     8.5860    -0.2060 
   80.5000     2.3610    87.3880     7.5700     6.2130     8.1800     0.1750 
   80.6250     2.3460    91.3300     7.4140     6.1400     6.6500     0.4330 
   80.7500     2.3280    92.7830     7.2970     6.0730     5.6830     0.6270 
   80.8750     2.3110    89.2470     7.2180     6.0240     5.4660     0.7760 
   81.0000     2.2990    84.4200     7.1270     5.9680     5.6360     0.8480 
   81.1250     2.2930    82.9060     6.9660     5.8650     5.8330     0.8590 
   81.2500     2.2930    85.8610     6.7140     5.6910     5.8640     0.8610 
   81.3750     2.2990    91.1800     6.4060     5.4550     5.5450     0.8940 
   81.5000     2.3100    96.2840     6.1270     5.2070     5.1800     0.9510 
   81.6250     2.3230    99.9390     5.9470     5.0060     4.9620     0.9900 
   81.7500     2.3300   101.5620     5.9030     4.8920     4.8660     0.9900 
   81.8750     2.3310   100.5280     6.0180     4.8950     4.9270     0.9460 
   82.0000     2.3310    95.6650     6.3530     5.0670     5.1800     0.9030 
   82.1250     2.3390    89.6640     6.9440     5.4280     5.5680     0.8480 
   82.2500     2.3610    84.9280     7.8320     6.0080     6.0140     0.7350 
   82.3750     2.3950    81.0370     9.0130     6.8150     6.8200     0.5310 
   82.5000     2.4320    76.0690    10.3740     7.8020     8.2400     0.2360 
   82.6250     2.4640    69.6090    11.6340     8.7910     9.7920    -0.1150 
   82.7500     2.4800    64.4350    12.5070     9.5730    10.8570    -0.5210 
   82.8750     2.4770    63.6510    12.7980     9.9750    12.1270    -1.0040 
   83.0000     2.4570    67.7950    12.4460     9.8860    12.7240    -1.6120 
   83.1250     2.4260    71.6300    11.7450     9.4710    11.7560    -2.2970 
   83.2500     2.3910    71.8700    11.0040     8.9390     9.8790    -3.0150 
   83.3750     2.3570    69.5720    10.4260     8.4570     8.4510    -3.7410 
   83.5000     2.3230    67.3360    10.1000     8.1220     8.1330    -4.4830 
   83.6250     2.2900    67.0910     9.9400     7.9140     8.0890    -5.2310 
   83.7500     2.2590    69.0890     9.8560     7.7870     7.9150    -5.9240 
   83.8750     2.2340    71.7470     9.7850     7.7010     7.7510    -6.5010 
   84.0000     2.2170    71.4660     9.7100     7.6380     7.6700    -6.9530 
   84.1250     2.2070    68.8290     9.6480     7.6000     7.6350    -7.3340 
   84.2500     2.2020    67.5400     9.6150     7.5920     7.6490    -7.6570 
   84.3750     2.2000    69.0470     9.6060     7.6070     7.7460    -7.9050 
   84.5000     2.2020    71.0530     9.5970     7.6240     7.8520    -8.0570 
   84.6250     2.2040    71.0390     9.5690     7.6210     7.9770    -8.1530 
   84.7500     2.2090    69.4460     9.5170     7.5940     8.0760    -8.2520 
   84.8750     2.2160    67.4940     9.4500     7.5470     8.0560    -8.3850 
   85.0000     2.2240    66.7890     9.3970     7.5030     7.8750    -8.5030 
   85.1250     2.2270    67.1380     9.3910     7.4890     7.7400    -8.5770 
   85.2500     2.2190    67.2320     9.4620     7.5250     7.6990    -8.6000 
   85.3750     2.2000    66.6980     9.6300     7.6280     7.6850    -8.5690 
   85.5000     2.1810    66.1180     9.8980     7.8060     7.6430    -8.5100 
   85.6250     2.1760    66.3040    10.2010     8.0190     7.7590    -8.4310 
   85.7500     2.1940    67.5970    10.4530     8.2070     8.0010    -8.2930 
   85.8750     2.2290    70.8390    10.5620     8.3050     8.1980    -8.0910 
   86.0000     2.2630    74.9800    10.4410     8.2470     8.2150    -7.8740 
   86.1250     2.2800    75.9030    10.1300     8.0470     8.0610    -7.6760 
   86.2500     2.2740    72.6090     9.7310     7.7640     7.7980    -7.5120 
   86.3750     2.2550    67.4260     9.3770     7.4870     7.6150    -7.3700 
   86.5000     2.2330    63.2910     9.2420     7.3360     7.5210    -7.1860 
   86.6250     2.2150    60.6070     9.4030     7.3810     7.5390    -6.9300 
   86.7500     2.2020    58.8000     9.8610     7.6440     7.6240    -6.6060 
   86.8750     2.2030    57.0530    10.5140     8.0760     7.8090    -6.1880 
   87.0000     2.2280    55.8020    11.1020     8.5230     8.2280    -5.6110 
   87.1250     2.2710    57.8500    11.3350     8.7690     8.9800    -4.8840 
   87.2500     2.3180    63.9000    11.0250     8.6520    10.2420    -4.0510 
   87.3750     2.3520    72.5630    10.1670     8.1280    11.7600    -3.1970 
   87.5000     2.3570    80.2410     8.9630     7.2970    11.2290    -2.4080 
   87.6250     2.3410    84.1770     7.7960     6.4300     8.4210    -1.6860 
   87.7500     2.3190    84.1960     6.9470     5.7420     6.1410    -1.0510 
   87.8750     2.3020    84.2910     6.5540     5.3530     5.2480    -0.5460 
   88.0000     2.2960    86.9230     6.7200     5.3620     5.1700    -0.2290 
   88.1250     2.2970    88.5680     7.3640     5.7370     5.3280    -0.0980 
   88.2500     2.3030    87.0640     8.3860     6.4280     5.7460    -0.1160 
   88.3750     2.3150    82.9760     9.6400     7.3570     6.5390    -0.2070 
   88.5000     2.3370    77.5420    10.8630     8.3700     8.1640    -0.3250 
   88.6250     2.3630    72.0230    11.7470     9.2330    10.3990    -0.4870 
   88.7500     2.3850    67.8400    12.0650     9.7360    11.6920    -0.6820 
   88.8750     2.3930    66.2720    11.7600     9.7660    11.6530    -0.8800 
   89.0000     2.3830    69.3270    10.9700     9.3380    11.6060    -1.0480 
   89.1250     2.3650    74.2230    10.0600     8.7040    11.0100    -1.1660 
   89.2500     2.3460    76.7040     9.2900     8.0770     9.0980    -1.2410 
   89.3750     2.3280    75.7110     8.7640     7.5750     7.5910    -1.3180 
   89.5000     2.3060    73.5220     8.4710     7.2380     7.1230    -1.4040 
   89.6250     2.2790    72.5940     8.2980     7.0160     7.0190    -1.4520 
   89.7500     2.2510    72.9910     8.1690     6.8590     6.7240    -1.4640 
   89.8750     2.2270    74.4270     8.0480     6.7320     6.3990    -1.4850 
   90.0000     2.2170    76.2560     7.9180     6.6120     6.1300    -1.5510 
   90.1250     2.2150    78.3970     7.7810     6.4910     6.0550    -1.6320 
   90.2500     2.2170    80.7040     7.6490     6.3760     6.0880    -1.7010 
   90.3750     2.2190    81.1640     7.5520     6.2870     6.1030    -1.7550 
   90.5000     2.2240    79.1810     7.5910     6.2880     6.0680    -1.8170 
   90.6250     2.2380    76.8580     7.8910     6.4610     6.1260    -1.9080 
   90.7500     2.2690    74.3900     8.5840     6.9050     6.3370    -2.0170 
   90.8750     2.3210    71.3870     9.7340     7.6870     6.9340    -2.1110 
   91.0000     2.3860    69.6000    11.2910     8.8170     8.3590    -2.1940 
   91.1250     2.4420    69.3830    12.9260    10.0910    10.6690    -2.3120 
   91.2500     2.4620    68.8880    14.2410    11.2240    13.8280    -2.4900 
   91.3750     2.4410    67.1580    14.8680    11.9200    17.4260    -2.7020 
   91.5000     2.3970    65.1320    14.5000    11.8760    17.3060    -2.9030 
