~V
VERS. 2.00: Ver 2.00
~W
STRT.M 50.0000:
STOP.M 253.0000:
STEP.M 0.1250:
NULL. -999.2500:
UWI. F10782:
~C
DEPT.M :
DEN.GM/CC :
GR.API :
RML.OHMM :
RI. :
RXO.OHMM :
SP.MV :
~A
# ...
  153.0000     2.4320    51.0260    46.8140    37.4880    56.6810   -11.2790 
  153.1250     2.5160    45.4140    49.7930    41.4550   106.2640   -11.9170 
  153.2500     2.5620    42.4070    47.7260    41.6390   131.4170   -12.5610 
  153.3750     2.5780    43.4240    41.5020    37.8710    97.1620   -13.1770 
  153.5000     2.5800    47.4430    34.0340    32.1340    63.1700   -13.7630 
  153.6250     2.5730    50.1090    27.9310    26.7360    36.1800   -14.2670 
  153.7500     2.5530    49.8800    23.4470    22.4770    18.6350   -14.7090 
  153.8750     2.5180    51.1460    20.0960    19.2270    19.1870   -15.0740 
  154.0000     2.4730    57.8900    17.4000    16.6710    20.2150   -15.3810 
  154.1250     2.4170    64.9080    15.2340    14.6720    19.0690   -15.5970 
  154.2500     2.3500    66.4410    13.6190    13.1510    15.2530   -15.7560 
  154.3750     2.2770    64.3380    12.7340    12.2230    12.1750   -15.8650 
  154.5000     2.2160    62.5890    12.7390    12.0170    11.5580   -15.9180 
  154.6250     2.2040    61.4180    13.9730    12.8280    12.3160   -15.9040 
  154.7500     2.2530    58.5090    16.3930    14.6590    14.8200   -15.8140 
  154.8750     2.3540    54.3750    19.9680    17.5530    20.7550   -15.6460 
  155.0000     2.4740    50.8780    24.4260    21.3440    31.4170   -15.4240 
  155.1250     2.5590    48.1180    29.1530    25.5430    37.5970   -15.2160 
  155.2500     2.6040    45.5610    33.3650    29.3430    43.3570   -15.0420 
  155.3750     2.6220    43.2560    36.6440    32.2400    46.1490   -14.9090 
  155.5000     2.6300    43.0140    39.0030    34.1330    45.1650   -14.8070 
  155.6250     2.6340    45.3450    40.8840    35.3780    45.0910   -14.7720 
  155.7500     2.6360    48.8370    42.8390    36.5920    47.5610   -14.8350 
  155.8750     2.6360    50.5470    44.8190    37.8400    50.1900   -14.9930 
  156.0000     2.6320    48.5710    46.3360    38.8050    50.0570   -15.2220 
  156.1250     2.6220    45.5350    46.5460    38.8790    53.3900   -15.4820 
  156.2500     2.6010    45.8230    45.3930    37.9700    56.1350   -15.7350 
  156.3750     2.5650    47.7130    43.2300    36.3000    50.4420   -15.9880 
  156.5000     2.5190    47.3560    40.7630    34.3760    43.1010   -16.2350 
  156.6250     2.4810    44.3420    38.8170    32.8140    41.3290   -16.4630 
  156.7500     2.4650    42.3040    37.7010    31.8520    41.9540   -16.6630 
  156.8750     2.4760    41.0110    37.4880    31.5540    39.9410   -16.7980 
  157.0000     2.5050    40.7210    38.1820    31.9430    37.1690   -16.8880 
  157.1250     2.5370    43.7440    39.9350    33.1590    34.2700   -16.9250 
  157.2500     2.5610    47.0030    42.5610    35.0810    34.3630   -16.9340 
  157.3750     2.5780    46.5040    45.8970    37.6190    38.4010   -16.8700 
  157.5000     2.5960    42.9500    49.4820    40.4560    46.6470   -16.7420 
  157.6250     2.6200    41.0700    52.1480    42.7410    53.2690   -16.5760 
  157.7500     2.6400    41.9020    52.9700    43.7090    58.5290   -16.3850 
  157.8750     2.6470    45.2420    51.7890    43.1570    59.7910   -16.1900 
  158.0000     2.6350    49.9000    49.3570    41.5510    53.1040   -15.9610 
  158.1250     2.6130    52.7800    46.9880    39.7690    46.6470   -15.6400 
  158.2500     2.5940    53.8230    45.5970    38.5450    46.7210   -15.2530 
  158.3750     2.5870    54.5250    45.3670    38.0970    50.4060   -14.8560 
  158.5000     2.5930    55.8410    45.9990    38.3130    56.7330   -14.4900 
  158.6250     2.6090    55.8550    46.9500    38.8970    52.6350   -14.1630 
  158.7500     2.6270    54.0440    47.6980    39.4560    49.7950   -13.8400 
  158.8750     2.6350    50.4960    48.0060    39.7890    50.5190   -13.5250 
  159.0000     2.6330    45.9790    47.7430    39.7670    53.4570   -13.2450 
  159.1250     2.6230    44.3310    46.7750    39.2370    52.8170   -13.0680 
  159.2500     2.6160    46.4380    45.2850    38.2520    48.2180   -12.9700 
  159.3750     2.6150    49.8500    43.4880    36.9060    45.4820   -12.9270 
  159.5000     2.6200    51.2080    41.7360    35.4350    43.2770   -12.9030 
  159.6250     2.6260    51.0620    40.4490    34.2010    39.3200   -12.8840 
  159.7500     2.6250    50.6520    39.6100    33.3320    38.7530   -12.9090 
  159.8750     2.6170    48.2260    39.0190    32.7610    40.6300   -12.9610 
  160.0000     2.6040    44.4500    38.4230    32.3180    42.8460   -13.0190 
  160.1250     2.5880    43.4620    37.5610    31.7640    39.1750   -13.0740 
  160.2500     2.5750    45.2330    36.3680    30.9650    33.9170   -13.1010 
  160.3750     2.5670    47.6730    34.9370    29.9180    31.0380   -13.1240 
  160.5000     2.5660    49.9040    33.4870    28.7530    30.1670   -13.1410 
  160.6250     2.5710    49.8350    32.2460    27.6660    29.1460   -13.1260 
  160.7500     2.5780    48.5080    31.2420    26.7340    27.3780   -13.0610 
  160.8750     2.5860    49.2490    30.4200    25.9380    26.8850   -12.9700 
  161.0000     2.5910    51.6110    29.6790    25.1970    28.1540   -12.8720 
  161.1250     2.5820    51.4420    28.9650    24.4580    28.0200   -12.7500 
  161.2500     2.5570    49.2530    28.3500    23.7980    26.3370   -12.6130 
  161.3750     2.5240    49.3650    28.0360    23.3940    24.8490   -12.4340 
  161.5000     2.5000    51.2900    28.2350    23.4240    24.4480   -12.2190 
  161.6250     2.5020    53.8110    29.1310    24.0440    26.3480   -11.9890 
  161.7500     2.5300    55.4700    30.4180    25.0190    29.9270   -11.7920 
  161.8750     2.5720    54.7890    31.6190    25.9860    34.2760   -11.6130 
  162.0000     2.6090    52.6600    32.0880    26.4420    37.1620   -11.4680 
  162.1250     2.6230    50.7130    31.1110    25.7940    35.9630   -11.3570 
  162.2500     2.6190    50.1830    29.0020    24.2200    30.9280   -11.2760 
  162.3750     2.6050    51.4950    26.3180    22.1240    26.1800   -11.2410 
  162.5000     2.5870    54.2900    23.6670    19.9860    23.3450   -11.2550 
  162.6250     2.5730    54.1540    21.6010    18.2510    22.4290   -11.3400 
  162.7500     2.5650    50.1880    20.2220    17.0380    21.0220   -11.4470 
  162.8750     2.5620    47.8520    19.4830    16.3500    19.7870   -11.5810 
  163.0000     2.5590    49.5800    19.2260    16.1020    18.4100   -11.7250 
  163.1250     2.5540    52.1030    19.2820    16.1800    18.7710   -11.8700 
  163.2500     2.5490    52.5410    19.4170    16.3570    19.7430   -12.0210 
  163.3750     2.5460    52.5250    19.4830    16.4830    20.8970   -12.1720 
  163.5000     2.5430    53.5890    19.3650    16.4460    21.0650   -12.2990 
  163.6250     2.5370    53.3350    18.9760    16.1780    19.5350   -12.3840 
  163.7500     2.5310    50.3930    18.4000    15.7680    18.3260   -12.4300 
  163.8750     2.5260    47.3860    17.7540    15.2990    17.6030   -12.4390 
  164.0000     2.5240    47.3670    17.1760    14.8490    17.1760   -12.3840 
  164.1250     2.5200    50.0870    16.7850    14.4660    16.3580   -12.2740 
  164.2500     2.5090    51.1210    16.5290    14.1400    15.5220   -12.1060 
  164.3750     2.4940    50.3280    16.3250    13.8640    15.2930   -11.9160 
  164.5000     2.4820    49.5950    16.1080    13.6390    15.5970   -11.7370 
  164.6250     2.4800    50.8180    15.8520    13.4740    16.0990   -11.5520 
  164.7500     2.4820    53.2310    15.5910    13.3410    16.6290   -11.3530 
  164.8750     2.4810    53.7710    15.3660    13.2170    16.2630   -11.1300 
  165.0000     2.4720    52.1270    15.2220    13.1000    15.4460   -10.9440 
  165.1250     2.4580    52.3090    15.1990    13.0070    14.9260   -10.8310 
  165.2500     2.4470    54.7950    15.2420    12.9380    15.0730   -10.7970 
  165.3750     2.4480    56.0830    15.2930    12.8800    16.0200   -10.7820 
  165.5000     2.4560    54.6690    15.3240    12.8320    16.0360   -10.7730 
  165.6250     2.4610    54.0350    15.3470    12.8150    16.4300   -10.7940 
  165.7500     2.4530    54.8750    15.4170    12.8440    15.6480   -10.8150 
