~V
VERS. 2.00: Ver 2.00
~W
STRT.M 50.0000:
STOP.M 253.0000:
STEP.M 0.1250:
NULL. -999.2500:
UWI. F10782:
~C
DEPT.M :
DEN.GM/CC :
GR.API :
RML.OHMM :
RI. :
RXO.OHMM :
SP.MV :
~A
# ...
  217.3750     2.2990    68.5130    83.3300    83.2120    62.3030   -17.8630 
  217.5000     2.3300    69.1630    76.9380    76.9260    54.7480   -17.5660 
  217.6250     2.3410    69.4280    69.9990    70.1610    50.9430   -17.1750 
  217.7500     2.3430    68.9250    62.9630    63.3040    45.0770   -16.7510 
  217.8750     2.3460    67.3730    56.7330    57.1500    38.0910   -16.3310 
  218.0000     2.3550    67.4940    52.2370    52.5160    30.5380   -15.9120 
  218.1250     2.3640    68.8040    50.5140    50.3110    29.1810   -15.5140 
  218.2500     2.3630    69.5160    51.1670    50.2450    32.6800   -15.1000 
  218.3750     2.3510    70.3070    53.6340    51.9430    37.5630   -14.6960 
  218.5000     2.3330    70.8070    56.9580    54.6750    41.3620   -14.3370 
  218.6250     2.3180    68.6790    59.8360    57.3050    45.2830   -14.0730 
  218.7500     2.3180    63.8500    61.4760    58.8540    49.6100   -13.8730 
  218.8750     2.3430    59.2280    61.7640    58.9600    49.6580   -13.7370 
  219.0000     2.3870    56.9120    61.0420    57.7740    42.5510   -13.6230 
  219.1250     2.4390    57.5790    59.5730    55.5960    41.5510   -13.5850 
  219.2500     2.4760    59.9710    57.6350    52.9940    39.3270   -13.5470 
  219.3750     2.4790    62.3560    55.4730    50.3250    35.2430   -13.5180 
  219.5000     2.4470    63.5420    53.4950    47.9500    31.2230   -13.4830 
  219.6250     2.3960    63.3010    52.3690    46.3510    30.0030   -13.4410 
  219.7500     2.3660    60.7850    52.5150    45.7770    30.8780   -13.3880 
  219.8750     2.3790    57.3100    54.3590    46.5900    32.2050   -13.3070 
  220.0000     2.4430    56.8160    58.1680    49.1120    34.0430   -13.1710 
  220.1250     2.5140    59.7760    64.2140    53.7180    34.0350   -13.0230 
  220.2500     2.5510    61.6940    71.5670    59.6140    37.4850   -12.8840 
  220.3750     2.5450    61.5100    78.8990    65.6400    50.8310   -12.7270 
  220.5000     2.5260    61.3590    84.0940    70.0580    66.7560   -12.5790 
  220.6250     2.5280    63.0690    83.7090    70.2120    72.2070   -12.4240 
  220.7500     2.5540    63.6550    76.9960    65.4350    59.7380   -12.2410 
  220.8750     2.5880    62.9560    64.5710    55.8930    49.3250   -12.0160 
  221.0000     2.6180    63.6350    49.1860    43.4850    40.8520   -11.7430 
  221.1250     2.6320    67.3850    35.0800    31.6710    35.6280   -11.4040 
  221.2500     2.6160    70.4900    24.4690    22.6010    24.5620   -11.0290 
  221.3750     2.5610    69.4180    17.5770    16.5570    12.6330   -10.6580 
  221.5000     2.4770    64.9490    13.7450    13.0040     6.3210   -10.2840 
  221.6250     2.3980    62.0910    12.2730    11.3930     5.3210    -9.9620 
  221.7500     2.3570    61.5090    11.8390    10.7110     7.0790    -9.7260 
  221.8750     2.3650    62.7450    11.6820    10.3940    10.9840    -9.5580 
  222.0000     2.4050    65.2780    11.1990     9.9540    13.5210    -9.4970 
  222.1250     2.4320    68.0610    10.0520     9.0650     9.5920    -9.5290 
  222.2500     2.4220    68.4650     8.6490     7.9560     5.5320    -9.6310 
  222.3750     2.3860    65.9580     7.4390     6.9510     4.3880    -9.8210 
  222.5000     2.3460    63.6580     6.6980     6.2840     4.6190   -10.0770 
  222.6250     2.3240    64.4640     6.5790     6.1180     4.9010   -10.3520 
  222.7500     2.3240    65.6530     6.9020     6.3390     5.4700   -10.6230 
  222.8750     2.3440    67.3520     7.4840     6.8110     6.2450   -10.9080 
  223.0000     2.3720    70.8960     8.0780     7.3270     7.8290   -11.2370 
  223.1250     2.3920    74.0830     8.3530     7.6020     9.1810   -11.5580 
  223.2500     2.3940    73.7560     8.2210     7.5250     7.7940   -11.8800 
  223.3750     2.3790    71.7480     7.7710     7.1410     5.7560   -12.1750 
  223.5000     2.3560    71.4720     7.2080     6.6190     4.8280   -12.4630 
  223.6250     2.3390    73.7670     6.7480     6.1610     4.6860   -12.7690 
  223.7500     2.3320    75.7950     6.4440     5.8500     4.8110   -13.0860 
  223.8750     2.3300    77.0290     6.2750     5.6800     4.9000   -13.4120 
  224.0000     2.3270    77.0500     6.2070     5.5970     5.0500   -13.6840 
  224.1250     2.3150    74.2390     6.2010     5.5310     4.9690   -13.8730 
  224.2500     2.2990    68.3050     6.2290     5.4380     4.8300   -13.9800 
  224.3750     2.2850    61.4530     6.2750     5.3270     4.6900   -14.0590 
  224.5000     2.2760    58.2650     6.3150     5.2220     4.6740   -14.1170 
  224.6250     2.2760    59.8920     6.3480     5.1610     4.6870   -14.1340 
  224.7500     2.2790    61.7010     6.4010     5.1620     4.5670   -14.1110 
  224.8750     2.2840    61.8590     6.5060     5.2360     4.4360   -14.0750 
  225.0000     2.2940    60.9580     6.6670     5.3720     4.3920   -14.1110 
  225.1250     2.3200    58.9530     6.8350     5.5320     4.4300   -14.2870 
  225.2500     2.3550    56.0210     6.9530     5.6620     4.6150   -14.6210 
  225.3750     2.3850    50.9500     6.9850     5.7270     4.9040   -15.0600 
  225.5000     2.4010    43.3430     6.9380     5.7150     4.7790   -15.5940 
  225.6250     2.3970    37.2350     6.8300     5.6260     4.7700   -16.2520 
  225.7500     2.3870    34.7700     6.6920     5.5020     4.6460   -16.9860 
  225.8750     2.3790    34.8110     6.5380     5.3660     4.2700   -17.7570 
  226.0000     2.3740    36.4670     6.3810     5.2330     3.9850   -18.4870 
  226.1250     2.3720    40.6150     6.2450     5.1170     3.8630   -19.1300 
  226.2500     2.3700    44.7710     6.1530     5.0310     3.8430   -19.6620 
  226.3750     2.3680    47.4380     6.1290     4.9930     3.9270   -20.0300 
  226.5000     2.3690    51.1920     6.1890     5.0150     4.0780   -20.2150 
  226.6250     2.3650    55.9340     6.3450     5.0970     4.1510   -20.1550 
  226.7500     2.3480    59.6150     6.5270     5.1820     4.3340   -19.9280 
  226.8750     2.3220    62.7190     6.6420     5.2080     4.4380   -19.5590 
  227.0000     2.2960    66.1230     6.6130     5.1340     4.3820   -19.0920 
  227.1250     2.2800    67.7000     6.4330     4.9620     4.1210   -18.5440 
  227.2500     2.2770    66.5500     6.2290     4.7770     3.8500   -17.9600 
  227.3750     2.2840    64.9100     6.1060     4.6540     3.8090   -17.3480 
  227.5000     2.2940    66.4450     6.1250     4.6460     4.2030   -16.7360 
  227.6250     2.2980    70.8260     6.3250     4.8040     4.8510   -16.1910 
  227.7500     2.3000    75.3250     6.6960     5.1210     5.4800   -15.7380 
  227.8750     2.3070    76.9740     7.2770     5.6020     5.7970   -15.3950 
  228.0000     2.3240    77.4180     8.0770     6.2210     5.9710   -15.1180 
  228.1250     2.3530    80.4310     8.9790     6.8830     6.8150   -14.9410 
  228.2500     2.3810    84.1760     9.6800     7.4010     8.3140   -14.7800 
  228.3750     2.3950    85.2770     9.8920     7.5930     8.7120   -14.6770 
  228.5000     2.3890    82.8460     9.4600     7.3530     7.2890   -14.6420 
  228.6250     2.3760    79.0290     8.5000     6.7180     5.6950   -14.7050 
  228.7500     2.3680    75.2120     7.5460     6.0120     4.7990   -14.8740 
  228.8750     2.3700    70.7340     6.9890     5.4910     4.4620   -15.1670 
  229.0000     2.3770    66.7640     7.0840     5.3570     4.6840   -15.6310 
  229.1250     2.3840    68.0810     8.1430     5.8620     5.8630   -16.2350 
  229.2500     2.3920    72.9250    10.1210     7.0310     8.6070   -17.0130 
  229.3750     2.4010    75.9140    12.9410     8.8870    12.4490   -17.9200 
  229.5000     2.4100    74.4790    16.2140    11.2650    16.2890   -18.9330 
  229.6250     2.4190    72.8190    18.8510    13.5350    16.5930   -19.9810 
  229.7500     2.4220    75.0720    19.7290    14.7770    15.6910   -20.9720 
  229.8750     2.4170    78.3640    18.4410    14.4650    14.3880   -21.8380 
  230.0000     2.4050    79.2720    15.6250    12.8200    12.8710   -22.5460 
  230.1250     2.3890    78.8620    12.4750    10.5700    10.3190   -23.1050 
