~V
VERS. 2.00: Ver 2.00
~W
STRT.M 50.0000:
STOP.M 253.0000:
STEP.M 0.1250:
NULL. -999.2500:
UWI. F10782:
~C
DEPT.M :
DEN.GM/CC :
GR.API :
RML.OHMM :
RI. :
RXO.OHMM :
SP.MV :
~A
# ...
  165.8750     2.4340    55.8810    15.5530    12.9180    14.9170   -10.8550 
  166.0000     2.4140    58.1150    15.7090    13.0040    14.9930   -10.8830 
  166.1250     2.4060    61.3870    15.7680    13.0370    15.5530   -10.8870 
  166.2500     2.4080    62.5130    15.6980    12.9960    15.7280   -10.8760 
  166.3750     2.4150    61.4090    15.5600    12.9070    14.8740   -10.8700 
  166.5000     2.4190    59.8770    15.4900    12.8390    13.7760   -10.8700 
  166.6250     2.4200    58.5100    15.6940    12.9100    13.9390   -10.8690 
  166.7500     2.4250    57.1780    16.1860    13.1570    14.5650   -10.8980 
  166.8750     2.4400    56.8280    16.8530    13.5440    14.9390   -10.9590 
  167.0000     2.4650    57.5890    17.4850    13.9550    15.0950   -11.0530 
  167.1250     2.4940    56.6400    17.8150    14.2120    15.6230   -11.1760 
  167.2500     2.5120    55.4440    17.8170    14.2610    15.9450   -11.2910 
  167.3750     2.5170    56.0040    17.6230    14.1590    15.2120   -11.3940 
  167.5000     2.5100    57.0100    17.4800    14.0500    14.4350   -11.4990 
  167.6250     2.5040    56.6150    17.6810    14.1260    14.6850   -11.6040 
  167.7500     2.5080    55.4370    18.2730    14.4440    16.1030   -11.6970 
  167.8750     2.5230    54.3700    19.1930    14.9880    18.6380   -11.7580 
  168.0000     2.5420    52.3030    20.2600    15.6740    21.5210   -11.7680 
  168.1250     2.5510    49.2090    21.1550    16.3290    22.1990   -11.6790 
  168.2500     2.5490    47.2340    21.6550    16.7670    21.6740   -11.5390 
  168.3750     2.5400    46.5120    21.6590    16.8680    20.6750   -11.3940 
  168.5000     2.5300    47.0180    21.1900    16.5980    20.5120   -11.2550 
  168.6250     2.5220    49.7190    20.3690    16.0010    20.8080   -11.1330 
  168.7500     2.5130    52.6810    19.5100    15.3150    20.0760   -11.0140 
  168.8750     2.5060    52.7480    18.8700    14.7320    18.1520   -10.9080 
  169.0000     2.5020    49.6190    18.6550    14.4100    17.2060   -10.8340 
  169.1250     2.5040    49.2750    19.0700    14.5140    17.9380   -10.8290 
  169.2500     2.5060    52.2900    19.9970    15.0020    19.6340   -10.8760 
  169.3750     2.5060    52.7440    21.2470    15.7870    21.1600   -10.9600 
  169.5000     2.5060    48.8750    22.4700    16.6640    22.6710   -11.0660 
  169.6250     2.5090    48.2490    23.1090    17.2730    22.8570   -11.1590 
  169.7500     2.5130    52.2190    22.9250    17.3950    23.5590   -11.2850 
  169.8750     2.5140    54.2220    21.9600    16.9940    22.3480   -11.4210 
  170.0000     2.5080    51.6610    20.5590    16.2290    19.6140   -11.5840 
  170.1250     2.4970    49.8210    19.2540    15.3710    17.0120   -11.7390 
  170.2500     2.4890    50.6040    18.3500    14.6530    16.6840   -11.8930 
  170.3750     2.4870    51.2570    17.8280    14.1350    16.9490   -12.0240 
  170.5000     2.4920    50.5770    17.5040    13.7810    17.5440   -12.1280 
  170.6250     2.4980    48.3160    17.1670    13.5070    17.6040   -12.2270 
  170.7500     2.5050    46.9630    16.7500    13.2310    16.6750   -12.2990 
  170.8750     2.5110    47.8070    16.3350    12.9670    15.7310   -12.3660 
  171.0000     2.5160    49.2820    16.0290    12.7720    15.2510   -12.4210 
  171.1250     2.5180    50.1840    15.9090    12.7210    15.5460   -12.5150 
  171.2500     2.5170    48.9500    15.9090    12.7910    16.6540   -12.6310 
  171.3750     2.5120    45.9850    15.9760    12.9310    16.5740   -12.7470 
  171.5000     2.5060    44.2220    16.0730    13.0790    15.8940   -12.8420 
  171.6250     2.5020    47.3870    16.1770    13.1780    15.7200   -12.9230 
  171.7500     2.5020    51.5090    16.3030    13.2350    16.0510   -12.9910 
  171.8750     2.5040    51.6030    16.5030    13.2960    16.3330   -13.0650 
  172.0000     2.5090    49.5110    16.8270    13.4140    16.3590   -13.1410 
  172.1250     2.5140    50.0480    17.3100    13.6360    17.1040   -13.2060 
  172.2500     2.5160    51.4050    17.8850    13.9300    18.2730   -13.2540 
  172.3750     2.5170    51.7800    18.4590    14.2470    19.2300   -13.3100 
  172.5000     2.5150    52.0140    18.9130    14.5300    19.8960   -13.3970 
  172.6250     2.5110    53.7270    19.1360    14.7250    19.5150   -13.5060 
  172.7500     2.5050    56.5540    19.1910    14.8430    20.0900   -13.6470 
  172.8750     2.5000    58.9060    19.1570    14.9230    20.6300   -13.8120 
  173.0000     2.4960    58.9340    19.1490    15.0320    18.7860   -14.0260 
  173.1250     2.4950    55.7090    19.3610    15.3150    18.4530   -14.3110 
  173.2500     2.4940    52.5960    19.8410    15.8250    18.5450   -14.6610 
  173.3750     2.4960    53.0280    20.4550    16.4830    18.5140   -15.0790 
  173.5000     2.5020    56.9500    20.8690    17.0350    18.8010   -15.5580 
  173.6250     2.4990    61.4110    20.4860    16.9840    19.9520   -16.0810 
  173.7500     2.4760    63.9890    19.1790    16.1770    21.2250   -16.6500 
  173.8750     2.4340    66.1690    17.2070    14.7590    18.6010   -17.2610 
  174.0000     2.3870    67.8600    15.1340    13.1450    13.2580   -17.8530 
  174.1250     2.3630    68.4200    13.5600    11.8210    10.6690   -18.3670 
  174.2500     2.3680    69.2210    12.6010    10.9420    10.4260   -18.8170 
  174.3750     2.3900    71.4960    12.2070    10.4930    11.0620   -19.2120 
  174.5000     2.4090    73.8530    12.2390    10.3800    12.0360   -19.5370 
  174.6250     2.4090    73.7490    12.5580    10.5010    12.7110   -19.7840 
  174.7500     2.4040    74.5550    12.9910    10.7140    12.8470   -19.9550 
  174.8750     2.4120    76.4560    13.5210    11.0070    13.6210   -20.0530 
  175.0000     2.4340    76.3230    14.2340    11.4420    16.6040   -20.1350 
  175.1250     2.4560    74.3540    15.3610    12.1710    19.4100   -20.2210 
  175.2500     2.4630    74.8780    17.0760    13.2840    20.3980   -20.3150 
  175.3750     2.4510    77.6680    19.6260    14.9320    22.5540   -20.4060 
  175.5000     2.4310    77.7500    23.2410    17.2870    27.7250   -20.4770 
  175.6250     2.4240    72.4720    28.2390    20.6250    34.6610   -20.5660 
  175.7500     2.4390    65.1690    34.2350    24.7710    40.9240   -20.6390 
  175.8750     2.4710    58.5990    40.6900    29.4390    50.3840   -20.7030 
  176.0000     2.4980    55.6790    46.7790    34.0890    60.9540   -20.6970 
  176.1250     2.4920    58.6300    51.4550    37.9370    65.7720   -20.6050 
  176.2500     2.4540    64.8100    54.8480    40.8820    63.6280   -20.4560 
  176.3750     2.4010    68.8140    57.6800    43.2880    58.2420   -20.2290 
  176.5000     2.3560    67.5360    60.9710    45.7880    60.1760   -19.9520 
  176.6250     2.3320    62.4230    65.9050    49.2420    66.0510   -19.5690 
  176.7500     2.3200    59.1480    72.1720    53.7430    75.3070   -19.1220 
  176.8750     2.3080    60.1710    77.4040    58.0260    86.7100   -18.6020 
  177.0000     2.2930    61.7370    76.4740    58.7600    94.0510   -18.0360 
  177.1250     2.2840    60.5630    63.5250    51.1470    97.7950   -17.4220 
  177.2500     2.2900    59.0600    44.9330    38.2860    89.9650   -16.7420 
  177.3750     2.3100    59.9060    28.2430    25.4910    60.7850   -16.0110 
  177.5000     2.3370    63.5860    16.8770    16.0750    28.2130   -15.2340 
  177.6250     2.3570    67.2810    10.9590    10.8080    11.4540   -14.4450 
  177.7500     2.3670    67.8690     7.9370     7.9290     7.4410   -13.6840 
  177.8750     2.3730    62.9700     6.6390     6.5080     6.6710   -12.9360 
  178.0000     2.3820    54.0870     6.3420     5.9810     6.7360   -12.1830 
  178.1250     2.3950    46.1480     6.5890     6.0700     6.7380   -11.4330 
  178.2500     2.4050    41.4800     6.9080     6.3880     6.6170   -10.7390 
  178.3750     2.4080    39.5130     7.0930     6.7230     6.3900   -10.1360 
  178.5000     2.4030    39.5730     7.1080     6.9560     6.2220    -9.6500 
  178.6250     2.3920    41.1110     7.0200     7.0540     6.1820    -9.2900 
