~V
VERS. 2.00: Ver 2.00
~W
STRT.M 50.0000:
STOP.M 253.0000:
STEP.M 0.1250:
NULL. -999.2500:
UWI. F10782:
~C
DEPT.M :
DEN.GM/CC :
GR.API :
RML.OHMM :
RI. :
RXO.OHMM :
SP.MV :
~A
# ...
   88.6250     2.2170    57.6660    22.6330    16.4040    19.9820   -12.1260 
   88.7500     2.2040    57.3890    22.6380    16.5300    20.2290   -11.8740 
   88.8750     2.1960    57.6040    22.7630    16.6770    20.0350   -11.6090 
   89.0000     2.1840    58.8870    22.9590    16.8150    19.8200   -11.3830 
   89.1250     2.1640    59.0880    23.1320    16.9290    19.7590   -11.1920 
   89.2500     2.1480    56.9850    23.2210    17.0220    19.6410   -11.0320 
   89.3750     2.1490    55.0580    23.1990    17.0770    19.4790   -10.9360 
   89.5000     2.1730    56.3460    23.0680    17.0620    19.3430   -10.8830 
   89.6250     2.2150    58.4210    22.8520    16.9350    19.2760   -10.8950 
   89.7500     2.2540    57.0230    22.5970    16.7110    19.1520   -10.9190 
   89.8750     2.2720    53.7250    22.2530    16.3960    18.9280   -10.9300 
   90.0000     2.2620    53.5360    21.7110    15.9750    18.9510   -10.9010 
   90.1250     2.2320    55.9430    20.8950    15.4230    19.0460   -10.8540 
   90.2500     2.2040    56.4580    19.9960    14.8220    18.6560   -10.8220 
   90.3750     2.1880    55.6450    19.2740    14.2940    17.8900   -10.7570 
   90.5000     2.1850    56.0000    18.9560    13.9720    17.0230   -10.6510 
   90.6250     2.1880    56.5650    19.2390    14.0200    16.7670   -10.4690 
   90.7500     2.1890    57.3270    19.9600    14.4140    17.6820   -10.2660 
   90.8750     2.1920    59.2490    20.9060    15.0880    19.2310   -10.0770 
   91.0000     2.1980    61.6990    21.8380    15.9010    19.7820    -9.9240 
   91.1250     2.2070    60.8230    22.5280    16.6520    19.2190    -9.7670 
   91.2500     2.2100    57.3910    22.9440    17.2080    19.0350    -9.5760 
   91.3750     2.2020    55.1890    23.1120    17.5470    19.5100    -9.3670 
   91.5000     2.1890    54.6690    23.1020    17.7250    19.8580    -9.1550 
   91.6250     2.1760    56.6610    22.9840    17.8120    19.7100    -8.9720 
   91.7500     2.1660    59.2600    22.8310    17.8710    19.3500    -8.8290 
   91.8750     2.1560    60.2600    22.7120    17.9260    19.0630    -8.7170 
   92.0000     2.1460    58.3920    22.6660    17.9770    18.9770    -8.6060 
   92.1250     2.1420    54.8940    22.4660    17.8650    19.2610    -8.5940 
   92.2500     2.1490    54.7070    21.6600    17.3100    20.0500    -8.6550 
   92.3750     2.1710    58.9600    19.8660    16.0670    20.9080    -8.8030 
   92.5000     2.2090    64.5300    17.1270    14.1620    21.3390    -9.0510 
   92.6250     2.2550    67.4380    14.0480    11.9800    19.4290    -9.3960 
   92.7500     2.2960    71.3410    11.4620    10.0660    13.1150    -9.8020 
   92.8750     2.3160    78.3720     9.7560     8.6790     8.0290   -10.2540 
   93.0000     2.3120    83.8390     8.9720     7.8890     7.4300   -10.7730 
   93.1250     2.2860    80.3510     9.0080     7.7110     7.8770   -11.2820 
   93.2500     2.2580    72.9030     9.4460     7.9220     8.6350   -11.7830 
   93.3750     2.2390    67.8160    10.0620     8.3810     9.1800   -12.2510 
   93.5000     2.2310    66.1100    10.7320     8.9610     9.4780   -12.6460 
   93.6250     2.2270    66.4330    11.4180     9.5630     9.2390   -12.9900 
   93.7500     2.2260    66.8660    12.1130    10.1300     9.0040   -13.2780 
   93.8750     2.2300    65.5310    12.7710    10.6290     9.1980   -13.5120 
   94.0000     2.2410    63.6160    13.2650    10.9960    10.0420   -13.6410 
   94.1250     2.2540    64.2970    13.3600    11.0890    10.6370   -13.7100 
   94.2500     2.2590    66.7530    13.0740    10.9180    10.3580   -13.7360 
   94.3750     2.2520    68.4110    12.5820    10.5680    10.0280   -13.7390 
   94.5000     2.2360    68.2560    12.1410    10.1940    10.1720   -13.7020 
   94.6250     2.2200    68.7390    12.0600     9.9930    10.1500   -13.5600 
   94.7500     2.2090    69.3720    12.4290    10.0480    10.2050   -13.3120 
   94.8750     2.2070    68.8120    13.2360    10.3790    10.7820   -13.0080 
   95.0000     2.2100    66.5440    14.3680    10.9370    11.4390   -12.6770 
   95.1250     2.2160    63.5560    15.6770    11.6440    11.6160   -12.2740 
   95.2500     2.2170    62.7310    17.0270    12.4070    11.8370   -11.8220 
   95.3750     2.2110    63.6360    18.4170    13.2340    12.1530   -11.3250 
   95.5000     2.2030    64.1500    19.9320    14.1950    12.5070   -10.8400 
   95.6250     2.2120    63.2310    21.7100    15.4100    13.7640   -10.3930 
   95.7500     2.2490    63.3090    23.5950    16.8030    17.8000   -10.0100 
   95.8750     2.3040    64.0880    25.2340    18.1570    27.6590    -9.6540 
   96.0000     2.3520    63.4480    26.1870    19.1370    39.0380    -9.3140 
   96.1250     2.3560    60.6720    26.0430    19.3580    32.9820    -9.0550 
   96.2500     2.3160    58.7410    25.1730    18.9840    21.2290    -8.8620 
   96.3750     2.2540    58.3990    23.9870    18.2690    14.8590    -8.7570 
   96.5000     2.1930    59.4040    22.6940    17.3760    12.5830    -8.7280 
   96.6250     2.1600    61.7560    21.1000    16.2310    11.9830    -8.7980 
   96.7500     2.1650    65.3340    19.0280    14.7630    11.8050    -8.9230 
   96.8750     2.2030    67.8190    16.5400    13.0060    11.5170    -9.1310 
   97.0000     2.2530    68.0780    13.9650    11.1610    10.5020    -9.4360 
   97.1250     2.2880    70.3130    11.8050     9.5420     8.8910    -9.7790 
   97.2500     2.3000    76.0540    10.2110     8.2650     7.9370   -10.1410 
   97.3750     2.2970    82.5590     9.1320     7.3250     7.7770   -10.4610 
   97.5000     2.2950    86.6390     8.4250     6.6670     7.6810   -10.7420 
   97.6250     2.2990    86.2920     8.0080     6.2780     7.3880   -10.9590 
   97.7500     2.3030    83.8640     7.7960     6.0830     7.1730   -11.1420 
   97.8750     2.3000    80.9630     7.8200     6.0850     7.0090   -11.2330 
   98.0000     2.2900    79.6070     8.1580     6.3200     7.3030   -11.2180 
   98.1250     2.2760    77.8680     8.9810     6.9130     7.9580   -11.0720 
   98.2500     2.2580    73.0040    10.2840     7.8720     8.5290   -10.8430 
   98.3750     2.2390    67.6070    12.0000     9.1940     9.1480   -10.5870 
   98.5000     2.2220    64.3810    13.8680    10.7480    10.3040   -10.3150 
   98.6250     2.2110    62.9140    15.2440    12.1030    11.9550   -10.0310 
   98.7500     2.2150    61.5510    15.5490    12.7260    12.8920    -9.7410 
   98.8750     2.2350    60.8600    14.5750    12.3140    12.7650    -9.4970 
   99.0000     2.2650    62.0260    12.6890    11.0160    11.5120    -9.3020 
   99.1250     2.2910    66.7360    10.6700     9.3540     9.8630    -9.2320 
   99.2500     2.3060    73.3620     9.1030     7.9000     8.6720    -9.2320 
   99.3750     2.3130    80.1610     8.1020     6.8470     7.8740    -9.3000 
   99.5000     2.3160    84.7550     7.5830     6.2040     7.0230    -9.4360 
   99.6250     2.3160    85.7460     7.4260     5.9180     6.6510    -9.6360 
   99.7500     2.3170    84.7800     7.4210     5.8010     6.6670    -9.8910 
   99.8750     2.3170    83.7580     7.4640     5.7420     6.8150   -10.1680 
  100.0000     2.3140    85.3810     7.4940     5.6780     7.1440   -10.4490 
  100.1250     2.3100    86.4550     7.5600     5.6430     6.5650   -10.7180 
  100.2500     2.3090    83.9400     7.8230     5.7450     6.6980   -11.0020 
  100.3750     2.3090    78.4860     8.4860     6.1100     7.3720   -11.2720 
  100.5000     2.3060    72.2960     9.7290     6.8570     8.1600   -11.4810 
  100.6250     2.2910    65.4040    11.6780     8.1080     9.4160   -11.6230 
  100.7500     2.2650    59.6510    13.8950     9.6280    11.9480   -11.7070 
  100.8750     2.2380    59.2560    15.6950    10.9980    12.8560   -11.7860 
  101.0000     2.2240    63.2290    16.3150    11.6880    12.3040   -11.8900 
  101.1250     2.2330    66.5750    15.2680    11.2750    11.4950   -12.0180 
  101.2500     2.2560    69.0850    13.4020    10.2250    10.3630   -12.1340 
  101.3750     2.2780    74.3070    11.5120     9.0290     8.7780   -12.2220 
