~V
VERS. 2.00: Ver 2.00
~W
STRT.M 50.0000:
STOP.M 253.0000:
STEP.M 0.1250:
NULL. -999.2500:
UWI. F10782:
~C
DEPT.M :
DEN.GM/CC :
GR.API :
RML.OHMM :
RI. :
RXO.OHMM :
SP.MV :
~A
# ...
   62.8750     2.1510    59.6550     9.5130     7.0770     9.9160   -14.6260 
   63.0000     2.1520    58.5720     9.2870     6.9790     9.9830   -14.7950 
   63.1250     2.1730    56.3230     9.0090     6.9490     9.8840   -14.9340 
   63.2500     2.2050    55.9270     9.0360     7.1310     9.6650   -15.0700 
   63.3750     2.2560    55.4260     9.5970     7.6480     9.4990   -15.1820 
   63.5000     2.3420    53.3790    10.7610     8.5450     9.6310   -15.2770 
   63.6250     2.4660    52.8540    12.3810     9.7140    10.7070   -15.3180 
   63.7500     2.5630    54.9480    13.7970    10.7210    12.3100   -15.3140 
   63.8750     2.5720    57.0420    14.3170    11.1350    12.7670   -15.2220 
   64.0000     2.4860    57.8300    13.7210    10.7810    11.2460   -15.0820 
   64.1250     2.3470    57.3630    12.5440     9.8770    10.1560   -14.8830 
   64.2500     2.2080    57.2740    11.5740     8.9690     9.8440   -14.6330 
   64.3750     2.1090    58.4610    10.9950     8.2720     9.9000   -14.3100 
   64.5000     2.0780    61.6680    10.6200     7.7690    10.0290   -13.8850 
   64.6250     2.1320    64.5780    10.0140     7.2620    10.1210   -13.2960 
   64.7500     2.2220    64.7430     8.9610     6.5810     9.7910   -12.5820 
   64.8750     2.3070    65.2920     7.6420     5.7550     8.5980   -11.8270 
   65.0000     2.3550    70.0320     6.4760     4.9690     6.5400   -11.1080 
   65.1250     2.3580    75.2760     5.8530     4.4920     5.3560   -10.5380 
   65.2500     2.3330    77.4330     5.7610     4.4040     5.0700   -10.1500 
   65.3750     2.2860    77.5380     6.1840     4.7440     5.6500    -9.9410 
   65.5000     2.2210    75.4530     7.1040     5.5160     6.8230    -9.9060 
   65.6250     2.1520    67.6770     8.4990     6.7060     8.6890   -10.0630 
   65.7500     2.1060    57.8980     9.9820     8.0040    10.1420   -10.3120 
   65.8750     2.0990    52.4860    11.0260     9.0170    12.1690   -10.5560 
   66.0000     2.1350    53.3170    11.1140     9.3480    15.5610   -10.7240 
   66.1250     2.1960    57.6080    10.0480     8.7650    18.0180   -10.7830 
   66.2500     2.2550    62.8340     8.5930     7.7360    13.0310   -10.6780 
   66.3750     2.2960    67.3400     7.3340     6.6710     8.5130   -10.4630 
   66.5000     2.3150    70.7460     6.5550     5.8350     6.4120   -10.1870 
   66.6250     2.3130    74.2080     6.3270     5.3730     6.0170    -9.9400 
   66.7500     2.3060    76.6120     6.4160     5.2100     6.2880    -9.7440 
   66.8750     2.3070    77.0880     6.6730     5.2810     7.1240    -9.6590 
   67.0000     2.3180    76.7170     6.9970     5.5010     8.4420    -9.6860 
   67.1250     2.3210    77.4210     7.3810     5.8010     8.8100    -9.8240 
   67.2500     2.2920    78.4420     7.8470     6.1270     8.1870   -10.0430 
   67.3750     2.2330    77.1310     8.3670     6.4610     7.7020   -10.3180 
   67.5000     2.1810    71.7830     8.8230     6.7720     8.4650   -10.6140 
   67.6250     2.1910    64.7240     8.9940     6.9800    11.8870   -10.8900 
   67.7500     2.2600    63.0740     8.8280     7.0250    15.9300   -11.1210 
   67.8750     2.3440    68.2780     8.4180     6.8960    13.8410   -11.2910 
   68.0000     2.3890    74.3940     7.9770     6.6570     8.9070   -11.3890 
   68.1250     2.3660    75.5310     7.7360     6.4350     7.1690   -11.3950 
   68.2500     2.3160    74.7260     7.6900     6.3030     7.4930   -11.3460 
   68.3750     2.2800    73.1800     7.7450     6.2550     7.8840   -11.2610 
   68.5000     2.2730    70.0390     7.8040     6.2480     8.3580   -11.1630 
   68.6250     2.2850    67.8150     7.8040     6.2240     8.1930   -11.0720 
   68.7500     2.2930    70.1120     7.7610     6.1590     7.5100   -11.0290 
   68.8750     2.2900    73.7100     7.7100     6.0580     7.1400   -11.0600 
   69.0000     2.2820    74.0790     7.7010     5.9480     7.1120   -11.1690 
   69.1250     2.2760    71.3170     7.8110     5.8780     7.9000   -11.3430 
   69.2500     2.2650    70.8260     8.0770     5.9060     7.8990   -11.5940 
   69.3750     2.2360    73.8340     8.5540     6.0990     7.2910   -11.9260 
   69.5000     2.1860    77.2380     9.2860     6.5200     7.0930   -12.3530 
   69.6250     2.1430    75.8950    10.2960     7.2360     8.5960   -12.8590 
   69.7500     2.1400    69.4860    11.4460     8.1400    10.9380   -13.4060 
   69.8750     2.1770    61.7640    12.5740     9.0850    12.0940   -13.9400 
   70.0000     2.2210    57.3080    13.4660     9.8780    11.9050   -14.4590 
   70.1250     2.2250    57.6400    13.8850    10.3010    11.5720   -14.9490 
   70.2500     2.1870    58.5930    13.9420    10.4180    11.6060   -15.3990 
   70.3750     2.1290    57.6100    13.8280    10.3720    11.5910   -15.7710 
   70.5000     2.0820    56.0450    13.7370    10.3160    11.5220   -16.0520 
   70.6250     2.0700    55.8370    13.8160    10.3580    11.3950   -16.2200 
   70.7500     2.0830    55.8760    14.0560    10.4950    11.3910   -16.3360 
   70.8750     2.1070    55.0200    14.3920    10.6970    11.4940   -16.4020 
   71.0000     2.1280    54.0390    14.7260    10.9100    11.6590   -16.4430 
   71.1250     2.1440    53.7060    14.9810    11.0810    11.8480   -16.4060 
   71.2500     2.1580    54.0030    15.1950    11.2020    11.8820   -16.2810 
   71.3750     2.1700    54.0400    15.4180    11.2890    11.7730   -16.0550 
   71.5000     2.1770    53.8650    15.6430    11.3550    11.6370   -15.7410 
   71.6250     2.1760    53.5020    15.7810    11.3940    11.4880   -15.3760 
   71.7500     2.1700    53.5460    15.7800    11.4060    11.4780   -14.9900 
   71.8750     2.1670    53.7390    15.6710    11.3980    11.5810   -14.6090 
   72.0000     2.1730    54.3570    15.6010    11.4070    11.6550   -14.2390 
   72.1250     2.1840    56.9010    15.9010    11.5520    11.4510   -13.9590 
   72.2500     2.1950    57.7920    16.7770    11.9540    11.2770   -13.7420 
   72.3750     2.2110    55.0700    18.2950    12.7090    11.3810   -13.6210 
   72.5000     2.2460    51.7350    20.2830    13.8000    12.0150   -13.5920 
   72.6250     2.3020    53.3240    22.1910    15.0270    14.5860   -13.6280 
   72.7500     2.3480    57.6050    23.2520    15.9490    19.5660   -13.6900 
   72.8750     2.3510    60.9680    22.9650    16.1800    22.0030   -13.8170 
   73.0000     2.3040    62.9170    21.4280    15.6060    16.9110   -13.9950 
   73.1250     2.2270    62.3220    19.3760    14.4740    13.0440   -14.2120 
   73.2500     2.1550    60.3000    17.7150    13.3500    11.6560   -14.4930 
   73.3750     2.1050    59.1850    16.7430    12.5210    11.4420   -14.8240 
   73.5000     2.0740    59.5360    16.4000    12.0910    11.4230   -15.1920 
   73.6250     2.0670    58.5780    16.4490    12.0600    11.4310   -15.6080 
   73.7500     2.0800    56.2980    16.5660    12.2030    11.5060   -16.0580 
   73.8750     2.1120    54.6620    16.6550    12.3720    11.6080   -16.5080 
   74.0000     2.1470    54.7800    16.7120    12.4780    11.5220   -16.9190 
   74.1250     2.1680    57.8100    16.6990    12.4800    11.3050   -17.2620 
   74.2500     2.1740    62.3330    16.5620    12.4020    11.1610   -17.5230 
   74.3750     2.1720    64.3970    16.2780    12.2570    10.9960   -17.7200 
   74.5000     2.1670    60.7780    15.8720    12.0500    10.8200   -17.8160 
   74.6250     2.1560    55.7800    15.3880    11.7760    10.7640   -17.7860 
   74.7500     2.1380    56.6760    14.8970    11.4720    10.7710   -17.6210 
   74.8750     2.1160    61.4800    14.4500    11.1950    10.7000   -17.3510 
   75.0000     2.1020    65.1230    14.1220    11.0140    10.5290   -17.0170 
   75.1250     2.1040    64.5660    14.0540    11.0260    10.3810   -16.6730 
   75.2500     2.1160    61.3870    14.2470    11.2270    10.5280   -16.3270 
   75.3750     2.1310    56.9250    14.6050    11.5620    10.7370   -15.9710 
   75.5000     2.1480    53.5450    14.9020    11.8830    10.6910   -15.6190 
   75.6250     2.1770    54.1810    14.7330    11.8850    10.4830   -15.2570 
