~V
VERS. 2.00: Ver 2.00
~W
STRT.M 50.0000:
STOP.M 253.0000:
STEP.M 0.1250:
NULL. -999.2500:
UWI. F10782:
~C
DEPT.M :
DEN.GM/CC :
GR.API :
RML.OHMM :
RI. :
RXO.OHMM :
SP.MV :
~A
# ...
  101.5000     2.2900    80.2430    10.1060     8.0330     7.9650   -12.2860 
  101.6250     2.2900    80.0580     9.3830     7.4140     8.0290   -12.3400 
  101.7500     2.2870    78.3700     9.1200     7.0990     8.1320   -12.3870 
  101.8750     2.2890    79.7610     9.1910     7.0390     8.4400   -12.3890 
  102.0000     2.2930    80.8270     9.4910     7.1700     8.5370   -12.3720 
  102.1250     2.2960    77.2630     9.9590     7.4220     8.5730   -12.2760 
  102.2500     2.2920    73.9700    10.4970     7.7040     8.5500   -12.1580 
  102.3750     2.2830    74.4950    11.0170     7.9650     8.9380   -12.0500 
  102.5000     2.2710    76.9850    11.4040     8.1570     9.3990   -11.9750 
  102.6250     2.2590    79.4590    11.4990     8.2190     9.4440   -11.9250 
  102.7500     2.2550    81.0870    11.2990     8.1620     9.0630   -11.8960 
  102.8750     2.2690    80.5910    10.8170     7.9880     8.9160   -11.9130 
  103.0000     2.3060    79.3380    10.1000     7.7040     9.0240   -11.9510 
  103.1250     2.3590    81.2750     9.2450     7.3210     9.1640   -12.0850 
  103.2500     2.3980    84.0700     8.4380     6.9140     9.0740   -12.2500 
  103.3750     2.4020    84.6550     7.8360     6.5580     8.5610   -12.4470 
  103.5000     2.3670    81.9460     7.5660     6.3360     7.6470   -12.6530 
  103.6250     2.3160    78.0940     7.7630     6.3570     7.3340   -12.8660 
  103.7500     2.2750    75.5360     8.3160     6.5930     7.7970   -13.0250 
  103.8750     2.2570    74.7320     9.0770     6.9740     8.8120   -13.1100 
  104.0000     2.2590    74.6860     9.8090     7.3700     9.6160   -13.1290 
  104.1250     2.2710    73.3080    10.1510     7.5840    10.2610   -13.0650 
  104.2500     2.2860    72.3750    10.0060     7.5430    10.8050   -12.9760 
  104.3750     2.3010    73.1830     9.5100     7.2960     9.8410   -12.8650 
  104.5000     2.3090    75.2350     8.9520     6.9790     8.5590   -12.7260 
  104.6250     2.3070    76.8730     8.6360     6.7530     7.8950   -12.5530 
  104.7500     2.2960    78.4450     8.5920     6.6560     7.5950   -12.4080 
  104.8750     2.2830    79.3410     8.7180     6.6610     7.7680   -12.3180 
  105.0000     2.2760    78.9490     8.8660     6.7060     8.2220   -12.2740 
  105.1250     2.2780    80.6480     8.9290     6.7340     8.4850   -12.2790 
  105.2500     2.2780    82.9350     8.9700     6.7530     8.1810   -12.3170 
  105.3750     2.2660    82.7040     9.1010     6.8170     7.8990   -12.3870 
  105.5000     2.2400    78.3080     9.4130     6.9860     8.1200   -12.5120 
  105.6250     2.2150    72.8950     9.9790     7.3250     8.6020   -12.6940 
  105.7500     2.2070    69.7820    10.7490     7.8260     9.3510   -12.9000 
  105.8750     2.2190    67.2050    11.6790     8.4810    10.1770   -13.0600 
  106.0000     2.2350    66.2610    12.7320     9.2620    10.3540   -13.1770 
  106.1250     2.2340    68.6590    13.8810    10.1150    10.2800   -13.2020 
  106.2500     2.2160    71.8320    15.0170    10.9280    10.6080   -13.1900 
  106.3750     2.1890    72.0360    15.9080    11.5500    11.3970   -13.1320 
  106.5000     2.1620    68.4720    16.1960    11.7770    11.7200   -13.0310 
  106.6250     2.1490    66.3420    15.4470    11.3400    11.3520   -12.8780 
  106.7500     2.1530    67.6790    13.9960    10.4360    10.9580   -12.7380 
  106.8750     2.1790    71.7860    12.4400     9.4050    10.3420   -12.6390 
  107.0000     2.2280    77.7350    11.4560     8.6470     9.4040   -12.5730 
  107.1250     2.2910    82.1890    11.7730     8.5930     8.4980   -12.5470 
  107.2500     2.3350    80.9750    13.3980     9.3090     8.9800   -12.4970 
  107.3750     2.3360    72.8820    16.1430    10.7860    11.5080   -12.4190 
  107.5000     2.2970    61.8260    19.4300    12.7940    14.7080   -12.3410 
  107.6250     2.2430    56.5470    22.0290    14.6860    16.8980   -12.2860 
  107.7500     2.1990    56.5680    23.0640    15.7600    17.4070   -12.2620 
  107.8750     2.1760    58.2770    22.6280    15.8730    16.1900   -12.2380 
  108.0000     2.1680    59.8610    21.5890    15.4530    13.8080   -12.1890 
  108.1250     2.1590    61.0300    20.9480    15.1400    12.6300   -12.0930 
  108.2500     2.1420    58.7790    20.9750    15.2090    13.1000   -11.9840 
  108.3750     2.1190    54.5070    21.5170    15.6100    14.8990   -11.8940 
  108.5000     2.0980    52.7870    22.2620    16.1450    16.5600   -11.8100 
  108.6250     2.0930    54.7050    22.7430    16.5110    15.9700   -11.7370 
  108.7500     2.1080    56.0670    22.6680    16.5360    14.2650   -11.6360 
  108.8750     2.1350    56.7360    21.9820    16.1950    13.2740   -11.5260 
  109.0000     2.1620    58.4560    20.8490    15.5820    12.9150   -11.4620 
  109.1250     2.1770    61.4330    19.5390    14.8410    12.7690   -11.4930 
  109.2500     2.1820    62.9580    18.3220    14.1290    12.3960   -11.5690 
  109.3750     2.1840    61.6440    17.3420    13.5350    11.8200   -11.6820 
  109.5000     2.1850    58.8030    16.7210    13.1390    11.3150   -11.7860 
  109.6250     2.1800    56.7970    16.6310    13.0580    11.1160   -11.8740 
  109.7500     2.1650    56.9770    16.9570    13.2330    11.2760   -11.9480 
  109.8750     2.1460    59.8510    17.4120    13.4920    11.6530   -12.0570 
  110.0000     2.1350    65.1350    17.4940    13.5250    12.3690   -12.1700 
  110.1250     2.1500    68.2820    16.5850    12.9170    12.8860   -12.2850 
  110.2500     2.1870    69.9240    14.9040    11.7690    12.8500   -12.4300 
  110.3750     2.2280    73.1220    13.0140    10.4230    11.3800   -12.6070 
  110.5000     2.2560    77.6010    11.5500     9.2980     9.0630   -12.8230 
  110.6250     2.2520    78.8560    11.0720     8.8000     8.2330   -13.0480 
  110.7500     2.2270    76.6130    11.4580     8.9360     9.0070   -13.2480 
  110.8750     2.1990    72.5970    12.4660     9.6170    10.7320   -13.4110 
  111.0000     2.1860    67.9100    13.6630    10.5880    12.2490   -13.5560 
  111.1250     2.1990    65.2810    14.3140    11.3160    12.7080   -13.6860 
  111.2500     2.2270    65.9540    14.0340    11.3690    11.9300   -13.7600 
  111.3750     2.2570    68.6380    12.9620    10.7180    10.7310   -13.7340 
  111.5000     2.2810    70.4440    11.6250     9.7000     9.7580   -13.6050 
  111.6250     2.2860    71.3100    10.5770     8.7700     9.0500   -13.3970 
  111.7500     2.2810    72.8680     9.9440     8.1430     8.4530   -13.1810 
  111.8750     2.2740    74.3150     9.6760     7.8410     7.8560   -12.9590 
  112.0000     2.2750    73.3460     9.6530     7.7970     7.8440   -12.7010 
  112.1250     2.2850    72.0600     9.7450     7.9040     8.2110   -12.4210 
  112.2500     2.2980    75.0940     9.8440     8.0220     8.2360   -12.1640 
  112.3750     2.3060    80.2960     9.9090     8.0860     8.3400   -11.9670 
  112.5000     2.3090    82.3430     9.9080     8.0760     8.6850   -11.8470 
  112.6250     2.3110    78.1190     9.8290     8.0090     9.0660   -11.8120 
  112.7500     2.3200    74.8270     9.7420     7.9560     9.2550   -11.8350 
  112.8750     2.3300    76.6560     9.7200     7.9660     9.2230   -11.8900 
  113.0000     2.3320    79.2250     9.8200     8.0580     9.3350   -12.0300 
  113.1250     2.3190    75.6570    10.0990     8.2250     9.8590   -12.2150 
  113.2500     2.3020    70.4070    10.4590     8.4010    10.1110   -12.4420 
  113.3750     2.2880    69.1950    10.7450     8.5170    10.2770   -12.6600 
  113.5000     2.2810    71.7400    10.8330     8.5250    10.4100   -12.8840 
  113.6250     2.2780    73.1290    10.7280     8.4400    10.7990   -13.0950 
  113.7500     2.2770    72.7630    10.6640     8.3940    11.0530   -13.2930 
  113.8750     2.2820    71.8000    10.8930     8.5360    10.8950   -13.4640 
  114.0000     2.3080    70.2140    11.6410     9.0080    10.4070   -13.5800 
  114.1250     2.3760    67.1270    13.0830     9.9480    11.7430   -13.6660 
  114.2500     2.4720    64.5550    14.9420    11.2170    14.8740   -13.6780 
