~V
VERS. 2.00: Ver 2.00
~W
STRT.M 50.0000:
STOP.M 253.0000:
STEP.M 0.1250:
NULL. -999.2500:
UWI. F10782:
~C
DEPT.M :
DEN.GM/CC :
GR.API :
RML.OHMM :
RI. :
RXO.OHMM :
SP.MV :
~A
# ...
  178.7500     2.3810    43.5590     6.9050     7.0740     6.1570    -8.9810 
  178.8750     2.3690    44.9970     6.7700     7.0410     6.0820    -8.7420 
  179.0000     2.3560    44.1980     6.6190     6.9610     5.9930    -8.5940 
  179.1250     2.3460    43.5220     6.4700     6.8160     5.9200    -8.5560 
  179.2500     2.3430    46.4950     6.3330     6.6120     5.8410    -8.6060 
  179.3750     2.3510    52.7880     6.2110     6.3610     5.7650    -8.7250 
  179.5000     2.3660    58.8830     6.1080     6.0860     5.7860    -8.8810 
  179.6250     2.3780    63.0910     6.0060     5.8120     5.8740    -9.0620 
  179.7500     2.3810    65.8090     5.8830     5.5530     5.8890    -9.3020 
  179.8750     2.3770    67.0320     5.7600     5.3150     5.8360    -9.5730 
  180.0000     2.3750    68.4510     5.7070     5.1170     5.9030    -9.8690 
  180.1250     2.3800    72.2900     5.8430     5.0330     6.0990   -10.1780 
  180.2500     2.3870    75.8130     6.2440     5.1400     6.4590   -10.4950 
  180.3750     2.3890    74.8890     7.0170     5.5240     7.3240   -10.8120 
  180.5000     2.3800    70.0710     8.2910     6.2780     9.2970   -11.1080 
  180.6250     2.3590    65.0270    10.3430     7.5910    12.8920   -11.3510 
  180.7500     2.3380    59.8390    13.1500     9.4530    16.8040   -11.5510 
  180.8750     2.3360    53.2810    16.6020    11.8230    20.0790   -11.7190 
  181.0000     2.3660    47.5870    20.4020    14.5430    14.3410   -11.8410 
  181.1250     2.4110    45.9520    24.1060    17.3440    18.6420   -11.9570 
  181.2500     2.4370    48.3830    27.3180    19.8930    24.0260   -12.0180 
  181.3750     2.4340    53.4750    29.6970    21.8930    24.9500   -11.9870 
  181.5000     2.4160    57.6460    30.9150    23.0640    22.3030   -11.8960 
  181.6250     2.4090    57.0980    30.4000    22.9550    22.9640   -11.7680 
  181.7500     2.4110    54.9490    28.3470    21.6740    22.7850   -11.6450 
  181.8750     2.4070    55.5370    25.2060    19.5230    19.5570   -11.5330 
  182.0000     2.3800    60.7580    21.7650    17.0600    15.6030   -11.4440 
  182.1250     2.3410    66.7240    18.8970    14.9040    12.9410   -11.3330 
  182.2500     2.3160    71.4520    16.9420    13.3320    11.0150   -11.2150 
  182.3750     2.3140    74.5030    15.9690    12.4310     9.9910   -11.1300 
  182.5000     2.3260    74.3960    15.8060    12.1430    10.5090   -11.0960 
  182.6250     2.3330    72.4380    16.0630    12.2930    11.0000   -11.1070 
  182.7500     2.3260    71.1990    16.1560    12.4800    11.0630   -11.0780 
  182.8750     2.3080    71.6180    15.7590    12.4260    10.0890   -11.0580 
  183.0000     2.2900    70.2220    14.8140    11.9910     9.3310   -11.0530 
  183.1250     2.2860    68.1960    13.5570    11.2080     8.9760   -11.0890 
  183.2500     2.2960    70.4360    12.4270    10.3770     8.2990   -11.1570 
  183.3750     2.3130    74.7640    11.6350     9.6960     7.6430   -11.2530 
  183.5000     2.3220    75.9370    11.2130     9.2600     7.4340   -11.3400 
  183.6250     2.3150    73.7490    11.1290     9.1130     7.7460   -11.4470 
  183.7500     2.2990    73.1050    11.2530     9.1790     8.4330   -11.5780 
  183.8750     2.2820    73.8110    11.5430     9.4360     8.6740   -11.7000 
  184.0000     2.2680    72.0000    11.9780     9.8700     8.3320   -11.7920 
  184.1250     2.2630    69.8260    12.6070    10.4820     8.0090   -11.8470 
  184.2500     2.2680    69.4260    13.3580    11.1770     8.6810   -11.8710 
  184.3750     2.2820    69.5450    14.0180    11.7710    10.2530   -11.8680 
  184.5000     2.3020    68.2610    14.2350    11.9920    11.1920   -11.8410 
  184.6250     2.3200    67.7520    13.6060    11.5340     9.9750   -11.7890 
  184.7500     2.3290    70.0480    12.3870    10.6090     8.6550   -11.7030 
  184.8750     2.3280    73.6470    11.0080     9.5380     7.1760   -11.5810 
  185.0000     2.3200    75.7240     9.9020     8.6370     5.7520   -11.4620 
  185.1250     2.3120    74.8430     9.4110     8.1680     5.6080   -11.3970 
  185.2500     2.3060    71.6730     9.4500     8.0960     6.0490   -11.3890 
  185.3750     2.3070    69.3630     9.9030     8.3440     6.3460   -11.4410 
  185.5000     2.3150    69.0510    10.5910     8.7880     6.3960   -11.5420 
  185.6250     2.3280    68.2720    11.2060     9.2330     6.9590   -11.6990 
  185.7500     2.3360    66.8410    11.4330     9.4530     8.1200   -11.9170 
  185.8750     2.3360    67.5630    11.1360     9.3120     8.6490   -12.2090 
  186.0000     2.3300    72.1690    10.4560     8.8470     8.0330   -12.5790 
  186.1250     2.3280    75.8690     9.8810     8.3180     6.9880   -12.9840 
  186.2500     2.3330    74.6580     9.9750     8.1140     6.5740   -13.4150 
  186.3750     2.3570    70.3650    11.2030     8.5730     6.7830   -13.8240 
  186.5000     2.4090    64.1030    13.9630    10.0440     8.1960   -14.2150 
  186.6250     2.4880    57.1570    18.8150    13.1100    13.5090   -14.5860 
  186.7500     2.5540    51.0450    25.1350    17.5720    23.3420   -14.9410 
  186.8750     2.5610    47.7500    31.5090    22.6420    32.4190   -15.2560 
  187.0000     2.4960    48.5760    35.4460    26.5400    35.9020   -15.4970 
  187.1250     2.3880    52.8490    34.3490    26.9520    27.7010   -15.6690 
  187.2500     2.2890    56.8420    30.2100    24.7520    19.9680   -15.7560 
  187.3750     2.2230    58.0230    25.4560    21.5820    16.1310   -15.7970 
  187.5000     2.1970    58.6130    21.5730    18.6680    14.4660   -15.8020 
  187.6250     2.2070    62.3860    19.1090    16.5890    13.3790   -15.7840 
  187.7500     2.2330    66.4280    17.6400    15.2150    12.5590   -15.7500 
  187.8750     2.2610    67.0490    16.8760    14.4240    12.0150   -15.7070 
  188.0000     2.2840    64.7790    16.5420    14.0600    11.4250   -15.6250 
  188.1250     2.2960    62.3730    16.4260    13.9730    11.3170   -15.4660 
  188.2500     2.2980    59.6860    16.2950    13.9320    11.5030   -15.2650 
  188.3750     2.2940    57.1930    15.9980    13.7680    11.3430   -15.0630 
  188.5000     2.2900    56.0610    15.4290    13.3620    10.9310   -14.8860 
  188.6250     2.2920    57.9050    14.5650    12.6650    10.6590   -14.6900 
  188.7500     2.3010    62.0400    13.5990    11.8360    10.1170   -14.4930 
  188.8750     2.3150    66.2960    12.7550    11.0440     8.9480   -14.2910 
  189.0000     2.3280    67.0680    12.2960    10.4820     8.1630   -14.1420 
  189.1250     2.3380    64.4920    12.6290    10.4320     8.2260   -14.0870 
  189.2500     2.3460    63.3040    13.8820    11.0030     8.7460   -14.1020 
  189.3750     2.3500    62.9700    16.2340    12.3430     9.6800   -14.1400 
  189.5000     2.3470    61.9380    19.8110    14.5990    12.1410   -14.1970 
  189.6250     2.3390    61.4970    24.7190    17.9940    16.4780   -14.2910 
  189.7500     2.3430    61.1810    30.2620    22.1210    20.5840   -14.4070 
  189.8750     2.3690    57.1690    35.7050    26.4650    21.4990   -14.5370 
  190.0000     2.4120    48.1570    40.4130    30.4750    23.3890   -14.6480 
  190.1250     2.4460    41.4510    44.1220    33.8200    27.6950   -14.7250 
  190.2500     2.4530    41.6070    47.4410    36.8120    33.3880   -14.7860 
  190.3750     2.4380    45.7240    50.6600    39.6740    35.5610   -14.8100 
  190.5000     2.4150    49.6990    53.0530    41.9830    37.1170   -14.7890 
  190.6250     2.3910    51.6060    51.7480    41.6730    40.0660   -14.7220 
  190.7500     2.3590    54.3570    45.4570    37.5390    42.5190   -14.6210 
  190.8750     2.3220    57.2300    35.5150    30.2770    43.0330   -14.4930 
  191.0000     2.2950    58.6260    25.1880    22.2780    33.6190   -14.3550 
  191.1250     2.2950    60.2720    17.5090    15.9910    19.6320   -14.2440 
  191.2500     2.3210    63.9600    12.5900    11.7510    10.6430   -14.1300 
  191.3750     2.3580    69.8060     9.8250     9.2030     7.3020   -14.0200 
  191.5000     2.3910    74.3980     8.5080     7.8550     6.4600   -13.8980 
