~V
VERS. 2.00: Ver 2.00
~W
STRT.M 50.0000:
STOP.M 253.0000:
STEP.M 0.1250:
NULL. -999.2500:
UWI. F10782:
~C
DEPT.M :
DEN.GM/CC :
GR.API :
RML.OHMM :
RI. :
RXO.OHMM :
SP.MV :
~A
# ...
  230.2500     2.3780    78.6810     9.8540     8.4940     7.2720   -23.6020 
  230.3750     2.3730    77.3210     7.9670     6.8680     5.1110   -24.0950 
  230.5000     2.3740    72.4210     6.7770     5.7670     4.2440   -24.5910 
  230.6250     2.3760    67.7810     6.2450     5.2350     4.2140   -25.1050 
  230.7500     2.3740    67.2920     6.1380     5.0930     4.5810   -25.6470 
  230.8750     2.3730    70.4350     6.3360     5.2250     5.0720   -26.2480 
  231.0000     2.3760    73.1690     6.7090     5.4880     5.2440   -26.9290 
  231.1250     2.3810    72.8180     7.0890     5.7330     5.1810   -27.7240 
  231.2500     2.3820    72.3920     7.3530     5.8830     5.0480   -28.5090 
  231.3750     2.3740    72.9820     7.4580     5.9430     4.9480   -29.2450 
  231.5000     2.3600    73.5170     7.4130     5.9560     5.0380   -29.9250 
  231.6250     2.3450    73.2720     7.2660     5.9640     5.2710   -30.5500 
  231.7500     2.3370    73.6980     7.1090     5.9690     5.3520   -31.1310 
  231.8750     2.3370    73.6050     6.9840     5.9530     5.2910   -31.6800 
  232.0000     2.3440    71.4820     6.8800     5.8940     5.3490   -32.2080 
  232.1250     2.3530    70.1110     6.7410     5.7830     5.3790   -32.6380 
  232.2500     2.3630    70.5030     6.5820     5.6580     5.2380   -33.0050 
  232.3750     2.3740    70.4750     6.4970     5.5730     5.1130   -33.3070 
  232.5000     2.3800    68.4360     6.6010     5.5800     5.0870   -33.5020 
  232.6250     2.3710    67.5060     6.9790     5.7290     5.1840   -33.5330 
  232.7500     2.3480    68.4890     7.4910     5.9730     5.5940   -33.3460 
  232.8750     2.3250    69.6220     7.9480     6.2330     6.2470   -32.8670 
  233.0000     2.3130    70.4780     8.1400     6.3990     6.6140   -32.0190 
  233.1250     2.3210    70.0470     7.9000     6.3340     6.1160   -30.8090 
  233.2500     2.3410    66.7450     7.3940     6.0660     5.3890   -29.3430 
  233.3750     2.3620    60.5260     6.8270     5.6880     4.8810   -27.6980 
  233.5000     2.3750    54.4120     6.3840     5.3220     4.6310   -26.0250 
  233.6250     2.3800    53.0780     6.2040     5.0990     4.6150   -24.4230 
  233.7500     2.3760    56.0060     6.2490     5.0440     4.7230   -22.9950 
  233.8750     2.3650    60.4710     6.4640     5.1410     4.9260   -21.8190 
  234.0000     2.3500    64.6260     6.7640     5.3390     5.2490   -20.9470 
  234.1250     2.3410    66.9740     7.0580     5.5730     5.5310   -20.4190 
  234.2500     2.3400    68.3070     7.2620     5.7710     5.5690   -20.1320 
  234.3750     2.3430    69.8260     7.3320     5.8950     5.4310   -20.0700 
  234.5000     2.3460    71.7140     7.2750     5.9400     5.2890   -20.1170 
  234.6250     2.3440    72.6990     7.1440     5.9250     5.2240   -20.2360 
  234.7500     2.3410    70.9610     7.0170     5.8920     5.1230   -20.3770 
  234.8750     2.3380    67.7310     6.9150     5.8570     5.0660   -20.5440 
  235.0000     2.3340    65.4330     6.8260     5.8170     5.1450   -20.7640 
  235.1250     2.3240    65.0800     6.7210     5.7520     5.1630   -21.0860 
  235.2500     2.3140    64.8380     6.5990     5.6600     4.9250   -21.5300 
  235.3750     2.3160    61.7750     6.4800     5.5520     4.5090   -22.0430 
  235.5000     2.3420    54.0450     6.3900     5.4440     4.1610   -22.6320 
  235.6250     2.3980    44.2970     6.3300     5.3470     4.1870   -23.2530 
  235.7500     2.4470    38.5960     6.2640     5.2510     4.3320   -23.8250 
  235.8750     2.4510    37.6710     6.1600     5.1340     4.2920   -24.2830 
  236.0000     2.4030    39.0140     6.0100     4.9750     4.1800   -24.6520 
  236.1250     2.3290    40.8960     5.8490     4.7960     3.9100   -24.9140 
  236.2500     2.2740    43.4060     5.7460     4.6740     3.7300   -25.1130 
  236.3750     2.2560    47.3120     5.7570     4.6860     3.8920   -25.2560 
  236.5000     2.2730    53.4320     5.9410     4.8810     4.5990   -25.3050 
  236.6250     2.2980    62.2880     6.3670     5.2800     5.8110   -25.2320 
  236.7500     2.3110    70.3790     6.9470     5.7580     6.1420   -25.1130 
  236.8750     2.3070    74.5010     7.5390     6.1940     5.8990   -25.0440 
  237.0000     2.2970    74.7210     8.0020     6.5000     5.4560   -25.0000 
  237.1250     2.2940    72.6510     8.2460     6.6430     5.5330   -24.9710 
  237.2500     2.3000    70.7260     8.3590     6.6970     5.7680   -24.9020 
  237.3750     2.3150    70.1440     8.4230     6.7020     6.3280   -24.8200 
  237.5000     2.3310    69.9400     8.5080     6.6910     7.4940   -24.8110 
  237.6250     2.3400    68.8110     8.7060     6.7380     8.2090   -24.9710 
  237.7500     2.3440    67.8100     9.1120     6.9460     7.7740   -25.3080 
  237.8750     2.3520    68.8390     9.8690     7.4290     7.5790   -25.7600 
  238.0000     2.3700    71.6370    11.0980     8.2680     9.8580   -26.2820 
  238.1250     2.3880    74.4530    12.8000     9.4850    14.9530   -26.7960 
  238.2500     2.3910    76.5440    14.5230    10.8200    17.8800   -27.3160 
  238.3750     2.3760    78.9670    15.7560    11.9560    15.2050   -27.7860 
  238.5000     2.3550    80.9370    16.1790    12.6120    11.2870   -28.1490 
  238.6250     2.3460    81.1840    15.8680    12.6810     9.9470   -28.3350 
  238.7500     2.3530    80.6620    15.4000    12.4770    10.1430   -28.3420 
  238.8750     2.3710    80.3940    15.0020    12.1800    10.4850   -28.1330 
  239.0000     2.3910    81.1740    14.5840    11.8130    10.8440   -27.7280 
  239.1250     2.4020    79.7710    13.8060    11.2320    10.8770   -27.1160 
  239.2500     2.3970    75.5230    12.6040    10.3980    10.1500   -26.2970 
  239.3750     2.3760    72.7930    11.1590     9.3950     7.8840   -25.3630 
  239.5000     2.3480    73.5270     9.7680     8.4020     6.1500   -24.3590 
  239.6250     2.3250    75.0230     8.7200     7.6160     5.4870   -23.3090 
  239.7500     2.3160    74.1780     8.0530     7.0690     5.3800   -22.2380 
  239.8750     2.3170    73.0520     7.7320     6.7390     5.2790   -21.1850 
  240.0000     2.3130    73.1260     7.6460     6.5740     5.2940   -20.2150 
  240.1250     2.2810    71.8530     7.6380     6.5090     5.3350   -19.3760 
  240.2500     2.2270    68.2880     7.5620     6.4590     5.2030   -18.6340 
  240.3750     2.1700    63.7440     7.3820     6.3870     4.9370   -18.0110 
  240.5000     2.1400    59.8070     7.1370     6.2900     4.7380   -17.4870 
  240.6250     2.1600    58.3180     6.9150     6.1940     4.5710   -17.1510 
  240.7500     2.2160    59.4460     6.8020     6.1410     4.5090   -17.0100 
  240.8750     2.2830    61.8200     6.8510     6.1730     4.6400   -17.0990 
  241.0000     2.3290    62.9180     7.0780     6.3110     4.9240   -17.3220 
  241.1250     2.3430    60.2030     7.4660     6.5500     5.4490   -17.6210 
  241.2500     2.3350    56.4940     7.8780     6.8080     6.1970   -17.9960 
  241.3750     2.3170    55.4490     8.2010     7.0130     6.7190   -18.3530 
  241.5000     2.3010    56.9510     8.3430     7.1040     6.7490   -18.6340 
  241.6250     2.3000    58.6570     8.2520     7.0430     6.0000   -18.8190 
  241.7500     2.3140    58.9060     8.0460     6.8990     5.5200   -19.0060 
  241.8750     2.3310    58.2670     7.8440     6.7430     5.6690   -19.1670 
  242.0000     2.3380    58.1740     7.7470     6.6340     6.1020   -19.3480 
  242.1250     2.3230    58.4920     7.8260     6.6130     6.2200   -19.6150 
  242.2500     2.2970    56.9520     8.0590     6.6910     6.3680   -19.9650 
  242.3750     2.2740    54.7710     8.4280     6.8930     6.3650   -20.3830 
  242.5000     2.2670    51.3530     8.9110     7.2390     6.2260   -20.8980 
  242.6250     2.2860    46.8320     9.5000     7.7390     6.4890   -21.4290 
  242.7500     2.3150    46.8320    10.1020     8.2960     7.6460   -21.7860 
  242.8750     2.3340    46.8320    10.5440     8.7580     9.2090   -21.9010 
  243.0000     2.3220    46.8320    10.5770     8.9180     9.5880   -21.7280 
