~V
VERS. 2.00: Ver 2.00
~W
STRT.M 50.0000:
STOP.M 253.0000:
STEP.M 0.1250:
NULL. -999.2500:
UWI. F10782:
~C
DEPT.M :
DEN.GM/CC :
GR.API :
RML.OHMM :
RI. :
RXO.OHMM :
SP.MV :
~A
   50.0000     2.1350    36.5740     2.8820     0.9380     1.6070  -999.2500 
   50.1250     2.1320    36.1130     2.9090     0.9540     1.6320  -999.2500 
   50.2500     2.1240    33.7540     3.0090     0.9690     1.6440  -999.2500 
   50.3750     2.1270    31.8900     3.1940     0.9890     1.6380  -999.2500 
   50.5000     2.1380    31.9190     3.4250     1.0170     1.6270  -999.2500 
   50.6250     2.1450    33.4110     3.6100     1.0430     1.6340  -999.2500 
   50.7500     2.1370    35.0950     3.6990     1.0540     1.6450  -999.2500 
   50.8750     2.1180    35.5290     3.6900     1.0490     1.6460  -999.2500 
   51.0000     2.0990    34.9860     3.6120     1.0370     1.6490  -999.2500 
   51.1250     2.0910    36.3950     3.4950     1.0220     1.6550  -999.2500 
   51.2500     2.0960    39.6990     3.3410     1.0000     1.6540  -999.2500 
   51.3750     2.1090    42.9410     3.1690     0.9660     1.6410  -999.2500 
   51.5000     2.1260    44.2220     3.0760     0.9230     1.6290  -999.2500 
   51.6250     2.1410    42.9000     3.2140     0.8810     1.6100    98.7970 
   51.7500     2.1540    40.7300     3.6180     0.8590     1.5980    98.7970 
   51.8750     2.1600    38.9260     4.2610     0.8780     1.5930    98.5910 
   52.0000     2.1580    37.7730     5.0690     0.9410     1.5900    98.3460 
   52.1250     2.1450    36.7010     5.9010     1.0410     1.6030    98.2560 
   52.2500     2.1300    34.9690     6.5560     1.1350     1.6120    98.2480 
   52.3750     2.1220    33.2770     6.9090     1.1880     1.6010    98.3410 
   52.5000     2.1330    32.3920     6.8550     1.1820     1.5760    98.4920 
   52.6250     2.1630    33.6100     6.3940     1.1060     1.5590    98.6520 
   52.7500     2.1890    37.4630     5.9560     0.9970     1.5450    98.7580 
   52.8750     2.1890    42.7700     5.9320     0.8970     1.5320    98.7620 
   53.0000     2.1570    47.7230     6.5250     0.8410     1.5230    98.6390 
   53.1250     2.1070    50.9980     7.6220     0.8550     1.4960    98.2680 
   53.2500     2.0650    52.3930     8.6970     0.9090     1.4540    97.6680 
   53.3750     2.0440    52.1710     9.4140     0.9740     1.4210    96.8170 
   53.5000     2.0400    51.7280     9.6570     1.0230     1.4120    95.7400 
   53.6250     2.0460    53.8760     9.5660     1.0380     1.4270    94.4270 
   53.7500     2.0530    56.9210     9.4410     1.0390     1.4330    92.9470 
   53.8750     2.0580    57.8550     9.3650     1.0350     1.4360    91.3750 
   54.0000     2.0600    56.6170     9.3700     1.0260     1.4390    89.7460 
   54.1250     2.0590    53.8690     9.4390     1.0150     1.4480    88.1890 
   54.2500     2.0530    49.7800     9.4250     1.0090     1.4500    86.7430 
   54.3750     2.0460    45.8740     9.2010     1.0090     1.4320    85.4520 
   54.5000     2.0400    43.5400     8.7250     1.0150     1.4040    84.3440 
   54.6250     2.0340    43.5300     8.0550     1.0230     1.3640    83.5430 
   54.7500     2.0330    43.4980     7.4090     1.0290     1.3250    83.0170 
   54.8750     2.0410    42.5230     6.9590     1.0310     1.2920    82.7470 
   55.0000     2.0620    39.8280     6.8440     1.0290     1.2500    82.6960 
   55.1250     2.0870    35.3910     7.1240     1.0240     1.2160    82.8990 
   55.2500     2.1020    32.8220     7.6200     1.0150     1.1720    83.3430 
   55.3750     2.1000    33.1210     8.1540     1.0040     1.1030    84.0210 
   55.5000     2.0830    35.9750     8.5030     0.9970     1.0140    84.9240 
   55.6250     2.0700    39.1550     8.4890     0.9970     0.9420    86.0940 
   55.7500     2.0690    39.9680     8.2780     1.0080     0.9110    87.5420 
   55.8750     2.0810    39.2400     8.0550     1.0280     0.9100    89.2240 
   56.0000     2.0980    39.5520     7.9420     1.0530     0.9420    91.1310 
   56.1250     2.1100    41.7950     7.9520     1.0780     1.0600    93.1290 
   56.2500     2.1080    41.3570     7.9840     1.1040     1.2230    95.0680 
   56.3750     2.0920    37.0550     7.9990     1.1310     1.3390    96.8880 
   56.5000     2.0620    32.8410     8.0180     1.1540     1.3470    98.5720 
   56.6250     2.0280    33.5720     8.0820     1.1590     1.2760   100.0880 
   56.7500     2.0010    35.8590     8.1230     1.1480     1.2720   101.2940 
   56.8750     1.9840    37.8570     8.0380     1.1280     1.3730   102.1050 
   57.0000     1.9780    41.0980     7.7910     1.1100     1.4840   102.4780 
   57.1250     1.9770    44.1800     7.4510     1.1060     1.5440   102.4150 
   57.2500     1.9770    43.7520     7.1490     1.1150     1.5910   102.0780 
   57.3750     1.9790    41.0910     6.9120     1.1290     1.6600   101.4840 
   57.5000     1.9870    40.1840     6.6680     1.1380     1.7620   100.5920 
   57.6250     2.0000    39.7930     6.3140     1.1360     1.9020    99.2950 
   57.7500     2.0200    37.8950     5.8790     1.1240     1.9980    97.7690 
   57.8750     2.0450    37.9040     5.4770     1.1050     2.0230    96.1840 
   58.0000     2.0740    40.6870     5.2620     1.0870     2.0580    94.6710 
   58.1250     2.0960    40.5590     5.3200     1.0800     2.1390    93.2950 
   58.2500     2.1050    37.3100     5.4390     1.0830     2.2060    91.9830 
   58.3750     2.1010    35.5640     5.4280     1.0870     2.2070    90.7440 
   58.5000     2.0940    36.8660     5.2190     1.0820     2.1400    89.6240 
   58.6250     2.1060    37.2290     4.8630     1.0640     2.0220    88.6170 
   58.7500     2.1470    36.0160     4.5050     1.0360     1.9490    87.6340 
   58.8750     2.2120    36.1370     4.2080     0.9950     1.9230    86.5640 
   59.0000     2.2870    38.2810     3.8940     0.9240     1.9350    85.2350 
   59.1250     2.3500    38.7980     3.3370     0.7810     1.9800    83.5190 
   59.2500     2.3880    37.2330     2.5680     0.5740     2.0750    81.3930 
   59.3750     2.4000    36.9030     1.7580     0.3540     2.1920    78.7090 
   59.5000     2.4010    40.1550     1.0710     0.1760     2.1330    75.3110 
   59.6250     2.4310    43.5630     0.6170     0.0750     1.8460    70.8880 
   59.7500     2.4870    43.9680     0.3540     0.0310     1.9420    65.4810 
   59.8750     2.5160    43.0320     0.2620     0.0340     2.7930    59.0680 
   60.0000     2.4700    42.8190     0.3460     0.0910     4.4260    51.8000 
   60.1250     2.3490    43.2760     0.6990     0.2710     5.2730    43.7070 
   60.2500     2.2090    43.4770     1.4110     0.6600     5.5570    35.3420 
   60.3750     2.0980    43.8090     2.6280     1.3840     5.4540    27.1190 
   60.5000     2.0470    44.2300     4.3820     2.5340     5.3400    19.3360 
   60.6250     2.0730    45.8040     6.2060     4.0360     5.6650    12.3320 
   60.7500     2.1320    48.2930     7.4490     5.4880     6.5650     6.2380 
   60.8750     2.1800    50.5560     8.1720     6.6560    11.0030     1.1600 
   61.0000     2.1950    51.5280     8.7720     7.5170    12.8560    -2.8990 
   61.1250     2.1820    51.5220     9.5040     8.1110    12.9200    -5.8430 
   61.2500     2.1660    51.0430    10.2220     8.5190    12.8120    -8.0780 
   61.3750     2.1540    49.9830    10.7150     8.7560    12.5270    -9.8420 
   61.5000     2.1500    49.3910    10.8850     8.8540    12.1190   -11.2430 
   61.6250     2.1590    49.7600    10.7530     8.8220    11.8590   -12.2680 
   61.7500     2.1820    49.5260    10.5030     8.6960    11.6940   -13.0370 
   61.8750     2.2120    48.7370    10.2230     8.4810    11.5030   -13.5820 
   62.0000     2.2390    48.8870     9.9230     8.1960    11.2180   -13.9400 
   62.1250     2.2540    51.0460     9.5830     7.8830    10.8610   -14.1330 
   62.2500     2.2620    53.5870     9.2530     7.5990    10.5640   -14.2180 
   62.3750     2.2600    55.7420     9.0320     7.3820    10.3160   -14.2530 
   62.5000     2.2430    56.6710     9.0240     7.2460    10.1180   -14.2820 
   62.6250     2.2090    57.2340     9.2430     7.1880     9.9610   -14.3490 
   62.7500     2.1730    58.7430     9.4740     7.1470     9.8660   -14.4620 
