~V
VERS. 2.00: Ver 2.00
~W
STRT.M 50.0000:
STOP.M 253.0000:
STEP.M 0.1250:
NULL. -999.2500:
UWI. F10782:
~C
DEPT.M :
DEN.GM/CC :
GR.API :
RML.OHMM :
RI. :
RXO.OHMM :
SP.MV :
~A
# ...
  140.1250     2.1580    50.0480    28.7410    22.2710    26.6700    -7.8780 
  140.2500     2.1530    51.9040    28.8640    22.3840    26.9580    -7.9620 
  140.3750     2.1460    54.3650    28.9690    22.4940    27.1740    -8.0550 
  140.5000     2.1420    56.6820    29.0500    22.6250    26.9990    -8.1540 
  140.6250     2.1470    56.3730    29.1480    22.8060    26.6090    -8.2310 
  140.7500     2.1600    54.4610    29.2860    23.0280    26.6770    -8.2890 
  140.8750     2.1720    52.8250    29.4230    23.2550    27.3560    -8.3190 
  141.0000     2.1750    52.3460    29.4950    23.4360    28.5050    -8.3430 
  141.1250     2.1670    50.8870    29.4380    23.5230    29.7010    -8.3740 
  141.2500     2.1560    47.5840    29.2830    23.5410    31.0130    -8.3980 
  141.3750     2.1450    45.1300    29.1010    23.5350    31.0590    -8.3910 
  141.5000     2.1310    45.9780    29.0090    23.5670    29.6830    -8.3560 
  141.6250     2.1160    49.9410    29.1520    23.7090    27.8380    -8.3280 
  141.7500     2.1100    52.4980    29.4810    23.9480    26.5960    -8.3250 
  141.8750     2.1170    53.3710    29.8540    24.2330    25.3170    -8.3220 
  142.0000     2.1370    55.1710    30.0750    24.4860    24.1860    -8.3310 
  142.1250     2.1630    57.0460    29.9200    24.5970    24.0060    -8.3180 
  142.2500     2.1810    55.2160    29.4490    24.5380    23.8220    -8.3220 
  142.3750     2.1860    49.7520    28.8070    24.3300    23.3730    -8.3590 
  142.5000     2.1840    47.6590    28.1630    24.0390    23.1370    -8.4290 
  142.6250     2.1800    51.9140    27.6670    23.7540    23.4750    -8.5390 
  142.7500     2.1740    55.6420    27.3170    23.5140    24.0150    -8.6610 
  142.8750     2.1670    55.0000    27.0320    23.2910    24.3750    -8.8290 
  143.0000     2.1580    52.2280    26.6640    23.0100    24.4860    -9.0330 
  143.1250     2.1550    50.7390    26.0040    22.5520    23.4260    -9.2860 
  143.2500     2.1590    49.5900    25.2110    22.0050    22.4730    -9.5430 
  143.3750     2.1710    48.5290    24.8180    21.6760    22.3560    -9.7950 
  143.5000     2.1960    49.3620    25.6290    22.0580    24.0980   -10.0340 
  143.6250     2.2460    51.4200    28.7540    23.9760    26.6580   -10.2250 
  143.7500     2.3260    51.7720    33.9800    27.5610    34.2980   -10.3670 
  143.8750     2.4250    51.2550    40.3410    32.4620    61.2340   -10.4130 
  144.0000     2.5100    52.5410    45.5690    37.2110   149.0870   -10.3700 
  144.1250     2.5190    54.7160    45.8050    38.6140   201.2450   -10.2290 
  144.2500     2.4590    55.0090    41.1350    35.9250   117.5430   -10.0400 
  144.3750     2.3680    55.5750    34.2020    30.8340    48.0070    -9.8140 
  144.5000     2.2860    56.8800    28.0420    25.8120    27.1000    -9.5400 
  144.6250     2.2380    56.1580    24.5140    22.6180    23.7670    -9.2180 
  144.7500     2.2120    53.2030    23.1420    21.1760    23.3660    -8.8530 
  144.8750     2.1960    51.0130    23.3580    21.1560    22.9800    -8.4660 
  145.0000     2.1820    51.3960    24.5480    22.1050    22.6570    -8.0870 
  145.1250     2.1670    52.5840    26.0940    23.4890    24.0970    -7.7500 
  145.2500     2.1570    53.2100    27.3520    24.6500    25.8410    -7.4370 
  145.3750     2.1580    52.6950    27.9860    25.2380    27.4560    -7.1380 
  145.5000     2.1670    51.9810    27.9360    25.1770    27.5790    -6.8480 
  145.6250     2.1790    52.9780    27.4420    24.6760    26.1640    -6.5410 
  145.7500     2.1880    55.0140    27.1120    24.2560    25.5010    -6.2130 
  145.8750     2.1890    56.3850    27.4080    24.2840    26.6390    -5.8760 
  146.0000     2.1840    55.3260    28.6210    24.9860    29.2260    -5.4870 
  146.1250     2.1820    53.2420    30.8960    26.5100    33.7570    -5.0580 
  146.2500     2.1870    53.4800    33.6370    28.4880    38.3090    -4.6300 
  146.3750     2.1970    54.9730    36.1390    30.4480    41.7240    -4.2420 
  146.5000     2.2040    54.9760    37.6630    31.8140    44.1780    -3.9060 
  146.6250     2.2040    51.6690    37.4930    31.9580    45.5880    -3.6850 
  146.7500     2.2010    48.0880    36.0570    31.0660    46.1600    -3.5920 
  146.8750     2.2000    46.7130    33.9540    29.5200    44.0750    -3.6000 
  147.0000     2.2060    48.8430    31.8270    27.8100    40.0550    -3.7290 
  147.1250     2.2110    52.4700    30.2620    26.4340    39.1600    -3.9550 
  147.2500     2.2050    53.7570    29.4080    25.5860    38.1300    -4.1900 
  147.3750     2.1850    52.5200    29.2820    25.3220    36.6170    -4.3930 
  147.5000     2.1550    51.0390    29.7640    25.5950    34.6630    -4.5650 
  147.6250     2.1280    51.8610    30.5490    26.2390    33.1490    -4.7060 
  147.7500     2.1160    53.2390    31.0120    26.7310    30.8160    -4.8220 
  147.8750     2.1220    54.5580    30.5600    26.5090    29.0100    -4.9240 
  148.0000     2.1460    55.4790    28.8980    25.2410    28.6560    -4.9930 
  148.1250     2.1790    54.9600    26.3460    23.1210    29.0070    -4.9930 
  148.2500     2.2020    54.8750    24.0350    21.0750    28.0610    -4.9470 
  148.3750     2.2080    55.6650    22.8400    19.7750    26.3930    -4.8550 
  148.5000     2.2020    56.6260    23.3080    19.6420    28.1850    -4.7180 
  148.6250     2.2010    56.3940    25.8080    21.0550    33.9890    -4.5410 
  148.7500     2.2140    55.7760    29.5700    23.6300    38.1840    -4.3520 
  148.8750     2.2360    56.3000    33.6990    26.8400    39.0870    -4.1490 
  149.0000     2.2560    55.9610    37.0170    29.7700    38.4490    -3.9670 
  149.1250     2.2630    54.5380    38.1490    31.1090    37.9300    -3.8500 
  149.2500     2.2620    53.3970    37.3550    30.7990    37.0110    -3.8210 
  149.3750     2.2580    51.6730    35.4570    29.4380    36.5610    -3.8930 
  149.5000     2.2530    49.1480    33.4050    27.8170    37.0440    -4.0770 
  149.6250     2.2400    48.7000    31.9750    26.5600    33.5450    -4.3440 
  149.7500     2.2170    52.0410    31.3310    25.8180    32.2160    -4.6390 
  149.8750     2.1880    54.8820    31.4150    25.5850    32.4850    -4.9740 
  150.0000     2.1600    53.5940    31.9830    25.7780    34.4380    -5.3160 
  150.1250     2.1420    49.7020    32.6250    26.2450    36.8290    -5.6370 
  150.2500     2.1370    47.0420    32.9520    26.6770    35.7030    -5.9230 
  150.3750     2.1470    46.9890    32.8220    26.8700    30.9370    -6.1830 
  150.5000     2.1670    49.1500    32.3500    26.7570    27.8090    -6.3960 
  150.6250     2.1850    52.2680    31.8740    26.4260    26.2700    -6.5800 
  150.7500     2.1910    53.0840    31.6710    26.1360    24.8820    -6.7540 
  150.8750     2.1860    53.3020    31.7860    26.0370    23.9790    -6.9180 
  151.0000     2.1770    54.5350    32.0930    26.1560    23.9970    -7.0860 
  151.1250     2.1770    55.3470    32.3970    26.4060    24.8490    -7.2880 
  151.2500     2.1840    54.7730    32.5710    26.6190    25.3410    -7.4890 
  151.3750     2.1940    53.4680    32.5560    26.6880    24.6580    -7.6770 
  151.5000     2.2010    53.8510    32.3650    26.5760    23.0460    -7.8310 
  151.6250     2.2010    55.4560    32.0470    26.3200    22.3310    -7.9480 
  151.7500     2.1970    55.8110    31.6970    26.0340    22.0600    -8.0840 
  151.8750     2.1950    54.9830    31.3460    25.7540    21.8560    -8.2340 
  152.0000     2.1960    53.8600    30.9630    25.4560    21.7990    -8.3860 
  152.1250     2.2000    54.3160    30.4240    25.0380    21.8950    -8.5130 
  152.2500     2.2040    55.1690    29.7330    24.4860    21.9680    -8.6820 
  152.3750     2.2050    55.9110    29.1490    23.9620    22.0680    -8.9160 
  152.5000     2.2030    56.1480    29.2570    23.8610    22.4750    -9.2470 
  152.6250     2.2140    56.0930    31.1300    24.9750    23.1860    -9.6910 
  152.7500     2.2550    56.6450    35.0490    27.6780    25.4000   -10.1650 
  152.8750     2.3330    55.4780    40.7450    32.0790    33.3640   -10.7040 
