~V
VERS. 2.00: Ver 2.00
~W
STRT.M 50.0000:
STOP.M 253.0000:
STEP.M 0.1250:
NULL. -999.2500:
UWI. F10782:
~C
DEPT.M :
DEN.GM/CC :
GR.API :
RML.OHMM :
RI. :
RXO.OHMM :
SP.MV :
~A
# ...
   75.7500     2.2170    57.8830    13.9480    11.4090    10.2280   -14.9050 
   75.8750     2.2620    63.3470    12.6140    10.4690     9.8590   -14.5060 
   76.0000     2.2980    71.6320    11.0080     9.2560     9.1150   -14.0990 
   76.1250     2.3140    81.2740     9.4860     8.0450     8.0020   -13.6640 
   76.2500     2.3170    88.7840     8.2610     7.0210     7.1330   -13.2720 
   76.3750     2.3170    92.6360     7.4370     6.2650     6.9810   -12.9210 
   76.5000     2.3170    94.1420     7.0640     5.8120     7.1570   -12.6460 
   76.6250     2.3150    96.3230     7.2570     5.7450     6.8660   -12.4740 
   76.7500     2.3050    96.2260     7.9680     6.0390     6.4110   -12.4080 
   76.8750     2.2820    89.6750     9.1850     6.7120     6.7230   -12.4570 
   77.0000     2.2430    76.9950    10.7640     7.7150     8.0860   -12.5980 
   77.1250     2.1960    64.7950    12.2970     8.8330     9.6260   -12.7980 
   77.2500     2.1580    58.3780    13.3080     9.7000    10.0860   -13.0040 
   77.3750     2.1390    57.7230    13.7180    10.1750     9.9790   -13.2050 
   77.5000     2.1530    59.8570    13.9960    10.4720     9.8380   -13.3850 
   77.6250     2.2110    60.1940    15.1000    11.1480    10.0810   -13.5190 
   77.7500     2.3000    57.6000    17.4570    12.5660    12.5290   -13.5830 
   77.8750     2.3930    54.4800    20.9490    14.8040    20.9630   -13.5510 
   78.0000     2.4500    53.5910    24.7320    17.4820    45.6230   -13.4220 
   78.1250     2.4250    55.6940    26.8250    19.3720    58.2730   -13.1870 
   78.2500     2.3430    56.9970    26.2360    19.5210    39.7650   -12.8810 
   78.3750     2.2490    55.5200    23.6380    18.0990    19.8600   -12.5350 
   78.5000     2.1810    52.5800    20.7060    16.1280    12.4180   -12.1580 
   78.6250     2.1580    52.3370    18.8350    14.6340    10.8170   -11.7750 
   78.7500     2.1830    54.3560    17.8910    13.7690    10.5250   -11.4040 
   78.8750     2.2600    56.2370    17.2700    13.2520    10.3920   -11.1110 
   79.0000     2.3720    59.0600    16.3520    12.6610    10.4130   -10.8890 
   79.1250     2.4610    65.9750    14.8290    11.6510    10.7180   -10.7910 
   79.2500     2.4770    75.3060    13.0960    10.3760    10.6260   -10.7540 
   79.3750     2.4270    83.5210    11.5570     9.1150     9.2060   -10.7860 
   79.5000     2.3460    87.4460    10.4360     8.1080     8.0260   -10.8830 
   79.6250     2.2830    87.0990     9.7950     7.5100     7.6500   -11.0440 
   79.7500     2.2530    86.2530     9.4370     7.2240     7.6510   -11.2550 
   79.8750     2.2430    86.0140     9.2400     7.1340     7.7040   -11.4930 
   80.0000     2.2420    86.2590     9.0920     7.0910     7.7950   -11.7550 
   80.1250     2.2450    86.9640     8.9030     6.9650     8.3060   -11.9920 
   80.2500     2.2570    89.2850     8.7000     6.7790     8.5290   -12.2530 
   80.3750     2.2760    92.1930     8.6060     6.6420     8.1800   -12.4910 
   80.5000     2.2910    93.1290     8.7900     6.6770     7.3710   -12.7070 
   80.6250     2.2870    89.9400     9.4080     7.0000     7.8460   -12.8680 
   80.7500     2.2730    81.5320    10.2870     7.5300    10.1900   -12.9940 
   80.8750     2.2650    71.3840    11.1580     8.1340    13.2910   -13.1030 
   81.0000     2.2720    66.4270    11.7160     8.6290    12.5160   -13.1530 
   81.1250     2.2860    72.1800    11.7330     8.8000    10.7280   -13.1520 
   81.2500     2.2900    79.1410    11.4370     8.6830     9.2570   -13.0920 
   81.3750     2.2770    81.3230    11.0820     8.4030     8.8310   -12.9640 
   81.5000     2.2580    80.8920    10.8210     8.0990     9.0420   -12.7560 
   81.6250     2.2480    80.3340    10.6070     7.8350     9.0320   -12.5120 
   81.7500     2.2520    77.1260    10.2850     7.5600     8.6270   -12.2650 
   81.8750     2.2650    72.1240     9.7710     7.2020     8.3000   -11.9900 
   82.0000     2.2800    71.8260     9.0920     6.7290     8.1700   -11.7310 
   82.1250     2.2960    82.0090     8.4040     6.1990     7.7500   -11.4840 
   82.2500     2.3090    93.7330     7.9000     5.7460     6.8490   -11.2300 
   82.3750     2.3150    99.2680     7.6590     5.4630     6.3160   -11.0050 
   82.5000     2.3110    97.3410     7.6540     5.3830     6.3240   -10.8220 
   82.6250     2.2960    89.7680     7.8340     5.5110     6.8570   -10.6920 
   82.7500     2.2810    82.6890     8.0950     5.7560     7.3820   -10.5960 
   82.8750     2.2710    80.9280     8.3680     6.0300     7.9090   -10.5590 
   83.0000     2.2660    84.1480     8.5540     6.2310     7.9650   -10.5650 
   83.1250     2.2640    87.1880     8.5010     6.2490     7.4620   -10.6120 
   83.2500     2.2640    88.8300     8.2060     6.0980     7.4880   -10.7060 
   83.3750     2.2720    91.7410     7.7420     5.8260     7.5580   -10.8400 
   83.5000     2.2890    96.5950     7.2580     5.5130     6.8790   -11.0050 
   83.6250     2.3130    99.0800     6.9520     5.2540     6.2220   -11.1800 
   83.7500     2.3350    97.2380     6.8520     5.0900     6.0140   -11.3530 
   83.8750     2.3490    91.4660     6.9020     5.0300     6.0450   -11.4880 
   84.0000     2.3530    87.4900     7.0250     5.0580     6.1250   -11.6150 
   84.1250     2.3520    92.5790     7.1490     5.1530     6.3000   -11.7280 
   84.2500     2.3500    99.7600     7.2480     5.2790     6.4470   -11.8320 
   84.3750     2.3480   102.2500     7.3210     5.4250     6.4500   -11.9170 
   84.5000     2.3460   100.4140     7.3630     5.5780     6.5410   -11.9870 
   84.6250     2.3460    96.7460     7.3270     5.6930     6.5390   -12.0120 
   84.7500     2.3450    93.6920     7.1810     5.7250     6.6050   -12.0090 
   84.8750     2.3400    92.3220     6.9350     5.6580     6.8800   -11.9870 
   85.0000     2.3320    92.4460     6.6650     5.5150     7.0480   -11.9380 
   85.1250     2.3220    92.5180     6.5290     5.3640     6.8470   -11.9260 
   85.2500     2.3140    91.4000     6.6370     5.2850     6.3490   -11.8990 
   85.3750     2.3050    90.9680     7.0110     5.3150     6.2770   -11.8670 
   85.5000     2.2910    90.8890     7.5690     5.4560     6.7170   -11.8160 
   85.6250     2.2740    86.3100     8.1360     5.6750     7.1290   -11.7860 
   85.7500     2.2590    78.0270     8.5770     5.9180     7.6760   -11.7520 
   85.8750     2.2460    70.8920     8.9520     6.2010     8.1250   -11.7100 
   86.0000     2.2360    68.9940     9.5190     6.6180     8.2780   -11.6820 
   86.1250     2.2280    68.7770    10.7900     7.3960     8.4000   -11.6240 
   86.2500     2.2270    67.4600    12.9740     8.6700     9.9560   -11.5780 
   86.3750     2.2360    65.9910    16.0800    10.5290    21.0040   -11.5370 
   86.5000     2.2530    64.6350    19.7520    12.8820    34.6150   -11.4990 
   86.6250     2.2640    61.2890    22.9730    15.2210    39.6670   -11.4720 
   86.7500     2.2560    57.7900    24.6700    16.7540    33.8260   -11.4720 
   86.8750     2.2330    57.0460    24.4510    17.0570    25.6200   -11.5490 
   87.0000     2.2090    57.2380    22.8450    16.3290    20.6890   -11.6760 
   87.1250     2.2000    56.4210    20.9170    15.1860    18.9080   -11.8710 
   87.2500     2.2040    55.8250    19.4790    14.2310    18.0200   -12.0910 
   87.3750     2.2130    55.8150    18.7480    13.6630    17.3870   -12.3110 
   87.5000     2.2150    57.2140    18.7150    13.5190    16.8770   -12.5180 
   87.6250     2.1980    61.1680    19.3400    13.8170    16.7510   -12.7290 
   87.7500     2.1760    66.0210    20.3140    14.3810    17.3580   -12.9150 
   87.8750     2.1640    67.0590    21.4010    15.0600    18.5730   -13.0460 
   88.0000     2.1770    61.4670    22.3570    15.6850    19.5790   -13.0860 
   88.1250     2.2100    54.6110    22.9030    16.0820    19.7710   -12.9970 
   88.2500     2.2380    51.9430    23.0520    16.2630    19.4260   -12.8300 
   88.3750     2.2460    53.7730    22.9390    16.3110    19.1130   -12.6070 
   88.5000     2.2350    56.6750    22.7480    16.3300    19.4130   -12.3780 
