~V
VERS. 2.00: Ver 2.00
~W
STRT.M 50.0000:
STOP.M 253.0000:
STEP.M 0.1250:
NULL. -999.2500:
UWI. F10782:
~C
DEPT.M :
DEN.GM/CC :
GR.API :
RML.OHMM :
RI. :
RXO.OHMM :
SP.MV :
~A
# ...
  114.3750     2.5510    64.0820    16.8810    12.6130    18.8170   -13.6490 
  114.5000     2.5730    65.4070    18.4820    13.8630    21.3920   -13.5740 
  114.6250     2.5360    65.2880    19.2590    14.6330    20.9460   -13.4490 
  114.7500     2.4870    63.8620    19.2810    14.8970    17.0450   -13.2570 
  114.8750     2.4510    64.4170    18.7390    14.7140    13.8910   -13.0280 
  115.0000     2.4310    67.7100    17.8260    14.1740    13.1460   -12.7990 
  115.1250     2.4140    67.8470    16.6270    13.3250    13.6750   -12.5730 
  115.2500     2.3810    63.6310    15.3420    12.3440    12.9990   -12.3990 
  115.3750     2.3300    61.4200    14.1650    11.3930    11.7210   -12.2670 
  115.5000     2.2720    65.4540    13.2740    10.6230    10.3300   -12.1700 
  115.6250     2.2220    70.1370    12.8700    10.1890    10.4040   -12.0970 
  115.7500     2.1900    69.6280    12.9350    10.0890    10.5660   -12.0450 
  115.8750     2.1740    66.2900    13.4410    10.3150    10.5710   -11.9840 
  116.0000     2.1700    63.8070    14.3170    10.8360    10.4130   -11.8470 
  116.1250     2.1690    62.1680    15.5200    11.6450    10.4410   -11.6330 
  116.2500     2.1660    60.0120    16.8910    12.6380    10.8960   -11.3460 
  116.3750     2.1640    57.8080    18.2790    13.7140    11.8070   -11.0460 
  116.5000     2.1660    56.7170    19.5020    14.7260    12.9460   -10.7480 
  116.6250     2.1680    57.0180    20.3990    15.4770    13.7610   -10.4710 
  116.7500     2.1640    57.9060    21.1330    15.9960    14.3250   -10.2230 
  116.8750     2.1530    58.9720    22.0870    16.5050    14.5660   -10.0590 
  117.0000     2.1380    58.6540    23.7710    17.3670    14.8960   -10.0220 
  117.1250     2.1360    56.8730    26.5090    18.9520    15.8530   -10.1360 
  117.2500     2.1720    55.6650    29.3350    20.8520    17.6540   -10.3700 
  117.3750     2.2630    55.5320    30.6010    22.1020    21.9630   -10.6580 
  117.5000     2.3970    56.0370    28.6870    21.4990    31.8070   -10.9740 
  117.6250     2.5040    57.6910    23.4270    18.4920    44.5310   -11.3390 
  117.7500     2.5280    62.3840    17.7380    14.7510    32.9570   -11.7250 
  117.8750     2.4740    69.8980    13.4070    11.5200    16.2350   -12.0700 
  118.0000     2.3870    75.0950    10.8750     9.3050     9.9550   -12.3290 
  118.1250     2.3190    72.7510     9.8980     8.1800     9.3710   -12.4530 
  118.2500     2.2870    67.3760     9.6060     7.6890     9.9370   -12.4630 
  118.3750     2.2840    64.1040     9.5070     7.5280     9.8070   -12.4150 
  118.5000     2.2940    64.6290     9.2380     7.4020     9.3300   -12.3470 
  118.6250     2.3040    65.9580     8.6850     7.1130     8.5030   -12.2650 
  118.7500     2.3130    68.5250     8.1400     6.7580     7.8630   -12.1980 
  118.8750     2.3250    72.2680     7.8680     6.5050     7.3700   -12.1860 
  119.0000     2.3380    76.9600     8.0080     6.4890     7.1580   -12.2380 
  119.1250     2.3390    80.1770     8.6120     6.7990     7.7430   -12.4040 
  119.2500     2.3210    78.5800     9.4530     7.3190     8.9200   -12.6370 
  119.3750     2.2930    74.0700    10.2820     7.8950     9.7760   -12.8840 
  119.5000     2.2700    69.7540    10.8330     8.3370    10.2950   -13.1100 
  119.6250     2.2680    67.6280    10.9180     8.4740    10.0020   -13.2930 
  119.7500     2.2810    66.3250    10.7440     8.4070     9.5640   -13.4430 
  119.8750     2.3060    65.9360    10.5180     8.2710     9.1040   -13.5510 
  120.0000     2.3400    69.2390    10.3700     8.1590     8.4680   -13.6350 
  120.1250     2.3810    75.0110    10.2820     8.0530     9.6530   -13.6610 
  120.2500     2.4130    78.5290    10.0810     7.8450    11.2940   -13.6750 
  120.3750     2.4250    77.9690     9.6200     7.4490    11.5190   -13.6930 
  120.5000     2.4140    77.3810     8.8700     6.8750     9.0700   -13.7270 
  120.6250     2.3910    80.1310     7.9510     6.2400     7.3230   -13.7820 
  120.7500     2.3750    83.9880     7.1080     5.7010     6.6690   -13.8370 
  120.8750     2.3700    86.8440     6.5250     5.3510     6.5850   -13.8960 
  121.0000     2.3720    88.1740     6.3200     5.2420     6.5820   -13.9770 
  121.1250     2.3690    88.7170     6.5510     5.4070     6.5980   -14.0640 
  121.2500     2.3530    88.9890     7.0300     5.7370     6.9110   -14.1110 
  121.3750     2.3250    87.1120     7.5850     6.1270     7.6640   -14.0990 
  121.5000     2.2960    82.1710     8.0130     6.4430     8.2070   -14.0080 
  121.6250     2.2730    78.0020     8.0760     6.5090     8.6300   -13.8490 
  121.7500     2.2680    76.6530     7.7900     6.3250     8.1040   -13.6600 
  121.8750     2.2840    78.0520     7.3020     5.9850     7.0510   -13.4520 
  122.0000     2.3120    80.6940     6.8410     5.6430     6.4460   -13.2380 
  122.1250     2.3290    82.5890     6.6760     5.4770     6.5900   -13.0050 
  122.2500     2.3270    81.6170     6.8800     5.5480     6.9950   -12.7990 
  122.3750     2.3050    79.1240     7.4280     5.8550     7.2940   -12.6390 
  122.5000     2.2760    78.5120     8.2010     6.3360     7.6800   -12.5430 
  122.6250     2.2630    79.3130     9.0010     6.8710     8.3370   -12.4890 
  122.7500     2.2700    79.4170     9.6290     7.3190     8.7560   -12.4420 
  122.8750     2.2880    78.9040     9.9910     7.6150     8.6150   -12.3990 
  123.0000     2.2970    78.5940    10.0760     7.7560     8.1190   -12.3530 
  123.1250     2.2910    79.2910     9.9240     7.7710     8.1010   -12.3670 
  123.2500     2.2790    79.6760     9.6530     7.7120     8.5810   -12.4080 
  123.3750     2.2720    78.8110     9.2970     7.5740     8.9270   -12.4820 
  123.5000     2.2740    77.7830     8.8740     7.3500     8.8620   -12.5980 
  123.6250     2.2840    80.0520     8.4460     7.0680     8.4840   -12.7530 
  123.7500     2.2890    85.9370     8.1520     6.8300     8.1740   -12.9640 
  123.8750     2.2800    89.9460     8.1530     6.7380     8.0560   -13.2060 
  124.0000     2.2560    85.5830     8.5700     6.8760     8.1380   -13.4340 
  124.1250     2.2260    74.4240     9.5070     7.3350     8.4630   -13.5910 
  124.2500     2.2040    66.7220    10.7790     8.0430     9.1090   -13.6900 
  124.3750     2.1950    66.1080    12.1640     8.9050     9.6590   -13.7210 
  124.5000     2.1940    67.9430    13.3970     9.7690    10.1370   -13.6600 
  124.6250     2.1880    66.6750    14.2910    10.4710    10.5960   -13.4610 
  124.7500     2.1720    63.9890    15.1120    11.0670    10.8330   -13.1290 
  124.8750     2.1540    62.3910    16.2560    11.7580    11.1870   -12.6680 
  125.0000     2.1560    61.9410    18.0600    12.7850    12.3160   -12.1280 
  125.1250     2.2000    61.2100    20.7260    14.4080    17.0530   -11.5340 
  125.2500     2.2730    57.8230    23.7800    16.4860    26.7580   -10.9070 
  125.3750     2.3390    53.4710    26.5590    18.6900    33.8870   -10.2750 
  125.5000     2.3540    50.8690    28.3290    20.4960    28.1900    -9.6740 
  125.6250     2.3030    50.9740    28.5540    21.3280    19.9950    -9.1920 
  125.7500     2.2300    50.9250    27.9360    21.4210    16.6000    -8.8260 
  125.8750     2.1690    51.6910    27.1910    21.1910    16.4610    -8.6010 
  126.0000     2.1360    55.5130    26.7700    20.9840    18.0510    -8.5200 
  126.1250     2.1330    59.3010    26.5630    20.8180    19.4940    -8.6260 
  126.2500     2.1460    59.3940    25.9090    20.3500    20.5610    -8.9080 
  126.3750     2.1670    59.3670    24.3520    19.2750    20.2400    -9.3640 
  126.5000     2.1930    61.5430    21.9690    17.5970    18.1640    -9.9360 
  126.6250     2.2150    62.2040    19.4610    15.7230    15.0320   -10.5470 
  126.7500     2.2210    60.1130    17.6520    14.2180    12.6790   -11.0990 
  126.8750     2.2070    60.2850    16.9460    13.3980    11.3440   -11.5370 
  127.0000     2.1760    65.6860    17.4750    13.4260    11.1220   -11.8410 
  127.1250     2.1450    70.0630    19.3590    14.5130    14.0480   -11.9430 
