~V
VERS. 2.00: Ver 2.00
~W
STRT.M 50.0000:
STOP.M 253.0000:
STEP.M 0.1250:
NULL. -999.2500:
UWI. F10782:
~C
DEPT.M :
DEN.GM/CC :
GR.API :
RML.OHMM :
RI. :
RXO.OHMM :
SP.MV :
~A
# ...
  191.6250     2.4120    73.1830     8.2370     7.4150     6.4580   -13.7820 
  191.7500     2.4330    68.7960     8.5120     7.4610     6.5120   -13.6720 
  191.8750     2.4510    66.4650     9.0840     7.7780     6.5320   -13.5940 
  192.0000     2.4640    69.4650     9.7110     8.1790     6.6390   -13.5310 
  192.1250     2.4700    73.5200    10.1250     8.5090     6.8990   -13.4430 
  192.2500     2.4730    73.1650    10.2540     8.7050     7.3060   -13.2960 
  192.3750     2.4720    70.7290    10.1400     8.7500     7.5150   -13.1640 
  192.5000     2.4610    69.6070     9.9040     8.6600     7.2440   -13.0740 
  192.6250     2.4370    71.8430     9.7070     8.4920     6.7500   -12.9910 
  192.7500     2.4100    75.3370     9.6360     8.3430     6.7660   -12.9090 
  192.8750     2.3900    79.2930     9.7140     8.2740     6.8240   -12.8220 
  193.0000     2.3830    81.8280     9.9490     8.3210     6.9580   -12.7440 
  193.1250     2.3870    79.3320    10.3500     8.5000     7.3180   -12.6830 
  193.2500     2.3910    75.0810    10.8080     8.7330     7.7810   -12.7290 
  193.3750     2.3920    73.4230    11.1860     8.9300     8.2790   -12.7980 
  193.5000     2.3870    73.9720    11.3490     9.0120     8.5290   -12.8780 
  193.6250     2.3820    73.4560    11.2140     8.9290     8.2150   -12.9930 
  193.7500     2.3780    71.9590    10.9160     8.7620     7.4850   -13.1350 
  193.8750     2.3770    71.7440    10.6190     8.6010     7.1520   -13.2770 
  194.0000     2.3760    71.7010    10.4770     8.5240     7.2390   -13.4340 
  194.1250     2.3710    70.3330    10.5800     8.5640     7.5840   -13.5450 
  194.2500     2.3640    70.1950    10.8230     8.6710     7.7820   -13.6170 
  194.3750     2.3550    71.6230    11.1140     8.8010     7.7970   -13.6790 
  194.5000     2.3460    73.1030    11.3790     8.9190     7.7500   -13.7150 
  194.6250     2.3440    73.3280    11.5650     8.9970     7.6830   -13.6930 
  194.7500     2.3480    72.3400    11.6840     9.0360     7.7910   -13.6050 
  194.8750     2.3550    71.8640    11.7260     9.0370     7.9560   -13.4750 
  195.0000     2.3640    71.9080    11.6670     8.9950     7.8980   -13.3120 
  195.1250     2.3720    70.4490    11.4920     8.8870     7.7120   -13.1710 
  195.2500     2.3800    67.6230    11.2400     8.7170     7.5750   -13.0400 
  195.3750     2.3880    66.2000    10.9270     8.4890     7.3910   -12.9040 
  195.5000     2.3990    67.9660    10.5630     8.2190     7.1450   -12.7620 
  195.6250     2.4090    70.8780    10.1630     7.9320     6.9580   -12.6240 
  195.7500     2.4150    72.6040     9.7710     7.6620     6.7710   -12.5300 
  195.8750     2.4140    73.5070     9.4240     7.4340     6.5940   -12.5110 
  196.0000     2.4100    73.1480     9.1350     7.2630     6.4360   -12.5430 
  196.1250     2.4080    72.0230     8.9110     7.1550     6.3420   -12.6460 
  196.2500     2.4090    71.0280     8.7550     7.0920     6.3530   -12.7380 
  196.3750     2.4100    71.1680     8.6940     7.0530     6.3490   -12.8620 
  196.5000     2.4090    71.9040     8.7280     7.0210     6.3840   -13.0310 
  196.6250     2.4050    71.5100     8.8090     6.9900     6.3870   -13.2460 
  196.7500     2.4030    72.0150     8.8670     6.9690     6.2950   -13.4640 
  196.8750     2.4030    74.2030     8.8820     6.9630     6.1350   -13.6640 
  197.0000     2.4070    76.1940     8.8750     6.9720     6.0410   -13.8370 
  197.1250     2.4110    75.7720     8.9000     6.9900     6.0420   -13.9860 
  197.2500     2.4130    74.0010     8.9750     7.0050     6.1890   -14.1170 
  197.3750     2.4130    72.6960     9.0680     7.0090     6.4360   -14.2260 
  197.5000     2.4130    72.7840     9.1530     7.0010     6.5190   -14.3000 
  197.6250     2.4140    73.9730     9.2230     6.9900     6.3600   -14.3520 
  197.7500     2.4180    75.3710     9.2650     6.9920     6.3630   -14.3830 
  197.8750     2.4250    76.9340     9.2650     7.0160     6.3580   -14.3630 
  198.0000     2.4340    77.3290     9.2200     7.0660     6.4300   -14.2640 
  198.1250     2.4420    73.2230     9.1440     7.1320     6.6740   -14.0850 
  198.2500     2.4450    68.5370     9.0640     7.1890     6.8220   -13.8890 
  198.3750     2.4430    66.8560     9.0000     7.2230     6.6800   -13.6830 
  198.5000     2.4380    66.3220     8.9630     7.2330     6.5170   -13.4890 
  198.6250     2.4370    64.0050     8.9680     7.2370     6.4120   -13.3030 
  198.7500     2.4400    63.0870     9.0350     7.2620     6.3360   -13.1530 
  198.8750     2.4430    65.8850     9.2080     7.3310     6.3660   -13.0540 
  199.0000     2.4440    69.9670     9.5190     7.4550     6.5020   -13.0610 
  199.1250     2.4440    73.6830     9.9940     7.6430     6.7690   -13.2020 
  199.2500     2.4430    76.0470    10.5690     7.8820     7.0640   -13.4670 
  199.3750     2.4400    76.5920    11.1670     8.1680     7.4760   -13.8290 
  199.5000     2.4330    75.9480    11.7180     8.4910     7.9330   -14.2520 
  199.6250     2.4180    74.0600    12.1800     8.8330     8.3050   -14.7570 
  199.7500     2.4030    72.4880    12.5790     9.1590     8.7850   -15.3080 
  199.8750     2.3910    72.0270    12.9730     9.4570     9.3090   -15.9000 
  200.0000     2.3850    70.7470    13.4400     9.7420     9.4140   -16.5220 
  200.1250     2.3800    67.7240    14.0670    10.0710     9.3730   -17.0850 
  200.2500     2.3740    66.4560    14.8320    10.4820     9.6580   -17.6330 
  200.3750     2.3640    67.9530    15.7040    10.9900    10.7420   -18.1440 
  200.5000     2.3490    68.9520    16.6640    11.6130    12.5440   -18.6220 
  200.6250     2.3290    67.8340    17.7730    12.4290    14.1170   -19.0800 
  200.7500     2.3100    67.5550    19.2420    13.5430    14.3590   -19.5370 
  200.8750     2.2970    67.4560    21.5280    15.1870    14.7530   -19.9630 
  201.0000     2.2940    66.1770    25.2430    17.7270    16.6010   -20.3250 
  201.1250     2.2970    64.3440    31.1990    21.8250    20.6150   -20.5810 
  201.2500     2.3000    61.4160    38.6040    27.2240    26.9460   -20.6700 
  201.3750     2.3050    57.6300    45.0740    32.6240    38.8440   -20.5890 
  201.5000     2.3310    55.5990    46.1050    34.9800    54.4580   -20.3670 
  201.6250     2.4100    56.8510    37.6510    30.5340    52.5380   -19.9840 
  201.7500     2.5070    58.8620    25.7880    22.4830    31.4290   -19.4640 
  201.8750     2.5680    61.2520    15.8960    14.7960    14.5700   -18.8520 
  202.0000     2.5500    65.5830     9.6290     9.3310     7.1940   -18.1520 
  202.1250     2.4590    67.6690     6.5900     6.3020     4.0670   -17.4580 
  202.2500     2.3550    64.8430     5.1650     4.6700     3.3060   -16.8430 
  202.3750     2.2750    61.6610     4.7080     3.9730     3.2410   -16.3060 
  202.5000     2.2350    63.3630     4.8740     3.9320     3.4830   -15.8390 
  202.6250     2.2440    70.0360     5.5320     4.4370     4.1700   -15.4270 
  202.7500     2.2800    77.4050     6.4320     5.2480     5.0810   -15.0540 
  202.8750     2.3250    82.7480     7.3810     6.1980     5.8540   -14.6960 
  203.0000     2.3620    84.2040     8.1810     7.0930     6.1610   -14.3550 
  203.1250     2.3790    81.1880     8.6430     7.6910     6.2070   -14.0660 
  203.2500     2.3890    79.3410     8.7890     7.9540     6.2990   -13.7540 
  203.3750     2.3980    80.9530     8.6940     7.9440     6.4070   -13.4890 
  203.5000     2.4080    85.3950     8.4910     7.7890     6.3930   -13.2810 
  203.6250     2.4150    90.5730     8.3190     7.6170     6.1070   -13.1390 
  203.7500     2.4160    96.2900     8.2410     7.4990     5.8710   -13.0190 
  203.8750     2.4140   101.6440     8.2590     7.4400     5.9340   -12.9350 
  204.0000     2.4120   103.9820     8.3410     7.4300     6.1750   -12.8780 
  204.1250     2.4110   104.4130     8.4550     7.4500     6.4300   -12.8490 
  204.2500     2.4100   107.7510     8.5930     7.4740     6.5410   -12.8510 
  204.3750     2.4060   113.0840     8.7450     7.4900     6.6000   -12.8250 
