~V
VERS. 2.00: Ver 2.00
~W
STRT.M 50.0000:
STOP.M 253.0000:
STEP.M 0.1250:
NULL. -999.2500:
UWI. F10782:
~C
DEPT.M :
DEN.GM/CC :
GR.API :
RML.OHMM :
RI. :
RXO.OHMM :
SP.MV :
~A
# ...
  127.2500     2.1280    67.8880    22.1350    16.4240    22.8590   -11.8900 
  127.3750     2.1240    61.9780    25.3870    18.8920    27.8390   -11.7080 
  127.5000     2.1250    56.8280    28.6150    21.5050    32.2040   -11.4380 
  127.6250     2.1320    56.1390    31.4940    23.8610    33.2510   -11.1480 
  127.7500     2.1630    58.4940    34.3540    26.0620    32.6460   -10.9130 
  127.8750     2.2370    60.5730    37.6810    28.4690    32.7260   -10.7380 
  128.0000     2.3620    59.9950    41.6050    31.2770    35.4010   -10.5830 
  128.1250     2.5090    57.2910    45.1490    33.9450    46.9980   -10.4170 
  128.2500     2.6010    56.2200    46.6470    35.3010    66.0830   -10.1990 
  128.3750     2.5950    56.1840    45.1820    34.5890    73.9790    -9.8890 
  128.5000     2.5040    56.1930    41.4990    32.1570    53.9620    -9.4790 
  128.6250     2.3740    56.5770    37.8120    29.3910    31.0820    -8.9370 
  128.7500     2.2520    58.3010    35.8110    27.6010    26.3810    -8.3220 
  128.8750     2.1630    59.6010    35.7130    27.1470    30.4200    -7.6930 
  129.0000     2.1190    58.6860    36.8150    27.7490    34.8410    -7.1590 
  129.1250     2.1170    55.0880    37.6850    28.5950    35.2880    -6.8190 
  129.2500     2.1310    51.3780    37.1100    28.6800    33.5320    -6.6740 
  129.3750     2.1490    50.6520    34.8880    27.5990    30.7390    -6.7120 
  129.5000     2.1620    54.6410    31.7500    25.6320    26.6070    -6.9270 
  129.6250     2.1680    59.9720    28.8340    23.5020    22.7740    -7.3170 
  129.7500     2.1700    61.2890    26.6590    21.7520    21.1380    -7.7820 
  129.8750     2.1690    57.2900    25.2100    20.4960    20.7920    -8.2890 
  130.0000     2.1620    52.6890    24.3290    19.6910    20.6260    -8.7400 
  130.1250     2.1460    52.2850    23.8880    19.2850    20.0500    -9.0840 
  130.2500     2.1240    54.5840    23.7000    19.1270    19.6300    -9.2990 
  130.3750     2.1060    56.8030    23.7810    19.1870    19.7630    -9.4180 
  130.5000     2.1050    56.2020    24.2240    19.4830    20.5590    -9.4300 
  130.6250     2.1260    53.8930    25.1580    20.0700    21.8130    -9.3380 
  130.7500     2.1540    53.2410    26.3640    20.8200    22.8440    -9.2040 
  130.8750     2.1760    55.0890    27.5100    21.5440    23.4000    -9.0510 
  131.0000     2.1820    56.9110    28.1940    22.0030    24.2640    -8.9050 
  131.1250     2.1720    55.3440    28.0120    21.9270    25.4540    -8.7840 
  131.2500     2.1550    51.8870    27.2020    21.4100    24.9020    -8.6640 
  131.3750     2.1380    50.3600    26.1400    20.6480    23.0390    -8.5160 
  131.5000     2.1290    51.8270    25.2210    19.8980    21.4770    -8.3500 
  131.6250     2.1300    53.6500    24.7610    19.4290    20.9490    -8.1970 
  131.7500     2.1370    54.5930    24.7210    19.2930    21.4940    -8.0990 
  131.8750     2.1410    55.3720    25.0160    19.4610    22.5110    -8.0250 
  132.0000     2.1410    56.7250    25.5400    19.8500    22.6620    -7.9650 
  132.1250     2.1440    56.7550    26.2200    20.3890    22.6990    -7.8890 
  132.2500     2.1570    54.7450    26.9100    20.9650    22.8880    -7.8740 
  132.3750     2.1800    52.2520    27.3700    21.4350    23.8700    -7.9450 
  132.5000     2.2090    50.5960    27.2160    21.5490    26.2140    -8.1180 
  132.6250     2.2350    51.1680    25.8910    20.8790    29.5780    -8.4030 
  132.7500     2.2530    53.2250    23.5720    19.4580    29.7790    -8.7310 
  132.8750     2.2580    56.3220    20.7660    17.5850    25.9670    -9.1090 
  133.0000     2.2490    58.4130    18.1900    15.7490    21.5000    -9.5400 
  133.1250     2.2310    57.6100    16.5970    14.4870    19.9350   -10.0620 
  133.2500     2.2180    56.2840    16.0780    13.9270    18.2650   -10.6290 
  133.3750     2.2170    56.3520    16.5600    14.0860    17.4640   -11.1920 
  133.5000     2.2280    56.1040    17.7670    14.8450    17.7080   -11.7310 
  133.6250     2.2400    53.5060    19.0420    15.8160    18.0900   -12.2070 
  133.7500     2.2530    52.7640    19.4250    16.2560    18.3270   -12.6280 
  133.8750     2.2830    55.2050    18.3070    15.6020    18.4880   -12.9850 
  134.0000     2.3340    58.3480    15.8090    13.8350    18.5100   -13.2690 
  134.1250     2.3880    62.8470    12.9060    11.5990    17.9830   -13.4440 
  134.2500     2.4180    70.5200    10.7420     9.7720    16.2760   -13.5470 
  134.3750     2.4240    76.7500     9.7770     8.7320    13.9680   -13.6120 
  134.5000     2.4260    74.7600    10.0740     8.5860    13.4100   -13.6660 
  134.6250     2.4510    65.6080    11.6420     9.4560    16.9000   -13.6890 
  134.7500     2.4870    57.6950    13.9470    11.0530    25.4830   -13.6690 
  134.8750     2.4990    53.0060    16.4210    13.0200    34.5630   -13.6120 
  135.0000     2.4630    52.3140    18.2780    14.7330    36.0290   -13.5620 
  135.1250     2.3860    53.9320    18.7050    15.4090    32.5830   -13.5390 
  135.2500     2.3080    54.4140    18.1330    15.2010    29.2660   -13.5040 
  135.3750     2.2420    54.4320    17.2530    14.5890    24.5760   -13.4370 
  135.5000     2.1920    55.9130    16.6400    14.0410    19.8800   -13.3240 
  135.6250     2.1590    57.5610    16.5920    13.8500    18.1020   -13.1910 
  135.7500     2.1410    58.2650    16.9200    13.9440    18.2920   -13.0650 
  135.8750     2.1370    60.2230    17.4290    14.2090    20.3010   -12.9470 
  136.0000     2.1400    63.6000    17.9380    14.5220    23.4340   -12.8230 
  136.1250     2.1400    63.4910    18.2940    14.7570    24.0690   -12.6980 
  136.2500     2.1320    61.3490    18.4760    14.8750    20.5820   -12.6040 
  136.3750     2.1150    60.5710    18.5220    14.9040    18.6190   -12.5500 
  136.5000     2.0970    61.1440    18.5550    14.9260    17.9710   -12.5300 
  136.6250     2.0900    60.6270    18.7680    15.0490    17.9110   -12.5120 
  136.7500     2.1030    57.7250    19.2210    15.3070    18.4340   -12.5000 
  136.8750     2.1460    54.4560    19.8600    15.6680    20.1920   -12.5010 
  137.0000     2.2110    52.6710    20.5270    16.0520    25.3770   -12.5120 
  137.1250     2.2680    53.2880    21.0050    16.3530    32.1280   -12.5060 
  137.2500     2.2860    56.1080    21.2620    16.5490    32.3730   -12.4600 
  137.3750     2.2560    59.1820    21.3920    16.6850    28.1400   -12.3600 
  137.5000     2.1930    59.5120    21.5520    16.8360    26.4300   -12.2310 
  137.6250     2.1260    55.5780    21.9080    17.0970    26.4650   -12.0900 
  137.7500     2.0800    50.9550    22.4940    17.4880    26.3520   -11.9260 
  137.8750     2.0650    48.6230    23.2840    17.9920    24.9700   -11.7450 
  138.0000     2.0770    49.0440    24.2000    18.5620    22.4040   -11.4930 
  138.1250     2.1060    52.7260    25.1430    19.1460    21.3080   -11.1420 
  138.2500     2.1380    56.7510    26.0330    19.7250    21.7750   -10.7120 
  138.3750     2.1660    57.3050    26.8280    20.3100    23.2830   -10.2540 
  138.5000     2.1860    53.5320    27.5020    20.9020    25.1170    -9.7780 
  138.6250     2.1970    48.8810    28.0270    21.4480    26.1010    -9.3310 
  138.7500     2.2000    48.1460    28.4120    21.8770    26.2010    -8.9140 
  138.8750     2.2000    52.4770    28.6310    22.1410    26.3180    -8.5110 
  139.0000     2.1960    56.4550    28.6850    22.2380    26.5490    -8.1730 
  139.1250     2.1920    55.4370    28.5850    22.1900    27.1020    -7.9390 
  139.2500     2.1880    51.7090    28.4240    22.0750    27.4250    -7.8000 
  139.3750     2.1850    49.4450    28.2800    21.9420    27.0860    -7.7210 
  139.5000     2.1810    49.8800    28.2150    21.8390    26.1610    -7.6840 
  139.6250     2.1750    50.8900    28.2580    21.8170    25.6190    -7.6740 
  139.7500     2.1680    50.8270    28.3590    21.8770    25.8400    -7.6750 
  139.8750     2.1630    49.7630    28.4820    21.9960    26.3700    -7.7220 
  140.0000     2.1600    48.9270    28.6120    22.1400    26.6590    -7.7880 
