~V
VERS. 2.00: Ver 2.00
~W
STRT.M 50.0000:
STOP.M 253.0000:
STEP.M 0.1250:
NULL. -999.2500:
UWI. F10782:
~C
DEPT.M :
DEN.GM/CC :
GR.API :
RML.OHMM :
RI. :
RXO.OHMM :
SP.MV :
~A
# ...
  243.1250     2.2670    46.8320     9.9410     8.5370     8.1940   -21.2770 
  243.2500     2.1930    46.8320     8.8570     7.7400     6.5340   -20.6270 
  243.3750     2.1340    46.8320     7.6360     6.7520     5.3060   -19.9360 
  243.5000     2.1160    46.8320     6.6090     5.8430     4.4340   -19.3360 
  243.6250     2.1530    46.8320     6.0910     5.2960     4.2340   -18.9440 
  243.7500     2.2180    46.8320     6.1150     5.1720     4.5090   -18.8320 
  243.8750     2.2830    46.8320     6.7130     5.5000     5.3240   -19.0730 
  244.0000     2.3220    46.8320     7.8520     6.2740     6.9870   -19.6290 
  244.1250     2.3320    46.8320     9.4060     7.4580     8.8240   -20.3490 
  244.2500     2.3370    46.8320    10.9050     8.7370     9.8560   -21.0910 
  244.3750     2.3450    46.8320    11.9010     9.7550    10.2200   -21.6950 
  244.5000     2.3580    46.8320    12.0910    10.1970    10.5440   -22.0280 
  244.6250     2.3690    46.8320    11.3940     9.8750    10.1420   -21.9510 
  244.7500     2.3750    46.8320    10.2910     9.1220     8.7190   -21.5180 
  244.8750     2.3740    46.8320     9.1410     8.2230     7.7530   -20.7690 
  245.0000     2.3640    46.8320     8.1920     7.3960     7.5420   -19.8120 
  245.1250     2.3500    46.8320     7.6040     6.7900     6.8310   -18.8720 
  245.2500     2.3360    46.8320     7.3130     6.4060     6.0860   -18.0850 
  245.3750     2.3260    46.8320     7.2790     6.2460     5.8930   -17.5080 
  245.5000     2.3210    46.8320     7.4580     6.2970     6.1040   -17.1450 
  245.6250     2.3240    46.8320     7.8120     6.5370     6.3070   -17.0210 
  245.7500     2.3330    46.8320     8.2140     6.8550     6.5370   -17.0440 
  245.8750     2.3450    46.8320     8.5390     7.1470     7.5580   -17.1040 
  246.0000     2.3540    46.8320     8.6560     7.3130     7.8650   -17.0960 
  246.1250     2.3490    46.8320     8.4630     7.2520     6.8780   -17.0000 
  246.2500     2.3330    46.8320     8.0810     7.0230     5.9390   -16.9130 
  246.3750     2.3120    46.8320     7.6300     6.7080     5.8060   -16.7940 
  246.5000     2.2950    46.8320     7.2100     6.3930     5.6320   -16.6810 
  246.6250     2.2880    46.8320     6.9070     6.1610     5.6930   -16.7110 
  246.7500     2.2870    46.8320     6.7270     6.0280     5.8530   -16.8790 
  246.8750     2.2880    46.8320     6.6510     5.9760     6.1000   -17.1840 
  247.0000     2.2920    46.8320     6.6440     5.9680     6.4580   -17.5840 
  247.1250     2.3000    46.8320     6.6840     5.9700     6.7380   -17.9600 
  247.2500     2.3100    46.8320     6.7350     5.9700     6.6720   -18.2280 
  247.3750     2.3170    46.8320     6.7670     5.9700     6.2350   -18.4600 
  247.5000     2.3200    46.8320     6.7640     5.9700     5.7010   -18.6280 
  247.6250     2.3210    46.8320     6.7730     5.9680     5.6400   -18.6200 
  247.7500     2.3200    46.8320     7.2200     6.1910     5.4190   -18.4810 
  247.8750     2.3150    46.8320     9.0170     8.3040     5.3570   -18.2650 
  248.0000     2.3070    46.8320    14.3480    15.4420     5.4400   -18.0910 
  248.1250     2.2930    46.8320    27.5010    32.4610     5.6770   -18.0220 
  248.2500     2.2770    46.8320    49.8160    57.6500     5.8520   -17.9870 
  248.3750     2.2610    46.8320    77.5030    79.2640     6.3160   -17.9610 
  248.5000     2.2580    46.8320    86.3100    75.2040     6.8420   -17.9560 
  248.6250     2.2900    46.8320    86.3100    75.2040     7.2030   -17.9960 
  248.7500     2.3530    46.8320    86.3100    75.2040     8.0380   -18.0450 
  248.8750     2.4210    46.8320    86.3100    75.2040     9.2630   -18.1080 
  249.0000     2.4600    46.8320    86.3100    75.2040    10.7450   -18.1820 
  249.1250     2.4460    46.8320    86.3100    75.2040     7.8310   -18.2630 
  249.2500     2.4020    46.8320    86.3100    75.2040     6.3050   -18.3230 
  249.3750     2.3530    46.8320    86.3100    75.2040     5.9770   -18.4630 
  249.5000     2.3150    46.8320    86.3100    75.2040     6.4450   -18.5150 
  249.6250     2.2950    46.8320    86.3100    75.2040     7.4100   -18.5640 
  249.7500     2.2930    46.8320    86.3100    75.2040     7.9870   -18.5940 
  249.8750     2.3050    46.8320    86.3100    75.2040     7.2720   -18.5970 
  250.0000     2.3200    46.8320    86.3100    75.2040     6.2030   -18.6030 
  250.1250     2.3180    46.8320    86.3100    75.2040     5.6790   -18.6160 
  250.2500     2.2980    46.8320    86.3100    75.2040     5.8770   -18.6600 
  250.3750     2.2730    46.8320    86.3100    75.2040     6.2920   -18.7440 
  250.5000     2.2580    46.8320    86.3100    75.2040     6.3880   -18.8540 
  250.6250     2.2560    46.8320    86.3100    75.2040     5.8300   -18.9420 
  250.7500     2.2610    46.8320    86.3100    75.2040     5.4220   -18.9760 
  250.8750     2.2620    46.8320    86.3100    75.2040     5.5990   -18.9760 
  251.0000     2.2500    46.8320    86.3100    75.2040     6.1300  -999.2500 
  251.1250     2.2160    46.8320    86.3100    75.2040     6.1590  -999.2500 
  251.2500     2.1690    46.8320    86.3100    75.2040     5.5820  -999.2500 
  251.3750     2.1160    46.8320    86.3100    75.2040     4.9630  -999.2500 
  251.5000     2.0670    46.8320    86.3100    75.2040     4.6110  -999.2500 
  251.6250     2.0350    46.8320    86.3100    75.2040     4.4870  -999.2500 
  251.7500     2.0200    46.8320    86.3100    75.2040     4.4870  -999.2500 
  251.8750     2.0150    46.8320    86.3100    75.2040     4.4870  -999.2500 
  252.0000     2.0180    46.8320    86.3100    75.2040     4.4860  -999.2500 
  252.1250     2.0240    46.8320    86.3100    75.2040     4.4860  -999.2500 
  252.2500     2.0310    46.8320    86.3100    75.2040     4.4860  -999.2500 
  252.3750     2.0350    46.8320    86.3100    75.2040     4.4860  -999.2500 
  252.5000     2.0360    46.8320    86.3100    75.2040     4.4860  -999.2500 
  252.6250     2.0320    46.8320    86.3100    75.2040     4.4860  -999.2500 
  252.7500     2.0220    46.8320    86.3100    75.2040     4.4860  -999.2500 
  252.8750     1.9960    46.8320    86.3100    75.2040     4.4850  -999.2500 
  253.0000     1.9600    46.8320    86.3100    75.2040     4.4840  -999.2500 
