~V
VERS. 2.00: Ver 2.00
~W
STRT.M 50.0000:
STOP.M 253.0000:
STEP.M 0.1250:
NULL. -999.2500:
UWI. F10782:
~C
DEPT.M :
DEN.GM/CC :
GR.API :
RML.OHMM :
RI. :
RXO.OHMM :
SP.MV :
~A
# ...
  204.5000     2.3980   114.3670     8.8730     7.4920     6.6990   -12.7620 
  204.6250     2.3910   108.3450     8.9070     7.4730     6.9270   -12.6650 
  204.7500     2.3870   102.5850     8.8350     7.4430     7.0130   -12.5760 
  204.8750     2.3840   103.2390     8.7130     7.4200     6.7450   -12.5200 
  205.0000     2.3810   107.7860     8.6470     7.4480     6.5290   -12.5430 
  205.1250     2.3760   108.7670     8.8240     7.6240     6.7210   -12.6270 
  205.2500     2.3770   106.9070     9.3190     8.0100     7.1870   -12.7290 
  205.3750     2.3920   107.0030    10.1320     8.6280     7.7010   -12.8770 
  205.5000     2.4260   111.1390    11.1410     9.4160     8.6700   -13.0740 
  205.6250     2.4700   112.5690    12.0190    10.1650    10.2470   -13.3220 
  205.7500     2.5010   108.3610    12.4320    10.5940    12.0630   -13.5960 
  205.8750     2.5060   102.0600    12.2320    10.5250    11.8250   -13.8730 
  206.0000     2.4840    98.0330    11.5360     9.9910     9.3110   -14.1660 
  206.1250     2.4490    98.7860    10.7540     9.2880     7.5060   -14.4390 
  206.2500     2.4220   101.4100    10.4530     8.8770     7.1200   -14.7550 
  206.3750     2.4110   103.1050    11.1870     9.1500     7.4780   -15.0890 
  206.5000     2.4130    99.5020    13.6410    10.5460     8.3790   -15.4360 
  206.6250     2.4130    89.1770    19.3670    14.2190    11.7380   -15.8050 
  206.7500     2.3970    77.8990    29.2540    21.1360    20.6980   -16.1990 
  206.8750     2.3670    68.3700    44.3330    32.5070    44.2320   -16.6060 
  207.0000     2.3320    60.5820    64.3210    48.4650    73.5040   -17.0100 
  207.1250     2.3060    56.4720    84.4280    65.5400   102.4060   -17.3930 
  207.2500     2.2900    56.3360    96.2290    76.9490   106.9890   -17.7520 
  207.3750     2.2790    57.3120    97.0110    79.8650    91.3690   -18.1110 
  207.5000     2.2690    58.7980    91.6380    76.8920    75.8550   -18.4510 
  207.6250     2.2560    64.0780    86.9330    72.9450    59.8910   -18.7390 
  207.7500     2.2440    69.4170    85.5370    71.1110    49.2100   -18.9700 
  207.8750     2.2340    68.9270    87.3460    71.9170    48.4430   -19.1270 
  208.0000     2.2260    62.1010    91.2710    74.7750    59.5840   -19.2020 
  208.1250     2.2190    57.1460    95.1730    78.1470    72.3590   -19.2500 
  208.2500     2.2160    57.6750    96.7120    80.0610    76.8480   -19.3050 
  208.3750     2.2170    59.4320    94.8920    79.4830    75.5110   -19.3510 
  208.5000     2.2230    58.2110    90.5130    76.6440    70.0590   -19.3790 
  208.6250     2.2290    56.2810    86.0510    73.1560    65.1440   -19.3890 
  208.7500     2.2320    58.1560    83.9190    71.1400    61.0730   -19.4180 
  208.8750     2.2280    62.6920    85.3880    71.8800    55.7090   -19.4930 
  209.0000     2.2170    64.6230    91.2160    76.2220    53.0520   -19.6110 
  209.1250     2.2030    62.1770   102.9630    85.6590    58.4940   -19.7750 
  209.2500     2.1920    58.9640   120.3110    99.9170    77.5180   -19.9430 
  209.3750     2.1860    57.9660   142.8370   118.4540   111.4710   -20.1020 
  209.5000     2.1830    59.4590   168.2570   139.1430   147.6390   -20.2820 
  209.6250     2.1840    59.8740   190.6510   157.2140   160.0610   -20.5150 
  209.7500     2.1840    58.4380   204.8720   168.8900   161.7540   -20.7760 
  209.8750     2.1810    58.6600   210.1650   173.4700   157.2420   -21.0560 
  210.0000     2.1780    61.6850   210.1190   173.4000   151.0180   -21.3200 
  210.1250     2.1800    61.6110   209.9850   172.7410   144.0370   -21.6340 
  210.2500     2.1850    57.5150   212.7080   174.3270   143.8580   -21.9880 
  210.3750     2.1900    55.2890   218.4180   178.6040   148.1040   -22.3510 
  210.5000     2.1910    57.1780   225.9760   184.8330   162.7940   -22.7480 
  210.6250     2.1870    56.5260   233.4960   191.6620   180.4130   -23.1810 
  210.7500     2.1830    52.6090   239.4690   197.7200   191.4260   -23.6300 
  210.8750     2.1820    49.3850   243.4890   202.5190   190.8510   -24.0650 
  211.0000     2.1860    48.7780   246.0240   206.2830   185.0600   -24.4630 
  211.1250     2.1940    50.1190   247.5580   209.4190   183.9230   -24.6900 
  211.2500     2.1980    51.9450   247.6420   211.7110   185.7260   -24.7800 
  211.3750     2.1970    53.6240   244.7980   212.0430   189.0550   -24.7700 
  211.5000     2.1930    54.6500   237.8010   209.3100   189.6970   -24.6640 
  211.6250     2.1900    54.4970   225.8900   202.5670   185.9610   -24.4480 
  211.7500     2.1900    54.6460   211.0640   193.0500   168.3880   -24.1270 
  211.8750     2.1930    55.3500   195.1940   182.0720   147.4080   -23.7110 
  212.0000     2.1960    56.3500   179.8660   171.0290   139.7850   -23.2540 
  212.1250     2.1960    56.1600   165.4260   160.5250   133.2460   -22.8640 
  212.2500     2.1930    54.9870   150.4590   149.5090   117.8590   -22.4850 
  212.3750     2.1910    54.7820   133.8710   136.6530   106.0140   -22.1390 
  212.5000     2.1950    55.6970   115.8420   121.4450   103.3790   -21.8200 
  212.6250     2.2060    56.1420    98.5620   105.1340    94.2400   -21.5350 
  212.7500     2.2190    57.3690    84.3710    90.5280    73.2080   -21.3040 
  212.8750     2.2310    60.8200    74.3850    79.4980    52.2330   -21.1700 
  213.0000     2.2380    64.5400    68.8280    72.8520    43.4320   -21.1490 
  213.1250     2.2410    62.7730    68.2690    71.3930    44.9100   -21.1680 
  213.2500     2.2400    58.6290    71.7520    74.1750    53.1610   -21.2400 
  213.3750     2.2360    57.1740    79.0100    80.9360    61.9310   -21.3710 
  213.5000     2.2290    59.2280    89.7340    91.3340    65.8700   -21.4970 
  213.6250     2.2190    60.5020   103.9240   105.2040    79.0640   -21.5990 
  213.7500     2.2080    60.1610   120.2450   120.8610   101.0540   -21.6740 
  213.8750     2.2000    60.5530   137.7000   136.9770   118.2690   -21.6980 
  214.0000     2.1950    60.4770   155.3800   152.4880   125.6080   -21.6550 
  214.1250     2.1920    58.3760   172.8260   166.9400   135.1330   -21.5840 
  214.2500     2.1880    56.0860   190.5840   181.1900   140.9660   -21.4350 
  214.3750     2.1870    53.4640   209.6320   196.3210   152.4420   -21.2230 
  214.5000     2.1880    49.9600   230.2980   212.8390   187.0850   -21.0020 
  214.6250     2.1910    48.7970   250.2700   229.1840   242.6800   -20.7950 
  214.7500     2.1950    51.0330   265.2950   242.0750   262.7680   -20.6180 
  214.8750     2.1990    54.2830   272.1270   248.8180   239.6710   -20.4730 
  215.0000     2.2010    55.3400   269.8950   248.2590   214.7260   -20.3610 
  215.1250     2.2010    53.8580   259.4900   240.4370   207.5890   -20.2160 
  215.2500     2.2000    51.6540   245.1670   228.7810   213.4050   -20.1170 
  215.3750     2.1970    50.1550   228.9640   215.1770   206.3870   -20.0410 
  215.5000     2.1940    49.6970   212.1310   200.8190   175.9560   -19.9580 
  215.6250     2.1950    50.1140   195.7420   186.6290   148.2940   -19.8700 
  215.7500     2.2000    51.8370   180.5130   173.2950   136.5880   -19.7450 
  215.8750     2.2050    55.2510   166.7690   161.1610   124.4620   -19.6110 
  216.0000     2.2080    58.0290   154.5810   150.2880   113.5520   -19.4580 
  216.1250     2.2070    57.3090   144.1670   140.7980   105.8620   -19.2990 
  216.2500     2.2040    54.6810   135.3230   132.5340    97.9920   -19.1710 
  216.3750     2.2020    53.1730   128.1930   125.6970    91.5080   -19.0470 
  216.5000     2.2020    53.6930   122.8090   120.4490    85.7840   -18.9570 
  216.6250     2.2040    55.7200   118.8070   116.5990    84.6080   -18.8520 
  216.7500     2.2040    56.3530   114.7980   112.8670    83.9890   -18.7410 
  216.8750     2.2010    55.0780   109.7840   108.2850    84.8620   -18.5880 
  217.0000     2.2040    54.9800   103.4770   102.4960    90.8430   -18.4390 
  217.1250     2.2240    59.2550    96.4500    95.9180    92.3110   -18.2600 
  217.2500     2.2590    65.1130    89.6870    89.4320    78.3580   -18.0760 
