~V
VERS. 2.00: Ver 2.00
~W
STRT.M 66.0000:
STOP.M 299.0000:
STEP.M 0.1250:
NULL. -999.2500:
UWI. F12016:
~C
DEPT.M :
SP.MV :
GR.API :
RI. :
RML.OHMM :
RXO.OHMM :
DEN.GM/CC :
~A
   66.0000    34.8410    40.8340     0.0390     0.0310     0.4810     2.3310 
   66.1250    32.3610    43.4330     0.0790     0.0440     0.4270     2.3270 
   66.2500    28.7370    44.8640     0.2140     0.1330     0.4130     2.3070 
   66.3750    24.4480    46.2780     0.5240     0.3650     1.3830     2.2600 
   66.5000    19.9440    48.8570     1.1840     0.9160     4.3230     2.1940 
   66.6250    15.4510    52.1490     2.3150     1.9520     7.1640     2.1330 
   66.7500    11.8000    55.2530     3.7910     3.4420     7.9330     2.1040 
   66.8750     9.1410    59.0450     5.1160     4.6610     7.4550     2.1070 
   67.0000     7.1130    62.3670     5.9180     5.3270     6.9830     2.1280 
   67.1250     5.5010    65.1410     6.2870     5.4610     6.9440     2.1460 
   67.2500     4.3030    68.4280     6.3930     5.3810     7.0800     2.1550 
   67.3750     3.3650    70.2500     6.5880     5.4350     7.1770     2.1570 
   67.5000     2.6020    68.3730     6.8200     5.6050     7.3400     2.1570 
   67.6250     1.9610    65.8240     7.0180     5.7970     7.5180     2.1560 
   67.7500     1.3940    66.0570     7.2210     6.0030     7.6350     2.1570 
   67.8750     0.9390    66.7420     7.4980     6.3170     7.9680     2.1690 
   68.0000     0.5880    64.9650     7.8580     6.6800     8.2990     2.2000 
   68.1250     0.2510    62.0590     8.1870     7.0280     8.1410     2.2500 
   68.2500    -0.2890    61.0470     8.3060     7.1860     7.7770     2.3020 
   68.3750    -1.2300    62.3850     8.1320     7.1440     7.6260     2.3320 
   68.5000    -2.1960    63.2550     7.6880     6.8370     7.7000     2.3220 
   68.6250    -3.0610    64.2270     7.1110     6.3560     7.6410     2.2870 
   68.7500    -3.5010    68.4980     6.5530     5.9410     7.1560     2.2480 
   68.8750    -3.5110    75.9860     6.0970     5.6570     6.6280     2.2240 
   69.0000    -3.2960    82.0680     5.9420     5.6600     6.4820     2.2140 
   69.1250    -3.0970    82.8420     6.1440     6.1410     6.6850     2.2080 
   69.2500    -3.2720    79.0860     6.5640     6.7360     8.2500     2.2000 
   69.3750    -3.9210    73.9250     7.0550     7.3050    14.6780     2.1890 
   69.5000    -4.7960    69.1990     7.4080     7.7730    23.9050     2.1790 
   69.6250    -5.6570    66.9320     7.4690     7.7980    23.2770     2.1720 
   69.7500    -6.2570    69.0450     7.3060     7.6360    12.8860     2.1690 
   69.8750    -6.3410    75.4060     7.0230     7.3680     7.0550     2.1670 
   70.0000    -6.0190    81.5450     6.7430     6.9990     6.7390     2.1650 
   70.1250    -5.6220    84.0110     6.6420     6.8820     6.7390     2.1620 
   70.2500    -5.3390    81.4370     6.6820     6.9510     6.9790     2.1590 
   70.3750    -5.0690    76.6240     6.7930     7.1850     7.2700     2.1580 
   70.5000    -4.9920    74.2710     6.9310     7.5020     7.5330     2.1610 
   70.6250    -5.1770    76.5210     7.0410     7.7520     7.8420     2.1660 
   70.7500    -5.4410    81.3860     7.0920     7.9290     7.8950     2.1700 
   70.8750    -5.7530    83.5170     7.0750     8.0070     7.6120     2.1720 
   71.0000    -5.9900    82.2140     6.9820     8.0380     7.2110     2.1730 
   71.1250    -6.1050    80.0260     6.8050     7.9930     6.8010     2.1760 
   71.2500    -6.1900    79.8280     6.5350     7.8270     6.5450     2.1840 
   71.3750    -6.2780    82.8040     6.1620     7.4650     6.6110     2.1970 
   71.5000    -6.3680    86.8170     5.7300     6.9870     6.5930     2.2140 
   71.6250    -6.4340    88.9080     5.3390     6.5370     6.3150     2.2330 
   71.7500    -6.4610    90.5470     5.1060     6.2830     6.2250     2.2480 
   71.8750    -6.2500    93.3150     5.0170     6.2440     6.1540     2.2560 
   72.0000    -5.6840    94.2780     5.1550     6.5600     6.4410     2.2540 
   72.1250    -4.9410    92.1940     5.4390     7.0690     6.8510     2.2440 
   72.2500    -4.1930    91.2550     5.7920     7.6940     6.5110     2.2270 
   72.3750    -3.7910    91.1430     6.1370     8.2800     6.5710     2.2070 
   72.5000    -3.8820    86.9800     6.3740     8.7320     7.3380     2.1870 
   72.6250    -4.3300    79.7180     6.5380     9.0880     7.6430     2.1720 
   72.7500    -5.0260    75.9400     6.4910     9.0870     7.3820     2.1720 
   72.8750    -5.5740    77.4740     6.2330     8.7540     7.2080     2.1860 
   73.0000    -5.6060    80.4610     5.8000     8.1300     7.2510     2.2100 
   73.1250    -5.1500    83.9600     5.2860     7.3940     6.9940     2.2320 
   73.2500    -4.5800    88.5590     4.8730     6.8240     6.6190     2.2470 
   73.3750    -4.2030    93.4510     4.5740     6.4170     6.4870     2.2550 
   73.5000    -3.8840    95.9210     4.4420     6.2350     6.4000     2.2570 
   73.6250    -3.6870    96.4920     4.5510     6.4040     6.2280     2.2590 
   73.7500    -3.7580    96.5390     4.8990     6.9170     6.4770     2.2600 
   73.8750    -3.9920    94.9100     5.4770     7.7610    10.5080     2.2610 
   74.0000    -4.4280    90.2880     6.1430     8.6970    19.3330     2.2580 
   74.1250    -4.9240    84.4380     6.7810     9.5310    21.2430     2.2470 
   74.2500    -5.2870    80.0090     7.1210     9.8690    12.8240     2.2230 
   74.3750    -5.5240    76.0860     7.0610     9.6580     7.6930     2.1930 
   74.5000    -5.7820    72.7740     6.7480     9.1430     7.9990     2.1710 
   74.6250    -6.0560    71.2650     6.3060     8.5280     7.9180     2.1680 
   74.7500    -6.3540    74.5030     5.9060     8.0550     7.1010     2.1820 
   74.8750    -6.5950    80.6860     5.5390     7.6400     6.7190     2.2030 
   75.0000    -6.5900    86.3300     5.1740     7.2710     6.8200     2.2210 
   75.1250    -6.1810    89.1870     4.8300     6.9010     6.7510     2.2330 
   75.2500    -5.3630    89.7230     4.5280     6.4910     6.6290     2.2420 
   75.3750    -4.4440    91.9070     4.2970     6.1110     6.5450     2.2530 
   75.5000    -3.8410    94.1010     4.3350     6.0660     6.4700     2.2680 
   75.6250    -3.8510    93.1830     4.9030     6.8320     6.4840     2.2930 
   75.7500    -4.4730    88.3430     6.2430     8.9410    14.6460     2.3310 
   75.8750    -5.3760    82.5110     8.4600    12.4570    34.5840     2.3780 
   76.0000    -6.4050    76.5730    11.6870    17.3700    49.8910     2.4220 
   76.1250    -7.2240    68.6210    14.5010    21.3550    55.4070     2.4410 
   76.2500    -7.5390    62.2760    15.5980    22.4890    53.3400     2.4210 
   76.3750    -7.6170    61.5710    14.5770    20.5770    36.8850     2.3690 
   76.5000    -7.7030    65.1020    12.1700    16.7830    17.7690     2.3030 
   76.6250    -7.7080    68.3130     9.8360    13.4580     9.8870     2.2460 
   76.7500    -7.6480    68.1150     8.4090    11.5410     8.5910     2.2090 
   76.8750    -7.6570    66.5900     7.6250    10.5600     8.4210     2.1880 
   77.0000    -7.8210    65.7660     7.1870    10.0960     8.4670     2.1750 
   77.1250    -8.0700    65.4350     7.0130     9.9790     8.5350     2.1630 
   77.2500    -8.3770    65.5170     6.9530     9.9730     8.4130     2.1500 
   77.3750    -8.6430    66.3230     6.9130     9.9360     8.0560     2.1360 
   77.5000    -8.8830    67.6340     6.8570     9.8170     7.6950     2.1220 
   77.6250    -9.1880    67.9120     6.8460     9.7300     7.4640     2.1110 
   77.7500    -9.5370    66.8030     6.8920     9.7260     7.4280     2.1060 
   77.8750    -9.9000    65.8510     6.9580     9.7850     7.5770     2.1060 
   78.0000   -10.3070    64.9440     7.0470     9.8970     7.9740     2.1090 
   78.1250   -10.6050    65.4630     7.1110    10.0070     8.1910     2.1140 
   78.2500   -10.5660    66.3240     7.1200    10.0440     7.8820     2.1220 
   78.3750   -10.1570    67.0680     7.0650     9.9810     8.2370     2.1310 
   78.5000    -9.5720    69.1690     6.9650     9.8830     8.8910     2.1390 
   78.6250    -9.1830    73.8220     6.8960     9.8300     8.3570     2.1420 
   78.7500    -9.3020    78.4640     6.8920     9.8980     7.6630     2.1430 
