~V
VERS. 2.00: Ver 2.00
~W
STRT.M 60.0000:
STOP.M 291.0000:
STEP.M 0.1250:
NULL. -999.2500:
UWI. F12014:
~C
DEPT.M :
SP.MV :
GR.API :
RI. :
RML.OHMM :
RXO.OHMM :
DEN.GM/CC :
~A
# ...
  201.6250   -16.8720    91.2210     4.0420     4.7990     4.8940     2.2660 
  201.7500   -16.9330    95.4910     3.9460     4.6630     4.9540     2.2720 
  201.8750   -17.0320    99.2240     3.8730     4.5500     4.9900     2.2820 
  202.0000   -17.0060    99.9610     3.8760     4.5310     4.9510     2.2920 
  202.1250   -16.8340    98.3110     3.9560     4.6330     4.9280     2.2990 
  202.2500   -16.8720    96.5490     4.1590     4.9020     5.0770     2.3070 
  202.3750   -16.8870    94.9760     4.4250     5.2640     5.3800     2.3170 
  202.5000   -16.8610    92.2930     4.6830     5.6090     5.6910     2.3210 
  202.6250   -16.9030    89.0760     4.8680     5.8550     5.8400     2.3090 
  202.7500   -17.0210    86.9950     4.8900     5.8910     5.7530     2.2880 
  202.8750   -17.3450    87.7580     4.7520     5.7250     5.5750     2.2710 
  203.0000   -17.6120    89.5680     4.5110     5.4390     5.4750     2.2620 
  203.1250   -17.7490    91.0710     4.2550     5.1100     5.4700     2.2510 
  203.2500   -17.8370    90.2270     4.1420     4.9490     5.4430     2.2470 
  203.3750   -17.8490    87.6570     4.2590     5.0760     5.3920     2.2490 
  203.5000   -17.8710    84.2270     4.7840     5.7610     6.5560     2.2740 
  203.6250   -18.0320    81.0140     5.8840     7.2430    10.4560     2.3100 
  203.7500   -18.3370    78.0310     7.7040     9.6600    15.8370     2.3380 
  203.8750   -18.5660    75.3200     9.6600    12.1420    18.9790     2.3320 
  204.0000   -18.5890    72.8330    11.1400    13.8220    18.1630     2.2930 
  204.1250   -18.4280    71.9570    11.6370    14.1490    15.5080     2.2500 
  204.2500   -18.1840    72.8500    11.3860    13.5770    13.2450     2.2190 
  204.3750   -17.8640    75.4750    10.7520    12.6760    12.0140     2.1980 
  204.5000   -17.3220    77.8540     9.8480    11.5970    11.9460     2.1830 
  204.6250   -16.6050    80.3710     8.7380    10.2810    12.1380     2.1750 
  204.7500   -15.9830    80.9910     7.3920     8.6400    11.0260     2.1780 
  204.8750   -15.3380    80.2980     6.0620     7.0080     8.4790     2.1900 
  205.0000   -15.0030    80.0170     5.0810     5.8260     5.8310     2.2170 
  205.1250   -14.9870    80.4980     4.4440     5.1060     4.4120     2.2610 
  205.2500   -15.0480    81.5920     4.2280     4.9420     4.2150     2.3120 
  205.3750   -15.3080    80.9950     4.3650     5.1850     4.3610     2.3470 
  205.5000   -15.7390    80.8780     4.6590     5.5670     4.5100     2.3620 
  205.6250   -16.1090    82.9380     4.9780     5.9180     4.6180     2.3640 
  205.7500   -16.8110    87.6640     5.2170     6.1340     4.6350     2.3590 
  205.8750   -17.7340    92.4870     5.4310     6.3200     4.6220     2.3530 
  206.0000   -19.0390    94.0930     5.6890     6.5860     4.7600     2.3570 
  206.1250   -20.5030    92.7800     5.9790     6.9310     5.1510     2.3700 
  206.2500   -21.9190    88.7140     6.3530     7.4100     5.8260     2.3800 
  206.3750   -23.1360    85.3180     6.7780     7.9500     6.7650     2.3680 
  206.5000   -24.0170    84.3320     7.1820     8.4700     7.7030     2.3350 
  206.6250   -24.8060    85.2660     7.5620     8.9790     8.0590     2.2980 
  206.7500   -25.7220    86.4000     7.8660     9.4070     7.5310     2.2760 
  206.8750   -26.6300    85.7040     8.1670     9.8530     6.7330     2.2690 
  207.0000   -27.6100    83.5690     8.5090    10.3380     6.3900     2.2650 
  207.1250   -28.6060    80.3520     8.8690    10.8310     6.5930     2.2610 
  207.2500   -29.6820    76.6290     9.2350    11.3230     7.0880     2.2590 
  207.3750   -30.6730    74.2770     9.5540    11.7400     7.5440     2.2650 
  207.5000   -31.4060    71.7020     9.8200    12.0650     7.6720     2.2740 
  207.6250   -31.5510    70.9830    10.0510    12.3250     7.4380     2.2810 
  207.7500   -31.2840    71.4080    10.2220    12.5080     7.1420     2.2920 
  207.8750   -30.8180    73.3930    10.3590    12.6390     7.1590     2.3020 
  208.0000   -30.1550    74.4350    10.4730    12.7230     7.5290     2.3160 
  208.1250   -29.0480    74.5890    10.5590    12.7550     7.8680     2.3270 
  208.2500   -27.1910    75.3120    10.5840    12.6850     7.8270     2.3400 
  208.3750   -24.1880    78.2400    10.5440    12.5310     7.4890     2.3470 
  208.5000   -19.8930    81.9380    10.4460    12.2980     7.1670     2.3520 
  208.6250   -15.6970    84.7270    10.2930    11.9950     7.0180     2.3540 
  208.7500   -14.0530    85.7380    10.1150    11.6800     7.0720     2.3540 
  208.8750   -13.8430    86.3390     9.9330    11.3820     7.2910     2.3540 
  209.0000   -13.8120    89.0290     9.6920    11.0300     7.5820     2.3520 
  209.1250   -13.9880    91.8630     9.4270    10.6680     7.7810     2.3480 
  209.2500   -14.2090    92.6150     9.1810    10.3260     7.8070     2.3400 
  209.3750   -14.6360    90.5330     8.9740    10.0440     7.9370     2.3220 
  209.5000   -15.3310    87.9110     8.8580     9.8810     8.4520     2.3000 
  209.6250   -15.9710    85.8300     8.7900     9.7700     9.2100     2.2780 
  209.7500   -16.4600    83.9850     8.6630     9.5670     9.7660     2.2670 
  209.8750   -16.8030    82.1770     8.4390     9.2330     9.7750     2.2530 
  210.0000   -17.0970    80.6960     8.1520     8.8180     9.1160     2.2230 
  210.1250   -17.4970    80.3890     7.8640     8.4210     7.9610     2.1700 
  210.2500   -17.9510    79.9540     7.7540     8.2620     7.0710     2.1200 
  210.3750   -18.5880    80.3210     8.1200     8.6740     7.3180     2.0900 
  210.5000   -19.3090    77.9790     9.1580     9.8700     8.3940     2.0950 
  210.6250   -19.9620    75.6150    10.9240    11.8790     9.5860     2.1160 
  210.7500   -20.4380    72.8380    13.4930    14.7120    11.8470     2.1510 
  210.8750   -20.8160    71.7480    16.3500    17.7480    15.6860     2.1880 
  211.0000   -21.2890    71.3980    18.9060    20.2340    19.3250     2.2170 
  211.1250   -21.6320    70.2720    20.4490    21.5590    20.9950     2.2290 
  211.2500   -21.9070    69.0450    20.7590    21.5810    21.2280     2.2340 
  211.3750   -22.1510    68.0630    20.3650    20.9590    21.2170     2.2340 
  211.5000   -22.4300    70.3370    20.1160    20.6500    21.1150     2.2270 
  211.6250   -22.7230    74.6140    20.6680    21.2220    21.3890     2.2150 
  211.7500   -23.0060    78.5530    22.3060    22.9640    23.6980     2.2090 
  211.8750   -23.4330    80.0540    24.8200    25.6690    28.9080     2.2130 
  212.0000   -24.0390    79.9670    28.0260    29.0900    35.4310     2.2200 
  212.1250   -24.5850    80.5280    31.4270    32.6000    39.8820     2.2220 
  212.2500   -24.8290    81.1040    33.7990    34.8400    40.5210     2.2200 
  212.3750   -24.9660    78.2240    35.0200    35.7840    39.5930     2.2210 
  212.5000   -25.2560    74.0080    34.4210    34.8080    39.0510     2.2260 
  212.6250   -25.4700    71.5710    32.9190    33.0540    38.4660     2.2310 
  212.7500   -25.7060    73.0120    31.7670    31.7820    36.9570     2.2330 
  212.8750   -25.9730    74.1060    32.0340    32.1200    35.0380     2.2290 
  213.0000   -26.4460    72.2780    34.9980    35.3880    37.3750     2.2210 
  213.1250   -26.9880    68.2800    41.6560    42.5270    49.8150     2.2040 
  213.2500   -27.4690    64.8410    51.7450    53.1600    72.7130     2.1880 
  213.3750   -27.9570    62.0000    67.2680    69.2120    96.4280     2.1730 
  213.5000   -28.4190    59.6970    84.4030    86.3350   113.5630     2.1650 
  213.6250   -28.7730    58.1150    98.2920    99.5040   121.6940     2.1590 
  213.7500   -29.0180    59.0960   105.3100   105.3860   114.8950     2.1530 
  213.8750   -29.1400    60.3170   103.3800   102.2450    95.8920     2.1520 
  214.0000   -29.2040    61.3970    96.6280    94.8120    78.3300     2.1500 
  214.1250   -29.2460    60.7940    88.8840    86.9940    74.1470     2.1520 
  214.2500   -29.4450    60.9910    83.0270    81.3220    78.7810     2.1520 
  214.3750   -29.6810    61.8710    80.4790    79.0480    81.5820     2.1540 
