~V
VERS. 2.00: Ver 2.00
~W
STRT.M 60.0000:
STOP.M 291.0000:
STEP.M 0.1250:
NULL. -999.2500:
UWI. F12014:
~C
DEPT.M :
SP.MV :
GR.API :
RI. :
RML.OHMM :
RXO.OHMM :
DEN.GM/CC :
~A
# ...
  278.8750    -4.6940   102.6410     5.1560     7.2120     6.9880     2.3170 
  279.0000    -4.6940   100.9020     5.4170     7.6220     7.9870     2.3540 
  279.1250    -4.6940    99.2910     5.7450     8.1150     8.4500     2.3700 
  279.2500    -4.6940    99.7380     5.9450     8.3950     8.8050     2.3700 
  279.3750    -4.6940   101.9580     6.0310     8.5230     9.4620     2.3740 
  279.5000    -4.6940   103.9740     5.9840     8.4640     9.5480     2.3820 
  279.6250    -4.6940   104.7650     5.8000     8.1980     8.5100     2.3750 
  279.7500    -4.6940   103.4060     5.6070     7.9390     7.3130     2.3490 
  279.8750    -4.6940   102.1440     5.4930     7.8140     7.0370     2.3320 
  280.0000    -4.6940   101.5550     5.3840     7.7280     7.5330     2.3320 
  280.1250    -4.6940   103.9760     5.3150     7.7210     8.0350     2.3440 
  280.2500    -4.6940   107.2060     5.1880     7.6170     8.0100     2.3520 
  280.3750    -4.6940   108.7430     4.8960     7.2100     7.4180     2.3550 
  280.5000    -4.6940   106.9120     4.4830     6.5980     6.5560     2.3510 
  280.6250    -4.6940   104.8350     4.0520     5.9650     5.8070     2.3390 
  280.7500    -4.6940   103.1490     3.6810     5.4140     5.1300     2.3160 
  280.8750    -4.6940   102.0100     3.4050     5.0230     4.5200     2.2870 
  281.0000    -4.6940   100.1180     3.2230     4.7770     4.1630     2.2650 
  281.1250    -4.6940    98.5190     3.1160     4.6410     3.9690     2.2610 
  281.2500    -4.6940    97.4170     3.0930     4.6250     3.8070     2.2670 
  281.3750    -4.6940    96.8950     3.1220     4.6720     3.6520     2.2640 
  281.5000    -4.6940    97.7290     3.1670     4.7280     3.5890     2.2450 
  281.6250    -4.6940    99.8710     3.2120     4.7730     3.6630     2.2280 
  281.7500    -4.6940   103.5030     3.2530     4.8200     3.8490     2.2340 
  281.8750    -4.6940   106.1710     3.2900     4.8670     4.0130     2.2560 
  282.0000    -4.6940   107.6540     3.2790     4.8300     4.0210     2.2570 
  282.1250    -4.6940   107.6600     3.2700     4.7920     3.9010     2.2140 
  282.2500    -4.6940   107.1280     3.2760     4.7760     3.7570     2.1450 
  282.3750    -4.6940   105.7480     3.2980     4.7830     3.6860     2.0970 
  282.5000    -4.6940   103.8400     3.3410     4.8340     3.7500     2.0950 
  282.6250    -4.6940   101.9080     3.4130     4.9400     3.8820     2.1190 
  282.7500    -4.6940   100.5370     3.5280     5.1090     4.1300     2.1440 
  282.8750    -4.6940    99.8580     3.6190     5.2450     4.6790     2.1560 
  283.0000    -4.6940    99.7230     3.7170     5.4030     5.2820     2.1580 
  283.1250    -4.6940    99.7230     3.7360     5.4300     5.3620     2.1570 
  283.2500    -4.6940    99.7230     3.6810     5.3390     4.9130     2.1700 
  283.3750    -4.6940    99.7230     3.5890     5.2040     4.5160     2.1990 
  283.5000    -4.6940    99.7230     3.4600     5.2650     4.3380     2.2370 
  283.6250    -4.6940    99.7230     3.3420     5.5680     4.1590     2.2730 
  283.7500    -4.6940    99.7230     3.3020     5.8920     4.0340     2.2990 
  283.8750    -4.6940    99.7230     3.2870     6.1950     4.0340     2.3130 
  284.0000    -4.6940    99.7230     3.2880     6.1540     4.0710     2.3110 
  284.1250    -4.6940    99.7230     3.2900     6.1150     4.1690     2.3020 
  284.2500    -4.6940    99.7230     3.2900     6.1100     4.5100     2.2890 
  284.3750    -4.6940    99.7230     3.2900     6.0800     5.1120     2.2740 
  284.5000    -4.6940    99.7230     3.2910     6.0360     5.5200     2.2560 
  284.6250    -4.6940    99.7230     3.2910     5.9840     5.2100     2.2370 
  284.7500    -4.6940    99.7230     3.2920     5.9410     4.3080     2.2110 
  284.8750    -4.6940    99.7230     3.2870     5.9110     3.5990     2.1780 
  285.0000    -4.6940    99.7230     3.2890     5.9020     3.5570     2.1400 
  285.1250    -4.6940    99.7230     3.2900     5.9050     3.8450     2.1090 
  285.2500    -4.6940    99.7230     3.2930     5.9090     4.0700     2.0960 
  285.3750    -4.6940    99.7230     3.2980     5.9120     4.1740     2.0970 
  285.5000    -4.6940    99.7230     3.2980     5.9120     4.2130     2.1070 
  285.6250    -4.6940    99.7230     3.2980     5.9120     4.2180     2.1140 
  285.7500    -4.6940    99.7230     3.2980     5.9120     4.1790     2.1210 
  285.8750    -4.6940    99.7230     3.2980     5.9120     4.1130     2.1240 
  286.0000    -4.6940    99.7230     3.2980     5.9120     3.9800     2.1200 
  286.1250    -4.6940    99.7230     3.2980     5.9120     3.7970     2.1100 
  286.2500    -4.6940    99.7230     3.2980     5.9120     3.6880     2.0960 
  286.3750    -4.6940    99.7230     3.2980     5.9120     3.6900     2.0900 
  286.5000    -4.6940    99.7230     3.2980     5.9120     3.7220     2.0890 
  286.6250    -4.6940    99.7230     3.2980     5.9120     3.7780     2.0980 
  286.7500    -4.6940    99.7230     3.2980     5.9120     4.1570     2.1100 
  286.8750    -4.6940    99.7230     3.2980     5.9120     4.9160     2.1210 
  287.0000    -4.6940    99.7230     3.2980     5.9120     5.6810     2.1160 
  287.1250    -4.6940    99.7230     3.2980     5.9120     6.1040     2.1070 
  287.2500    -4.6940    99.7230     3.2980     5.9120     6.2040     2.1060 
  287.3750    -4.6940    99.7230     3.2980     5.9120     6.3680     2.1270 
  287.5000    -4.6940    99.7230     3.2980     5.9120     6.7100     2.1610 
  287.6250    -4.6940    99.7230     3.2980     5.9120     7.0240     2.1910 
  287.7500    -4.6940    99.7230     3.2980     5.9120     7.1290     2.2080 
  287.8750    -4.6940    99.7230     3.2980     5.9120     7.3750     2.2100 
  288.0000    -4.6940    99.7230     3.2980     5.9120     8.3570     2.2050 
  288.1250    -4.6940    99.7230     3.2980     5.9120     9.4190     2.1990 
  288.2500    -4.6940    99.7230     3.2980     5.9120     9.2920     2.1930 
  288.3750    -4.6940    99.7230     3.2980     5.9120     8.0730     2.1680 
  288.5000    -4.6940    99.7230     3.2980     5.9120     7.0140     2.1150 
  288.6250    -4.6940    99.7230     3.2980     5.9120     6.7220     2.0520 
  288.7500    -4.6940    99.7230     3.2980     5.9120     6.7540     2.0110 
  288.8750    -4.6940    99.7230     3.2980     5.9120     6.7500     1.9940 
  289.0000    -4.6940    99.7230     3.2980     5.9120     6.7140     1.9920 
  289.1250    -4.6940    99.7230     3.2980     5.9120     6.6810     1.9900 
  289.2500    -4.6940    99.7230     3.2980     5.9120     6.6580     1.9900 
  289.3750    -4.6940    99.7230     3.2980     5.9120     6.6450     1.9910 
  289.5000    -4.6940    99.7230     3.2980     5.9120     6.6420     1.9910 
  289.6250    -4.6940    99.7230     3.2980     5.9120     6.6420     1.9860 
  289.7500    -4.6940    99.7230     3.2980     5.9120     6.6430     1.9820 
  289.8750    -4.6940    99.7230     3.2980     5.9120     6.6440     1.9810 
  290.0000    -4.6940    99.7230     3.2980     5.9120     6.6440     1.9850 
  290.1250    -4.6940    99.7230     3.2980     5.9120     6.6430     1.9880 
  290.2500    -4.6940    99.7230     3.2980     5.9120     6.6430     1.9890 
  290.3750    -4.6940    99.7230     3.2980     5.9120     6.6420     1.9900 
  290.5000    -4.6940    99.7230     3.2980     5.9120     6.6370     1.9900 
  290.6250    -4.6940    99.7230     3.2980     5.9120     6.6280     1.9890 
  290.7500    -4.6940    99.7230     3.2980     5.9120     6.6210     1.9880 
  290.8750    -4.6940    99.7230     3.2980     5.9120     6.6170     1.9890 
  291.0000    -4.6940    99.7230     3.2980     5.9120     6.6150     1.9880 
