~V
VERS. 2.00: Ver 2.00
~W
STRT.M 66.0000:
STOP.M 299.0000:
STEP.M 0.1250:
NULL. -999.2500:
UWI. F12016:
~C
DEPT.M :
SP.MV :
GR.API :
RI. :
RML.OHMM :
RXO.OHMM :
DEN.GM/CC :
~A
# ...
  246.2500   -16.0780    80.2450    12.7750    15.8380    17.1180     2.2670 
  246.3750   -16.2640    77.7640    13.8630    17.2460    19.2450     2.2590 
  246.5000   -16.4400    73.5320    14.8230    18.4570    23.6190     2.2440 
  246.6250   -16.7210    71.6920    15.3780    19.1310    26.6960     2.2300 
  246.7500   -17.1200    70.9510    15.6840    19.4590    25.9590     2.2240 
  246.8750   -17.5310    69.0640    15.9610    19.8190    22.8890     2.2280 
  247.0000   -17.9310    67.8010    16.5270    20.5780    20.5240     2.2340 
  247.1250   -18.2630    68.7270    17.6840    22.1390    24.3430     2.2370 
  247.2500   -18.3010    70.0410    19.5930    24.7070    31.5210     2.2310 
  247.3750   -17.9580    68.9750    21.7800    27.5080    35.9180     2.2180 
  247.5000   -17.3680    64.9050    23.6780    29.8530    37.8960     2.2020 
  247.6250   -16.8220    60.9480    24.8630    31.1620    37.1360     2.1910 
  247.7500   -16.5990    61.1790    25.3160    31.5190    36.4650     2.1870 
  247.8750   -16.9130    63.5030    25.3800    31.4440    38.2950     2.1890 
  248.0000   -17.5310    63.0410    25.2810    31.2550    39.2030     2.1940 
  248.1250   -18.1260    61.2310    24.9260    30.8380    38.3200     2.2000 
  248.2500   -18.4790    62.1520    24.0600    29.8100    35.5860     2.2040 
  248.3750   -18.3770    65.1130    22.6440    28.0100    31.8890     2.2070 
  248.5000   -17.8610    64.2970    20.5430    25.2940    28.8240     2.2080 
  248.6250   -17.3390    60.8830    18.1380    22.1350    24.8590     2.2080 
  248.7500   -16.9560    58.9680    16.0010    19.3760    19.3330     2.2100 
  248.8750   -16.6100    59.3970    14.3030    17.2480    15.5330     2.2150 
  249.0000   -16.4350    60.4760    13.5150    16.3390    14.5860     2.2230 
  249.1250   -16.4670    60.6060    13.5740    16.5480    15.0210     2.2310 
  249.2500   -16.5720    59.1470    14.4180    17.7690    16.0270     2.2370 
  249.3750   -16.7270    56.9200    15.6580    19.4190    17.0410     2.2390 
  249.5000   -16.8700    55.7500    16.6730    20.6880    19.5720     2.2410 
  249.6250   -16.9680    54.9590    17.0910    21.0810    21.8440     2.2410 
  249.7500   -17.1190    52.7990    16.7810    20.4740    20.7410     2.2410 
  249.8750   -17.3640    50.7290    15.8810    19.1300    18.3680     2.2390 
  250.0000   -17.5740    51.4770    14.7010    17.5200    16.6780     2.2350 
  250.1250   -17.7670    54.2770    13.6500    16.1840    15.8100     2.2320 
  250.2500   -17.8770    56.9190    13.1140    15.5970    15.2650     2.2310 
  250.3750   -17.6080    57.6540    13.2450    15.8670    13.7500     2.2340 
  250.5000   -16.8070    57.4430    13.6600    16.4900    14.3930     2.2380 
  250.6250   -15.7320    58.4600    13.9520    16.9250    20.8770     2.2430 
  250.7500   -14.7130    61.7800    13.8460    16.7960    25.3610     2.2530 
  250.8750   -14.1890    66.0650    13.2280    15.9480    20.8930     2.2670 
  251.0000   -14.2230    69.0610    12.3450    14.7710    14.7150     2.2850 
  251.1250   -14.5340    71.4600    11.4900    13.6640    12.5970     2.3020 
  251.2500   -14.9510    75.7380    10.8960    12.9610    12.2500     2.3150 
  251.3750   -15.1990    80.6210    10.7470    12.8550    11.9340     2.3260 
  251.5000   -14.9850    82.7900    10.8810    13.0910    11.6950     2.3340 
  251.6250   -14.4860    82.1590    11.0770    13.3780    12.2250     2.3380 
  251.7500   -14.0690    83.5850    11.1930    13.5470    14.4660     2.3360 
  251.8750   -13.7190    88.2860    11.1990    13.5470    16.2140     2.3290 
  252.0000   -13.4990    90.6530    11.1160    13.4040    14.8340     2.3230 
  252.1250   -13.5160    88.3160    10.9790    13.1860    12.6230     2.3190 
  252.2500   -13.7090    85.1320    10.8720    13.0230    11.9060     2.3170 
  252.3750   -13.9530    84.6380    10.8330    12.9780    12.0250     2.3170 
  252.5000   -14.2140    84.9780    10.8970    13.0760    12.2840     2.3190 
  252.6250   -14.4640    84.3000    11.0720    13.3090    12.6580     2.3230 
  252.7500   -14.7300    83.3870    11.3240    13.6390    13.4490     2.3260 
  252.8750   -15.0840    81.8620    11.6130    14.0030    13.9900     2.3280 
  253.0000   -15.5590    79.8470    11.9050    14.3780    15.1690     2.3260 
  253.1250   -16.1150    78.0640    12.1200    14.6240    17.9880     2.3170 
  253.2500   -16.7490    75.9330    12.1440    14.5890    18.4700     2.2990 
  253.3750   -17.2670    72.9540    11.9540    14.2710    16.2570     2.2760 
  253.5000   -17.3370    70.1970    11.6620    13.8310    15.0490     2.2530 
  253.6250   -16.9650    68.9090    11.5030    13.5880    14.4330     2.2370 
  253.7500   -16.3430    68.8610    11.7620    13.9090    13.3980     2.2290 
  253.8750   -15.8260    69.4880    12.4960    14.8640    14.1900     2.2260 
  254.0000   -15.8360    69.9410    13.4890    16.1380    18.7660     2.2210 
  254.1250   -16.3510    68.2770    14.4430    17.3130    22.6070     2.2110 
  254.2500   -17.0910    63.8430    14.7540    17.6140    22.7850     2.1960 
  254.3750   -17.7710    59.1960    14.3830    17.0360    21.8410     2.1810 
  254.5000   -18.0740    56.2960    13.3980    15.7240    19.3840     2.1740 
  254.6250   -17.8420    55.1700    12.1940    14.2190    16.2960     2.1770 
  254.7500   -17.3450    56.5050    11.3020    13.1690    15.2450     2.1920 
  254.8750   -16.9460    59.6690    10.8770    12.7130    15.5470     2.2130 
  255.0000   -16.6260    62.8500    10.9850    12.9030    15.8800     2.2320 
  255.1250   -16.3930    64.6680    11.4360    13.5050    17.2460     2.2420 
  255.2500   -16.4050    64.8750    12.1780    14.4230    19.6970     2.2420 
  255.3750   -16.5790    65.3620    13.0360    15.4020    21.0650     2.2330 
  255.5000   -16.8100    66.3400    13.7620    16.1520    20.6360     2.2220 
  255.6250   -17.0270    67.6320    14.2360    16.5820    19.3270     2.2150 
  255.7500   -17.1810    68.0880    14.3050    16.5300    18.6290     2.2150 
  255.8750   -17.3150    65.7480    14.0480    16.1450    18.5550     2.2210 
  256.0000   -17.5380    62.8450    13.4920    15.4300    17.7010     2.2270 
  256.1250   -17.8020    63.7520    12.7710    14.5400    15.9140     2.2310 
  256.2500   -18.0350    67.2300    11.9030    13.5120    14.6010     2.2330 
  256.3750   -18.2840    67.4760    11.1740    12.6940    13.9280     2.2340 
  256.5000   -18.3140    65.1590    10.7320    12.2330    13.3960     2.2370 
  256.6250   -17.9030    64.5100    10.5660    12.0840    13.3260     2.2430 
  256.7500   -17.0810    65.0360    10.6360    12.1910    13.6990     2.2530 
  256.8750   -16.1640    64.3690    10.8550    12.4390    14.7580     2.2630 
  257.0000   -15.5120    64.3770    11.2300    12.8280    15.5790     2.2690 
  257.1250   -15.4270    66.7920    11.6650    13.2560    15.3110     2.2670 
  257.2500   -15.7980    69.7060    12.2280    13.8050    15.7080     2.2590 
  257.3750   -16.2480    71.3780    12.9050    14.5280    17.1870     2.2500 
  257.5000   -16.5970    70.8490    13.8620    15.6090    18.6510     2.2440 
  257.6250   -16.5350    69.6490    14.8730    16.7640    20.0090     2.2440 
  257.7500   -15.8540    69.3140    15.5160    17.4980    21.9020     2.2540 
  257.8750   -14.9520    69.9500    15.4630    17.4200    24.0420     2.2750 
  258.0000   -14.1820    70.9590    14.6890    16.5100    22.4210     2.3050 
  258.1250   -13.5130    72.2040    13.6290    15.3040    16.3880     2.3370 
  258.2500   -12.9910    73.7860    12.5670    14.1460    11.8290     2.3630 
  258.3750   -12.6150    75.2240    11.8300    13.3970    10.9800     2.3820 
  258.5000   -12.4230    77.7250    11.3420    12.9560    11.3960     2.3930 
  258.6250   -12.4340    80.6070    11.1270    12.8020    11.7320     2.3980 
  258.7500   -12.5920    81.7270    11.2200    12.9570    12.0440     2.3960 
  258.8750   -12.8170    81.3540    11.5950    13.4170    12.2860     2.3870 
  259.0000   -13.3220    80.1730    12.2620    14.2080    13.4070     2.3670 
