~V
VERS. 2.00: Ver 2.00
~W
STRT.M 66.0000:
STOP.M 299.0000:
STEP.M 0.1250:
NULL. -999.2500:
UWI. F12016:
~C
DEPT.M :
SP.MV :
GR.API :
RI. :
RML.OHMM :
RXO.OHMM :
DEN.GM/CC :
~A
# ...
  194.7500    -7.4380    93.7080     3.5460     4.5320     5.4480     2.2990 
  194.8750    -6.6940    92.3350     3.6840     4.7040     5.7440     2.3010 
  195.0000    -5.9820    90.0700     3.8560     4.9150     5.9830     2.3000 
  195.1250    -5.6290    89.1250     4.0300     5.1140     6.1890     2.2970 
  195.2500    -5.8740    91.5100     4.1430     5.2310     6.1840     2.2950 
  195.3750    -6.4320    93.8550     4.1730     5.2320     5.6480     2.2920 
  195.5000    -7.0730    95.6830     4.1090     5.1330     5.1160     2.2870 
  195.6250    -7.5030    98.4160     3.9900     4.9730     4.9340     2.2810 
  195.7500    -7.4490   101.3570     3.8350     4.7680     4.8640     2.2750 
  195.8750    -7.0080   102.9090     3.6790     4.5750     4.8370     2.2700 
  196.0000    -6.5800   103.0620     3.5290     4.3810     4.7140     2.2650 
  196.1250    -6.2510   102.2550     3.3940     4.2040     4.5110     2.2600 
  196.2500    -6.0170    98.6790     3.2980     4.0700     4.3600     2.2540 
  196.3750    -5.9320    95.0320     3.2390     3.9940     4.2490     2.2510 
  196.5000    -6.0080    94.3580     3.2220     3.9810     4.2340     2.2510 
  196.6250    -6.1690    94.7250     3.2630     4.0550     4.3350     2.2540 
  196.7500    -6.4370    95.6320     3.3560     4.1760     4.5030     2.2620 
  196.8750    -6.6570    96.7200     3.4690     4.3010     4.7790     2.2740 
  197.0000    -6.8550    97.8390     3.5630     4.4060     5.1370     2.2880 
  197.1250    -7.1010    96.7180     3.6050     4.4490     5.3590     2.2970 
  197.2500    -7.4410    94.0810     3.5800     4.4210     5.2260     2.2910 
  197.3750    -7.7920    91.9740     3.5070     4.3230     4.7260     2.2690 
  197.5000    -8.1570    91.3450     3.4040     4.1720     4.4120     2.2400 
  197.6250    -8.4120    93.1090     3.3160     4.0380     4.5710     2.2200 
  197.7500    -8.2780    94.7250     3.3000     4.0070     4.6360     2.2220 
  197.8750    -7.6830    93.4880     3.3850     4.1090     4.5030     2.2410 
  198.0000    -6.8590    91.1290     3.5800     4.3610     4.7560     2.2680 
  198.1250    -6.1700    91.8730     3.8560     4.7200     5.4500     2.2920 
  198.2500    -6.0240    94.3030     4.1860     5.1410     6.0600     2.3090 
  198.3750    -6.4240    93.7620     4.4770     5.4780     6.3900     2.3190 
  198.5000    -7.0970    90.9000     4.6560     5.6400     6.4160     2.3230 
  198.6250    -7.7670    89.8910     4.7290     5.6440     6.2880     2.3230 
  198.7500    -8.1650    91.0600     4.6950     5.5310     6.2370     2.3140 
  198.8750    -8.0170    91.9270     4.6510     5.4590     6.3040     2.2940 
  199.0000    -7.5440    92.9760     4.6410     5.4510     6.1650     2.2600 
  199.1250    -7.1250    93.1190     4.6620     5.5060     5.2910     2.2200 
  199.2500    -6.8260    91.7120     4.7050     5.5810     4.5770     2.1930 
  199.3750    -6.6160    91.9580     4.7330     5.6220     5.0470     2.1890 
  199.5000    -6.6090    94.1110     4.7200     5.6040     6.0160     2.2090 
  199.6250    -6.7990    96.9650     4.6710     5.5380     6.6800     2.2370 
  199.7500    -7.1100    97.6610     4.6020     5.4410     6.6040     2.2600 
  199.8750    -7.4600    98.2960     4.5250     5.3390     6.2650     2.2710 
  200.0000    -7.8390    98.7810     4.5240     5.3350     6.4020     2.2750 
  200.1250    -8.1950    97.5370     4.7380     5.6070     6.5200     2.2800 
  200.2500    -8.6510    94.5300     5.0830     6.0390     6.8370     2.2920 
  200.3750    -9.1710    91.7310     5.4710     6.5400    11.6650     2.3120 
  200.5000    -9.6300    89.4500     5.8580     7.0140    16.4910     2.3280 
  200.6250   -10.1300    89.5260     6.0850     7.2420    12.5080     2.3330 
  200.7500   -10.4350    89.9400     6.0970     7.2100     7.9640     2.3230 
  200.8750   -10.3300    89.5330     5.9380     6.9840     8.4070     2.3070 
  201.0000    -9.6840    88.8410     5.6540     6.6240     8.7170     2.2940 
  201.1250    -8.7800    90.5830     5.3630     6.2820     7.7700     2.2900 
  201.2500    -7.9630    96.2820     5.1150     5.9870     6.8750     2.2950 
  201.3750    -7.6030   102.8840     4.8720     5.6990     6.7230     2.2970 
  201.5000    -7.6710   108.0150     4.6500     5.4520     7.0750     2.2880 
  201.6250    -7.9550   107.9040     4.5230     5.3340     6.6890     2.2700 
  201.7500    -8.2940   102.1750     4.5160     5.3510     5.8190     2.2550 
  201.8750    -8.3990    95.0030     4.5350     5.3750     6.5120     2.2600 
  202.0000    -8.0070    92.2030     4.5340     5.3480     7.5830     2.2870 
  202.1250    -7.4730    92.0250     4.5070     5.2830     6.9910     2.3150 
  202.2500    -7.0850    92.2350     4.5130     5.2510     5.6960     2.3200 
  202.3750    -6.7910    92.8100     4.5830     5.3230     5.2730     2.3000 
  202.5000    -6.5400    92.8140     4.7100     5.4920     5.9740     2.2710 
  202.6250    -6.4350    92.0130     4.8190     5.6440     6.6520     2.2450 
  202.7500    -6.4620    90.1450     4.8110     5.6360     6.0470     2.2090 
  202.8750    -6.5670    89.2780     4.6100     5.3640     4.7660     2.1450 
  203.0000    -6.6040    88.6320     4.2370     4.8910     3.9730     2.0530 
  203.1250    -6.5530    86.3750     3.7950     4.3640     3.5550     1.9590 
  203.2500    -6.5250    83.6560     3.3670     3.8930     3.3000     1.9010 
  203.3750    -6.6240    83.4360     3.0490     3.5590     3.2900     1.8950 
  203.5000    -6.8350    87.2320     2.8140     3.3200     3.5140     1.9390 
  203.6250    -7.1220    91.9140     2.6300     3.1160     3.7020     2.0050 
  203.7500    -7.4860    94.5340     2.4730     2.9300     3.5380     2.0640 
  203.8750    -7.6810    94.7700     2.3450     2.7740     3.3060     2.1070 
  204.0000    -7.3690    92.0740     2.2860     2.7090     3.3450     2.1390 
  204.1250    -6.6770    89.2470     2.3330     2.7780     3.4730     2.1700 
  204.2500    -5.8810    88.6520     2.5260     3.0300     3.7240     2.2000 
  204.3750    -5.4050    90.1940     2.8240     3.4210     4.1160     2.2220 
  204.5000    -5.5610    89.7940     3.1740     3.8730     4.5930     2.2320 
  204.6250    -6.1100    88.8800     3.4860     4.2610     5.1220     2.2350 
  204.7500    -6.8180    92.0490     3.6660     4.4700     5.1790     2.2370 
  204.8750    -7.4450    96.5950     3.7210     4.5160     4.9340     2.2420 
  205.0000    -7.6270    98.2600     3.6930     4.4690     5.0790     2.2490 
  205.1250    -7.3360    97.0300     3.6450     4.4190     5.3390     2.2540 
  205.2500    -6.9040    95.9630     3.6260     4.4050     5.2630     2.2530 
  205.3750    -6.5830    96.4510     3.6200     4.4140     5.2590     2.2490 
  205.5000    -6.3710    97.1770     3.6240     4.4130     5.3920     2.2420 
  205.6250    -6.3180    96.0450     3.6310     4.3960     5.3780     2.2340 
  205.7500    -6.4570    91.2690     3.7180     4.4560     5.5380     2.2290 
  205.8750    -6.6740    86.7430     3.9780     4.7390     5.8560     2.2330 
  206.0000    -6.9940    85.2230     4.4460     5.2920     6.2240     2.2510 
  206.1250    -7.3420    84.9110     5.0390     6.0200     7.6640     2.2820 
  206.2500    -7.6590    81.9720     5.6000     6.6990     9.9650     2.3170 
  206.3750    -7.9860    78.0480     5.9400     7.0510    10.3570     2.3390 
  206.5000    -8.3860    76.2550     5.9600     6.9680     8.7960     2.3380 
  206.6250    -8.7850    78.1930     5.6730     6.5170     7.5880     2.3180 
  206.7500    -9.1430    81.2620     5.1890     5.8540     6.8910     2.2900 
  206.8750    -9.4190    82.2570     4.7540     5.2980     6.6900     2.2680 
  207.0000    -9.2940    82.6830     4.4890     4.9680     6.7460     2.2570 
  207.1250    -8.6050    85.1810     4.4340     4.8850     6.3220     2.2530 
  207.2500    -7.5400    89.3610     4.4980     4.9420     6.2810     2.2510 
  207.3750    -6.4620    90.2120     4.6890     5.1650     6.8900     2.2490 
  207.5000    -5.8490    86.5900     5.0820     5.6200     7.1930     2.2430 
