~V
VERS. 2.00: Ver 2.00
~W
STRT.M 66.0000:
STOP.M 299.0000:
STEP.M 0.1250:
NULL. -999.2500:
UWI. F12016:
~C
DEPT.M :
SP.MV :
GR.API :
RI. :
RML.OHMM :
RXO.OHMM :
DEN.GM/CC :
~A
# ...
  181.8750    -8.2260    77.3360    18.7990    22.2310    25.5770     2.4820 
  182.0000    -8.0800    75.6050    18.5040    21.7900    24.5250     2.4890 
  182.1250    -8.1170    74.4530    17.3970    20.3190    21.9660     2.4870 
  182.2500    -8.0490    72.0410    15.7830    18.3090    19.6080     2.4800 
  182.3750    -7.5810    69.0450    14.3020    16.5700    17.9800     2.4740 
  182.5000    -6.7680    67.2440    13.0690    15.1660    16.5570     2.4670 
  182.6250    -5.9460    66.2990    12.1560    14.1540    15.4180     2.4580 
  182.7500    -5.5400    66.8440    11.3970    13.3420    13.9680     2.4480 
  182.8750    -5.7150    68.5440    10.7040    12.6000    13.0330     2.4360 
  183.0000    -6.2220    69.0680     9.7360    11.4710    13.5850     2.4240 
  183.1250    -6.7890    66.7330     8.5450    10.0590    13.8110     2.4090 
  183.2500    -7.2030    64.6460     7.1200     8.3220    11.7690     2.3870 
  183.3750    -7.1420    67.2320     5.8350     6.7920     8.6190     2.3570 
  183.5000    -6.6600    72.0710     4.9530     5.7630     6.0580     2.3260 
  183.6250    -6.1610    73.5970     4.3570     5.0920     5.1330     2.3050 
  183.7500    -5.7780    71.8250     4.0750     4.8240     5.3930     2.2970 
  183.8750    -5.4790    72.8520     3.9410     4.7240     5.5860     2.2970 
  184.0000    -5.4080    78.8390     3.8520     4.6440     5.3280     2.2950 
  184.1250    -5.5600    85.5840     3.7510     4.5310     4.9520     2.2880 
  184.2500    -5.8280    90.3700     3.6260     4.3780     4.8060     2.2760 
  184.3750    -6.1600    93.1480     3.5030     4.2340     4.6980     2.2630 
  184.5000    -6.4430    92.7560     3.4060     4.1380     4.5660     2.2540 
  184.6250    -6.6480    89.1100     3.3410     4.0700     4.4700     2.2480 
  184.7500    -6.9060    84.1390     3.2930     4.0240     4.5350     2.2460 
  184.8750    -7.1940    81.8890     3.2560     3.9970     4.6150     2.2470 
  185.0000    -7.5410    83.3980     3.2410     4.0060     4.4950     2.2490 
  185.1250    -7.9600    84.6890     3.2290     4.0300     4.4190     2.2520 
  185.2500    -8.2490    82.6820     3.2350     4.0790     4.6250     2.2570 
  185.3750    -8.2270    80.7000     3.2490     4.1230     4.8580     2.2590 
  185.5000    -7.7230    80.5200     3.2810     4.1940     4.8420     2.2560 
  185.6250    -6.9620    81.7690     3.3310     4.2720     4.9660     2.2470 
  185.7500    -6.2800    82.5200     3.3720     4.3280     5.3490     2.2380 
  185.8750    -6.0290    82.4210     3.4110     4.3700     5.5680     2.2340 
  186.0000    -6.3360    81.6070     3.4760     4.4450     5.6370     2.2360 
  186.1250    -6.9170    81.6960     3.5890     4.5900     5.5150     2.2440 
  186.2500    -7.5320    84.3160     3.7560     4.8190     5.4560     2.2550 
  186.3750    -7.9480    86.8600     3.9460     5.1040     5.9650     2.2690 
  186.5000    -7.7950    85.6310     4.1590     5.4040     6.5800     2.2820 
  186.6250    -7.2420    81.1460     4.2900     5.5760     6.7250     2.2900 
  186.7500    -6.7380    77.6570     4.2430     5.4800     6.3600     2.2900 
  186.8750    -6.3530    77.3360     4.0530     5.1870     5.7600     2.2810 
  187.0000    -6.0510    78.8500     3.8010     4.8240     5.2230     2.2620 
  187.1250    -5.8920    81.0990     3.6420     4.6010     4.5640     2.2360 
  187.2500    -5.9270    84.3300     3.6710     4.6570     4.1330     2.2090 
  187.3750    -6.0440    87.1190     3.9130     5.0090     4.6630     2.1910 
  187.5000    -6.2300    87.0550     4.2570     5.5000     5.7470     2.1850 
  187.6250    -6.4200    86.2150     4.5500     5.8940     6.7680     2.1770 
  187.7500    -6.5770    87.6130     4.6320     5.9760     6.7600     2.1420 
  187.8750    -6.7550    90.6430     4.4400     5.6680     5.4040     2.0720 
  188.0000    -7.0470    90.9130     4.1210     5.2210     4.4650     1.9860 
  188.1250    -7.3650    87.8480     3.8190     4.8220     4.5320     1.9270 
  188.2500    -7.7600    87.0770     3.6260     4.6080     4.6820     1.9280 
  188.3750    -8.0260    92.0880     3.5710     4.5810     4.7840     1.9820 
  188.5000    -7.8360    98.5440     3.5990     4.6520     4.8730     2.0570 
  188.6250    -7.2020   102.6980     3.6390     4.7140     5.2100     2.1200 
  188.7500    -6.4300   100.8290     3.6340     4.6930     5.7980     2.1470 
  188.8750    -5.7840    92.8180     3.5810     4.6090     5.5340     2.1330 
  189.0000    -5.5800    81.5150     3.5130     4.5040     4.3450     2.0800 
  189.1250    -5.8110    74.7480     3.4690     4.4280     3.5320     2.0120 
  189.2500    -6.1870    74.5190     3.4670     4.4260     3.5450     1.9630 
  189.3750    -6.5800    75.3710     3.5160     4.4960     3.9560     1.9540 
  189.5000    -6.7650    74.8070     3.5930     4.5930     4.4260     1.9880 
  189.6250    -6.5020    76.7380     3.6510     4.6690     4.8110     2.0430 
  189.7500    -6.0150    84.9530     3.6540     4.6630     5.0790     2.1030 
  189.8750    -5.6030    94.1270     3.5890     4.5690     5.1030     2.1560 
  190.0000    -5.3330    99.5430     3.4950     4.4490     4.9540     2.1950 
  190.1250    -5.1680   101.3630     3.4000     4.3380     4.9270     2.2190 
  190.2500    -5.2660   104.0570     3.3150     4.2400     4.9020     2.2290 
  190.3750    -5.4970   107.2670     3.2580     4.1780     4.7620     2.2320 
  190.5000    -5.7590   107.8380     3.2510     4.1830     4.6850     2.2360 
  190.6250    -6.0490   105.9020     3.3120     4.2810     4.6550     2.2450 
  190.7500    -6.3410   102.5110     3.4400     4.4640     4.7560     2.2590 
  190.8750    -6.5370    97.8610     3.5830     4.6660     5.0210     2.2700 
  191.0000    -6.7730    92.9530     3.7060     4.8070     5.1970     2.2730 
  191.1250    -7.0620    89.7370     3.7810     4.8870     5.1050     2.2670 
  191.2500    -7.3860    90.7170     3.8220     4.9180     4.8850     2.2540 
  191.3750    -7.7370    93.5850     3.8470     4.9340     4.9710     2.2400 
  191.5000    -7.8310    95.8550     3.8550     4.9340     5.2600     2.2310 
  191.6250    -7.4960    95.8030     3.8510     4.9040     5.3290     2.2280 
  191.7500    -6.7560    92.5020     3.8260     4.8510     5.2240     2.2310 
  191.8750    -5.9830    89.2230     3.7900     4.8020     5.0920     2.2370 
  192.0000    -5.4880    89.4700     3.7530     4.7620     5.0040     2.2400 
  192.1250    -5.5080    93.1330     3.7200     4.7380     5.1230     2.2400 
  192.2500    -5.9430    97.4410     3.6930     4.7200     5.4940     2.2360 
  192.3750    -6.4980   100.5620     3.6700     4.6910     5.5770     2.2350 
  192.5000    -6.9920   100.8860     3.6220     4.6140     5.1680     2.2360 
  192.6250    -7.0940    97.7910     3.5520     4.5010     4.9000     2.2390 
  192.7500    -6.6970    94.4160     3.4860     4.4060     4.8720     2.2400 
  192.8750    -6.1480    93.8120     3.4520     4.3670     4.8030     2.2360 
  193.0000    -5.7370    94.4190     3.4600     4.4080     4.8360     2.2290 
  193.1250    -5.3810    94.6560     3.4910     4.4740     4.9810     2.2230 
  193.2500    -5.2080    97.6950     3.5090     4.5180     4.9980     2.2200 
  193.3750    -5.2650   103.4510     3.5150     4.5360     4.9470     2.2230 
  193.5000    -5.4650   105.7270     3.5050     4.5230     4.9270     2.2260 
  193.6250    -5.7260   103.4120     3.4890     4.4940     4.8450     2.2280 
  193.7500    -5.9940   101.9400     3.4780     4.4800     4.7120     2.2280 
  193.8750    -6.1460   103.2500     3.4780     4.4830     4.7310     2.2280 
  194.0000    -6.3530   103.9500     3.4870     4.5010     4.9670     2.2290 
  194.1250    -6.6640   101.2580     3.4920     4.5200     5.2020     2.2340 
  194.2500    -7.0490    98.5660     3.4850     4.5020     5.4150     2.2440 
  194.3750    -7.4440    96.9580     3.4670     4.4660     5.6690     2.2580 
  194.5000    -7.8120    95.9510     3.4530     4.4410     5.6760     2.2760 
  194.6250    -7.8680    94.8880     3.4710     4.4480     5.4390     2.2900 
