~V
VERS. 2.00: Ver 2.00
~W
STRT.M 66.0000:
STOP.M 299.0000:
STEP.M 0.1250:
NULL. -999.2500:
UWI. F12016:
~C
DEPT.M :
SP.MV :
GR.API :
RI. :
RML.OHMM :
RXO.OHMM :
DEN.GM/CC :
~A
# ...
  104.6250   -15.0510    70.9790     5.6930     6.6170     7.2390     2.1120 
  104.7500   -14.6270    67.8820     6.0300     6.9720     7.4000     2.1290 
  104.8750   -14.0680    64.2270     6.9940     8.1230     8.4850     2.1660 
  105.0000   -13.6490    64.8840     8.8400    10.4590    24.7490     2.2350 
  105.1250   -13.2770    67.0390    11.7060    14.1570    53.3930     2.3290 
  105.2500   -13.1300    66.5520    14.3610    17.3660    63.9840     2.4250 
  105.3750   -13.2230    64.1940    15.4060    18.4750    51.4760     2.4890 
  105.5000   -13.4870    62.4010    14.0340    16.5370    29.2690     2.4910 
  105.6250   -13.8360    61.7390    11.1250    12.7860    12.0410     2.4350 
  105.7500   -14.1880    64.3480     8.2600     9.4190     7.0260     2.3370 
  105.8750   -14.4560    67.1990     6.5800     7.5460     6.7400     2.2340 
  106.0000   -14.6900    68.0830     5.9880     6.9890     6.7130     2.1540 
  106.1250   -14.9540    66.7110     5.8440     6.9450     6.6920     2.1060 
  106.2500   -15.1850    64.7880     5.8980     7.0840     6.7390     2.0870 
  106.3750   -15.4150    63.9550     5.9940     7.2290     6.9910     2.0820 
  106.5000   -15.7250    64.8880     6.0640     7.2930     7.3700     2.0840 
  106.6250   -16.0050    66.1460     6.1020     7.3180     7.5630     2.0870 
  106.7500   -15.8960    65.1970     6.1130     7.3080     7.4250     2.0900 
  106.8750   -15.4180    64.1390     6.0960     7.2720     7.2080     2.0920 
  107.0000   -14.7730    65.4420     6.0590     7.2120     7.2080     2.0920 
  107.1250   -14.2780    66.9610     6.0110     7.1330     7.4820     2.0890 
  107.2500   -14.2760    64.9230     5.9580     7.0680     7.8230     2.0850 
  107.3750   -14.7080    62.7540     5.9060     7.0140     8.0210     2.0810 
  107.5000   -15.3490    64.9400     5.8550     6.9900     8.1810     2.0780 
  107.6250   -15.9660    69.4870     5.8200     6.9850     8.1330     2.0760 
  107.7500   -16.3490    72.8310     5.7940     6.9790     7.6140     2.0750 
  107.8750   -16.2640    73.4720     5.7810     6.9820     7.1550     2.0750 
  108.0000   -15.8790    70.9060     5.7810     6.9960     6.9030     2.0760 
  108.1250   -15.5040    66.4600     5.7850     7.0130     6.6450     2.0760 
  108.2500   -15.1970    64.9680     5.7830     7.0150     6.7330     2.0770 
  108.3750   -14.9410    67.5880     5.7780     7.0110     6.9760     2.0800 
  108.5000   -14.8880    71.7040     5.7870     7.0030     7.0170     2.0850 
  108.6250   -14.9400    74.3250     5.8140     7.0350     7.0410     2.0890 
  108.7500   -15.0590    74.7270     5.8650     7.1180     7.0470     2.0930 
  108.8750   -15.2590    73.4730     5.9170     7.2000     6.9730     2.0960 
  109.0000   -15.3860    72.3180     5.9570     7.2780     6.9700     2.0960 
  109.1250   -15.4990    72.6780     5.9820     7.3170     7.0030     2.0930 
  109.2500   -15.6330    71.9310     5.9760     7.3100     7.0920     2.0880 
  109.3750   -15.8680    70.3050     5.9440     7.2810     7.3060     2.0830 
  109.5000   -16.1580    68.5200     5.9000     7.2440     7.4470     2.0820 
  109.6250   -16.4750    68.1110     5.8620     7.2160     7.4230     2.0850 
  109.7500   -16.6710    70.2200     5.8490     7.2030     7.3310     2.0890 
  109.8750   -16.4980    74.0640     5.8540     7.2140     7.2930     2.0920 
  110.0000   -15.8690    77.7740     5.8730     7.2360     7.3660     2.0940 
  110.1250   -15.0130    79.0480     5.9060     7.2800     7.4470     2.0950 
  110.2500   -14.2460    79.0400     5.9510     7.3390     7.4260     2.0950 
  110.3750   -13.9680    78.6150     5.9990     7.3910     7.4810     2.0960 
  110.5000   -14.2880    76.9280     6.0310     7.4160     7.9230     2.0980 
  110.6250   -14.8690    73.4850     6.0420     7.4170     8.0940     2.0990 
  110.7500   -15.4560    72.1010     6.0340     7.3860     7.4270     2.0970 
  110.8750   -15.8150    73.8300     6.0150     7.3540     6.8420     2.0950 
  111.0000   -15.7130    77.7220     5.9870     7.3140     6.7630     2.0940 
  111.1250   -15.2590    79.9870     5.9610     7.2730     6.9300     2.0940 
  111.2500   -14.8550    79.0830     5.9360     7.2390     7.4220     2.0950 
  111.3750   -14.6310    76.9600     5.9070     7.2000     7.8500     2.0970 
  111.5000   -14.4260    75.7350     5.8930     7.1560     7.9200     2.0980 
  111.6250   -14.3560    76.5730     5.8880     7.1290     7.9850     2.0990 
  111.7500   -14.4510    77.2460     5.8990     7.1110     7.9630     2.1000 
  111.8750   -14.6950    76.8770     5.9290     7.1210     7.5120     2.1010 
  112.0000   -15.0320    77.7600     5.9730     7.1410     6.9110     2.1000 
  112.1250   -15.3790    79.7180     6.0140     7.1610     6.7620     2.1000 
  112.2500   -15.6550    81.9580     6.0570     7.1600     6.8840     2.1000 
  112.3750   -15.8670    82.7070     6.0860     7.1470     6.8280     2.1000 
  112.5000   -16.0760    80.3010     6.0930     7.0960     6.8960     2.0990 
  112.6250   -16.2570    77.0870     6.0670     6.9840     7.2170     2.0980 
  112.7500   -16.4480    76.4610     6.0110     6.8460     7.2040     2.1010 
  112.8750   -16.6870    80.1860     5.9570     6.7040     6.7170     2.1070 
  113.0000   -16.6940    86.7600     5.9570     6.6520     6.5390     2.1170 
  113.1250   -16.3340    92.9260     6.0530     6.7350     6.7620     2.1280 
  113.2500   -15.6980    96.2540     6.2320     6.9220     6.9880     2.1360 
  113.3750   -15.0480    95.1780     6.4510     7.1670     7.4140     2.1370 
  113.5000   -14.7920    90.9250     6.6590     7.3670     7.8030     2.1310 
  113.6250   -15.0070    85.5670     6.7850     7.4440     7.5420     2.1220 
  113.7500   -15.6070    80.3940     6.8030     7.3810     6.9570     2.1170 
  113.8750   -16.3600    78.0570     6.7160     7.1930     6.8450     2.1160 
  114.0000   -16.9960    78.6990     6.6050     6.9860     7.0690     2.1180 
  114.1250   -17.1700    80.0520     6.5470     6.8460     7.5080     2.1210 
  114.2500   -16.7750    80.3470     6.8770     7.1390     7.8250     2.1260 
  114.3750   -16.2030    80.1870     7.8420     8.1730     8.1540     2.1390 
  114.5000   -15.7220    79.7430     9.5690    10.1110    11.8270     2.1720 
  114.6250   -15.2810    78.3140    11.7020    12.4190    13.4740     2.2270 
  114.7500   -14.9360    76.3240    13.2510    13.8320    14.1380     2.2920 
  114.8750   -14.8830    73.8590    13.7300    13.9170    13.3810     2.3410 
  115.0000   -15.0120    71.4320    12.5350    12.2350    11.5810     2.3440 
  115.1250   -15.1950    69.0850    10.5590     9.9680    10.8860     2.2990 
  115.2500   -15.4610    67.2600     8.5320     7.9700    10.1970     2.2250 
  115.3750   -15.7410    66.7300     7.1830     6.7690     9.8860     2.1510 
  115.5000   -16.0560    67.4660     6.7200     6.4370     9.6180     2.0930 
  115.6250   -16.4320    68.7180     7.2500     7.0490    11.5540     2.0560 
  115.7500   -16.7780    71.7090     9.4100     9.3030    13.2000     2.0540 
  115.8750   -17.0930    78.1690    13.1260    13.0950    14.3340     2.1010 
  116.0000   -17.3220    89.1830    21.0970    21.8140    76.4070     2.2020 
  116.1250   -17.2720   103.2000    36.2340    38.2130   116.9640     2.3320 
  116.2500   -16.7360   119.4700    52.3600    54.7600   124.6760     2.4520 
  116.3750   -15.8270   132.7050    63.3170    65.4280   123.1220     2.5350 
  116.5000   -14.8860   137.0020    66.3360    67.3700   111.2670     2.5730 
  116.6250   -14.2300   134.7770    60.9470    60.8690    88.6880     2.5830 
  116.7500   -14.1820   130.8450    57.0570    57.2480    74.1230     2.5810 
  116.8750   -14.6260   127.1460    56.8640    57.9890    73.0060     2.5800 
  117.0000   -15.2820   125.0750    58.8970    61.3350    83.7300     2.5860 
  117.1250   -15.9690   125.8040    59.0080    61.5180   113.9600     2.5940 
  117.2500   -16.3070   129.0740    49.9830    51.8210   151.5870     2.5910 
  117.3750   -16.2700   131.8920    36.5740    37.3930   138.3560     2.5650 
