~V
VERS. 2.00: Ver 2.00
~W
STRT.M 60.0000:
STOP.M 291.0000:
STEP.M 0.1250:
NULL. -999.2500:
UWI. F12014:
~C
DEPT.M :
SP.MV :
GR.API :
RI. :
RML.OHMM :
RXO.OHMM :
DEN.GM/CC :
~A
# ...
  150.1250   -19.1840    68.8410     7.9650     9.0560     6.8620     2.1450 
  150.2500   -16.7160    68.8930     7.9840     9.1300     7.1210     2.1440 
  150.3750   -13.1720    69.4920     8.0190     9.2410     7.5530     2.1320 
  150.5000    -8.5710    68.5260     8.0830     9.3820     7.8760     2.1210 
  150.6250    -5.1000    66.6510     8.1780     9.5290     7.9840     2.1130 
  150.7500    -4.5350    65.1790     8.3010     9.6640     7.9390     2.1080 
  150.8750    -4.7410    64.8720     8.4070     9.7520     7.8110     2.1020 
  151.0000    -4.9130    65.8500     8.4700     9.7640     7.6780     2.1040 
  151.1250    -5.1300    67.6070     8.4770     9.7170     7.6310     2.1170 
  151.2500    -5.4850    70.5880     8.4620     9.6660     7.7140     2.1360 
  151.3750    -5.8020    73.4310     8.4710     9.6940     7.8460     2.1520 
  151.5000    -5.9270    74.3920     8.5250     9.8170     7.9420     2.1580 
  151.6250    -5.8170    73.8780     8.6280    10.0190     8.0100     2.1600 
  151.7500    -5.5350    73.4070     8.7770    10.2580     7.9760     2.1650 
  151.8750    -5.4510    73.3170     8.9040    10.4310     7.6740     2.1760 
  152.0000    -5.3630    73.5160     8.9540    10.4920     7.1190     2.1820 
  152.1250    -5.1450    72.3190     8.9110    10.4210     6.7230     2.1740 
  152.2500    -4.8360    71.0820     8.7530    10.2080     6.8310     2.1590 
  152.3750    -4.5730    69.1010     8.5390     9.9130     7.2120     2.1490 
  152.5000    -4.4550    67.9660     8.3140     9.6280     7.3740     2.1480 
  152.6250    -4.3750    65.6340     8.1750     9.4720     7.1180     2.1430 
  152.7500    -4.2680    64.2530     8.1440     9.4640     6.7440     2.1290 
  152.8750    -4.2760    64.0960     8.1950     9.5670     6.6720     2.1160 
  153.0000    -4.4660    64.9280     8.2950     9.7030     6.8910     2.1130 
  153.1250    -5.0230    65.7490     8.3740     9.7710     6.9800     2.1180 
  153.2500    -5.4240    66.0610     8.4060     9.7520     6.8420     2.1290 
  153.3750    -5.7020    67.1460     8.3960     9.6720     6.8680     2.1430 
  153.5000    -5.8360    68.3280     8.3660     9.5660     7.1330     2.1500 
  153.6250    -5.7250    68.6720     8.3680     9.4920     7.2700     2.1460 
  153.7500    -5.4660    68.9630     8.4360     9.5000     7.3110     2.1400 
  153.8750    -5.1830    69.8270     8.5880     9.6100     7.6770     2.1350 
  154.0000    -4.8550    71.2350     8.8120     9.8350     8.2910     2.1360 
  154.1250    -4.4430    71.5730     9.0700    10.1360     8.7290     2.1350 
  154.2500    -4.0350    70.5240     9.1770    10.2650     9.0530     2.1370 
  154.3750    -3.6040    69.0990     8.9610    10.0090     9.4680     2.1480 
  154.5000    -3.1920    68.3870     8.2660     9.1890     9.5270     2.1740 
  154.6250    -3.1160    68.3820     7.2330     7.9940     8.6640     2.2120 
  154.7500    -3.6920    72.2970     6.2020     6.8160     7.1030     2.2510 
  154.8750    -4.6340    78.1160     5.3930     5.9320     5.8330     2.2720 
  155.0000    -5.7710    84.2240     5.0230     5.5990     5.5410     2.2680 
  155.1250    -6.8390    82.4400     5.0500     5.7690     6.0050     2.2450 
  155.2500    -7.5560    77.8710     5.3660     6.2880     6.6700     2.2130 
  155.3750    -7.8540    73.6320     5.8560     6.9830     7.2110     2.1910 
  155.5000    -8.0860    75.3600     6.3530     7.5550     7.5950     2.1830 
  155.6250    -8.4720    76.8630     6.6430     7.7680     7.9460     2.1880 
  155.7500    -8.6170    76.8350     6.8790     7.8650     8.3660     2.1960 
  155.8750    -8.4790    73.2160     7.4750     8.4580     8.8620     2.2260 
  156.0000    -8.3800    69.6170     8.8510    10.1030    11.3270     2.3000 
  156.1250    -8.2890    67.3950    10.9710    12.6900    20.5420     2.4130 
  156.2500    -8.0900    68.4320    13.2020    15.4200    35.4690     2.5110 
  156.3750    -7.9830    69.3030    14.4470    16.8610    43.2110     2.5300 
  156.5000    -7.9300    68.9830    13.7590    15.9030    34.8370     2.4400 
  156.6250    -7.6780    68.5680    11.9110    13.5820    19.4930     2.2980 
  156.7500    -7.3730    68.6740     9.7060    10.9000    10.2200     2.1870 
  156.8750    -7.0980    70.1470     8.2000     9.2610     7.9590     2.1440 
  157.0000    -6.9230    71.6830     7.7020     8.9240     7.7410     2.1530 
  157.1250    -6.7630    72.6140     7.7630     9.2250     7.4970     2.1660 
  157.2500    -6.5340    70.9330     8.0420     9.7070     7.2730     2.1650 
  157.3750    -6.0840    68.2560     8.3210    10.0710     7.2920     2.1560 
  157.5000    -5.4500    67.1770     8.5010    10.2380     7.4950     2.1490 
  157.6250    -4.8630    68.0950     8.5810    10.2470     7.7620     2.1500 
  157.7500    -4.3940    69.9890     8.5690    10.1390     8.1150     2.1490 
  157.8750    -4.0310    70.5050     8.5170     9.9960     8.4360     2.1480 
  158.0000    -3.8670    70.4500     8.4850     9.9000     8.5660     2.1470 
  158.1250    -4.0010    70.7540     8.4790     9.8610     8.6800     2.1470 
  158.2500    -4.3590    71.9900     8.4890     9.8680     9.0700     2.1430 
  158.3750    -4.7030    71.8310     8.4880     9.8730     9.4190     2.1380 
  158.5000    -4.9090    70.4000     8.4520     9.8430     9.2500     2.1390 
  158.6250    -5.3280    67.8970     8.3820     9.7510     8.7120     2.1450 
  158.7500    -6.0720    65.9470     8.2890     9.6140     8.1920     2.1550 
  158.8750    -7.0520    66.0990     8.2370     9.5300     7.8840     2.1680 
  159.0000    -7.6670    68.1530     8.2980     9.5840     7.8910     2.1960 
  159.1250    -7.9300    70.9470     8.4670     9.7800     8.2360     2.2440 
  159.2500    -7.9830    72.7980     8.7000    10.0550     8.7170     2.2870 
  159.3750    -7.8840    72.8250     8.9480    10.3590     9.0560     2.2900 
  159.5000    -7.4870    72.4980     9.2420    10.7360     9.2670     2.2560 
  159.6250    -6.9530    71.9460     9.3730    10.9130     9.6920     2.2320 
  159.7500    -6.3540    74.2520     9.1240    10.6330    10.5890     2.2430 
  159.8750    -5.7550    77.4670     8.5320     9.9270    11.2780     2.2630 
  160.0000    -5.2370    81.7990     7.6880     8.9200    10.6060     2.2740 
  160.1250    -4.9390    84.9210     6.8700     7.9460     8.8800     2.2730 
  160.2500    -5.0040    87.0850     6.2450     7.2220     7.5900     2.2750 
  160.3750    -5.3430    86.9220     5.8070     6.7480     7.4600     2.2840 
  160.5000    -5.6710    85.6200     5.6520     6.6320     7.7900     2.3030 
  160.6250    -5.7550    82.8970     5.7630     6.8160     7.7580     2.3150 
  160.7500    -5.8620    80.7980     5.9960     7.1130     7.4530     2.3010 
  160.8750    -6.1900    79.2120     6.2720     7.4240     7.3610     2.2700 
  161.0000    -6.7240    77.4450     6.5430     7.7090     7.5800     2.2370 
  161.1250    -7.3190    74.9920     6.7960     7.9640     7.7410     2.2190 
  161.2500    -8.0290    72.6530     7.0410     8.2010     7.7920     2.2070 
  161.3750    -8.6010    70.6840     7.2710     8.4300     8.0410     2.2030 
  161.5000    -8.9480    69.5160     7.5440     8.7470     8.6330     2.1960 
  161.6250    -8.9980    68.6480     7.8600     9.1140     9.2880     2.1870 
  161.7500    -9.0860    68.7070     8.0910     9.3850     9.6630     2.1810 
  161.8750    -9.2270    69.9440     8.1210     9.3870     9.6700     2.1880 
  162.0000    -9.3450    72.9480     7.9160     9.0900     9.2960     2.2000 
  162.1250    -9.2650    76.0130     7.5820     8.6530     8.8240     2.1950 
  162.2500    -8.8410    76.1960     7.2690     8.2580     8.5600     2.1700 
  162.3750    -8.2650    73.3190     7.0590     8.0220     8.4970     2.1410 
  162.5000    -8.1850    68.2620     7.0240     8.0100     8.4510     2.1300 
  162.6250    -8.5860    66.2190     7.0960     8.1260     8.3450     2.1340 
  162.7500    -9.0740    66.1230     7.2480     8.3090     8.2930     2.1440 
  162.8750    -9.4560    68.2520     7.4040     8.4730     8.3210     2.1500 
