~V
VERS. 2.00: Ver 2.00
~W
STRT.M 60.0000:
STOP.M 291.0000:
STEP.M 0.1250:
NULL. -999.2500:
UWI. F12014:
~C
DEPT.M :
SP.MV :
GR.API :
RI. :
RML.OHMM :
RXO.OHMM :
DEN.GM/CC :
~A
# ...
   85.7500    -6.8200    88.3140     5.5490     7.5800     6.0970     2.1660 
   85.8750    -5.8320    86.8260     5.5230     7.4010     5.5120     2.1730 
   86.0000    -5.2560    88.6450     5.2220     6.7960     5.0620     2.1930 
   86.1250    -5.1760    90.6850     4.8150     6.0700     4.8370     2.2060 
   86.2500    -5.5580    93.1480     4.5260     5.5860     4.8510     2.2080 
   86.3750    -6.3050    94.6020     4.4350     5.4150     5.0030     2.2110 
   86.5000    -7.1870    95.7730     4.6700     5.7090     5.2170     2.2300 
   86.6250    -7.6480    97.0880     5.0070     6.1280     5.5220     2.2610 
   86.7500    -7.5600    97.4460     5.2900     6.4680     5.8260     2.2820 
   86.8750    -6.6640    96.6980     5.3840     6.5340     5.8140     2.2800 
   87.0000    -5.5080    96.2230     5.1690     6.1920     5.4160     2.2560 
   87.1250    -4.8410    97.5630     4.8630     5.7640     5.0800     2.2330 
   87.2500    -4.7760    99.5720     4.6050     5.4280     5.1240     2.2190 
   87.3750    -4.7410    99.9660     4.5140     5.3440     5.2750     2.2010 
   87.5000    -4.0590    98.5980     4.8130     5.7680     5.3400     2.1720 
   87.6250    -3.0020    95.1070     5.3020     6.4120     5.4610     2.1410 
   87.7500    -2.4530    87.5530     5.8170     7.0460     5.6970     2.1310 
   87.8750    -2.8420    78.8400     6.1760     7.4330     5.9100     2.1450 
   88.0000    -4.1610    73.6230     6.2370     7.4060     5.9100     2.1800 
   88.1250    -5.8400    74.2890     6.1110     7.1340     5.7240     2.2100 
   88.2500    -6.6830    78.7490     5.9250     6.8200     5.5720     2.2130 
   88.3750    -6.0840    83.1510     5.8810     6.7410     5.6700     2.1880 
   88.5000    -4.4820    84.5040     6.1030     7.0410     5.9280     2.1460 
   88.6250    -2.5670    84.3750     6.5070     7.5870     6.0160     2.1070 
   88.7500    -1.3420    82.6760     6.9520     8.1680     5.8720     2.0850 
   88.8750    -1.4000    80.8350     7.2900     8.5700     5.7260     2.0870 
   89.0000    -2.0670    77.8420     7.3800     8.6010     5.7940     2.1150 
   89.1250    -3.0090    75.4400     7.2950     8.3850     6.1010     2.1510 
   89.2500    -4.0090    75.7890     7.1560     8.1220     6.4890     2.1730 
   89.3750    -4.4900    78.8610     7.1220     8.0270     6.6940     2.1750 
   89.5000    -3.7490    82.1920     7.3200     8.2860     6.6030     2.1730 
   89.6250    -2.4830    81.8740     7.7440     8.8510     6.4770     2.1880 
   89.7500    -1.3040    79.9000     8.1690     9.3740     6.7510     2.2300 
   89.8750    -0.4840    76.2700     8.2170     9.3870     7.5370     2.2710 
   90.0000    -0.3700    76.0510     7.8760     8.8660     8.1550     2.2880 
   90.1250    -0.6060    77.9120     7.1350     7.8590     7.7830     2.2760 
   90.2500    -0.8120    84.5300     6.1790     6.6920     6.6590     2.2650 
   90.3750    -1.0260    92.3740     5.3480     5.7630     5.7830     2.2680 
   90.5000    -1.4340    99.7550     4.6900     5.0900     5.4490     2.2850 
   90.6250    -1.8800   103.0760     4.2640     4.6810     5.2380     2.2930 
   90.7500    -2.2620   102.8900     4.0610     4.4460     5.0060     2.2880 
   90.8750    -2.8640   101.8880     3.9450     4.2520     4.8300     2.2740 
   91.0000    -4.0200   102.4050     4.0280     4.2660     4.8040     2.2770 
   91.1250    -5.5730   102.6940     4.7800     5.0980     5.2700     2.3220 
   91.2500    -7.0950    98.6090     6.4350     7.0280     8.5990     2.4170 
   91.3750    -7.9990    90.3220     9.3330    10.4190    19.2270     2.5170 
   91.5000    -8.2580    79.6190    12.7290    14.3690    38.3630     2.5490 
   91.6250    -8.1130    70.2680    14.8540    16.7130    53.2920     2.4830 
   91.7500    -7.7590    64.9380    14.7220    16.3030    48.6110     2.3420 
   91.8750    -7.2280    63.4080    12.5430    13.5570    29.6830     2.2120 
   92.0000    -6.8620    63.9030     9.6370    10.1380    13.1850     2.1400 
   92.1250    -6.8160    65.6550     7.5600     7.9290     6.8680     2.1180 
   92.2500    -7.1710    68.9100     6.6880     7.2500     6.3670     2.1210 
   92.3750    -7.7550    71.4060     6.5160     7.3400     6.5180     2.1270 
   92.5000    -8.3000    71.5080     6.6880     7.7200     6.6890     2.1320 
   92.6250    -8.6320    69.3510     6.8640     7.9860     6.8210     2.1330 
   92.7500    -8.8460    67.5050     6.9720     8.1020     7.0390     2.1310 
   92.8750    -8.7310    66.5710     7.0390     8.1330     7.4100     2.1320 
   93.0000    -8.6890    66.1520     7.0900     8.1060     7.8150     2.1420 
   93.1250    -8.4950    65.4380     7.1400     8.0880     7.9630     2.1530 
   93.2500    -8.3770    65.5500     7.2260     8.0660     7.5850     2.1530 
   93.3750    -8.3800    66.3170     7.3560     8.0650     6.8690     2.1410 
   93.5000    -8.5100    68.7740     7.4990     8.1730     6.2650     2.1270 
   93.6250    -8.8080    69.2410     7.6040     8.3340     6.0650     2.1190 
   93.7500    -8.8760    69.7010     7.5650     8.4290     6.2540     2.1280 
   93.8750    -8.6700    69.0420     7.2510     8.2110     6.5670     2.1490 
   94.0000    -8.4030    71.8390     6.7600     7.6970     6.7470     2.1860 
   94.1250    -7.9150    76.1720     6.1270     6.9710     6.6200     2.2220 
   94.2500    -7.3500    85.2000     5.4800     6.2310     6.3530     2.2470 
   94.3750    -7.1900    93.6120     4.9910     5.6930     6.2700     2.2550 
   94.5000    -7.9000    98.0560     4.6400     5.3460     6.2730     2.2540 
   94.6250    -9.4640    98.2500     4.5280     5.2820     6.1390     2.2430 
   94.7500   -11.3600    96.2480     4.6230     5.4630     6.0380     2.2190 
   94.8750   -13.6980    92.7560     4.8890     5.8340     6.1870     2.1860 
   95.0000   -15.9300    88.3630     5.2170     6.2600     6.3390     2.1660 
   95.1250   -17.3830    84.0210     5.5500     6.6820     6.2440     2.1650 
   95.2500   -17.9130    82.5690     5.7940     6.9670     6.0290     2.1750 
   95.3750   -18.0700    81.6940     5.9390     7.1120     5.8940     2.1810 
   95.5000   -18.0240    80.5130     6.0080     7.1540     5.9080     2.1700 
   95.6250   -17.7870    78.9640     6.0400     7.1550     6.0470     2.1530 
   95.7500   -17.4440    78.4730     6.0980     7.2190     6.2260     2.1350 
   95.8750   -16.8260    78.6680     6.2410     7.4160     6.4170     2.1260 
   96.0000   -16.1280    78.6310     6.4600     7.7470     7.6380     2.1260 
   96.1250   -15.2540    79.5660     6.6950     8.0930    10.1930     2.1300 
   96.2500   -14.0720    81.3390     6.7370     8.1570    12.0680     2.1410 
   96.3750   -12.9040    84.0580     6.5600     7.9180    11.3850     2.1630 
   96.5000   -12.5080    85.2000     6.2290     7.4680     8.6710     2.1910 
   96.6250   -12.7290    85.6450     5.8760     7.0050     6.4730     2.2040 
   96.7500   -13.5410    84.9460     5.6710     6.7690     5.8900     2.1950 
   96.8750   -14.3230    83.5090     5.6300     6.7720     6.2520     2.1820 
   97.0000   -14.4230    81.7730     5.6930     6.9020     6.7920     2.1840 
   97.1250   -13.9120    82.3110     5.6870     6.9050     6.8510     2.1940 
   97.2500   -13.0190    86.5510     5.5580     6.7180     6.4480     2.2080 
   97.3750   -11.7910    91.0820     5.2430     6.2780     5.9880     2.2180 
   97.5000   -10.2340    94.3510     4.8090     5.7150     5.6350     2.2360 
   97.6250    -9.1510    95.0020     4.4450     5.2560     5.4140     2.2540 
   97.7500    -9.0520    95.6310     4.1760     4.9300     5.3750     2.2700 
   97.8750    -9.6850    95.6550     4.0800     4.8350     5.4620     2.2680 
   98.0000   -10.6310    96.0480     4.1650     4.9720     5.6380     2.2480 
   98.1250   -11.6990    94.9720     4.3850     5.2860     5.8920     2.2140 
   98.2500   -13.0110    91.5790     4.7350     5.7590     6.2160     2.1860 
   98.3750   -14.0640    88.0840     5.1670     6.3050     6.5070     2.1650 
   98.5000   -15.2050    86.2420     5.5380     6.7450     6.6940     2.1510 
