~V
VERS. 2.00: Ver 2.00
~W
STRT.M 60.0000:
STOP.M 291.0000:
STEP.M 0.1250:
NULL. -999.2500:
UWI. F12014:
~C
DEPT.M :
SP.MV :
GR.API :
RI. :
RML.OHMM :
RXO.OHMM :
DEN.GM/CC :
~A
# ...
  266.0000   -12.5920    66.9130    42.7390    47.4550    59.8810     2.2100 
  266.1250   -12.5840    63.6030    47.8030    52.9220    58.9110     2.1840 
  266.2500   -12.5150    62.3970    50.3060    55.4000    58.0170     2.1690 
  266.3750   -12.3780    60.4860    50.5450    55.4570    58.6660     2.1610 
  266.5000   -12.1800    58.7550    49.6110    54.4920    58.9140     2.1600 
  266.6250   -12.0800    56.7580    48.7780    53.7260    58.7550     2.1610 
  266.7500   -11.9580    57.0990    48.1320    53.1060    58.8680     2.1690 
  266.8750   -11.8590    57.8960    47.4150    52.3220    58.3550     2.1730 
  267.0000   -11.8250    59.0080    46.5950    51.2830    55.7130     2.1780 
  267.1250   -11.8900    59.1830    45.8640    50.2390    51.8860     2.1730 
  267.2500   -12.0460    59.3780    45.4610    49.5560    48.8310     2.1610 
  267.3750   -12.1640    60.2290    45.5590    49.4980    46.6530     2.1510 
  267.5000   -12.0770    61.1340    46.0120    49.9160    44.7060     2.1510 
  267.6250   -11.9660    62.5720    46.0550    49.7120    43.7000     2.1630 
  267.7500   -11.8590    62.1830    43.9910    47.0070    44.0030     2.1720 
  267.8750   -11.7140    62.3900    40.3610    42.6990    42.8190     2.1780 
  268.0000   -11.6040    61.5750    35.5690    37.2780    37.3910     2.1820 
  268.1250   -11.4930    61.8310    30.9010    32.3950    30.2660     2.1920 
  268.2500   -11.4590    62.2740    27.8130    29.3130    25.6910     2.2050 
  268.3750   -11.4170    63.7100    25.6060    27.1800    24.0860     2.2160 
  268.5000   -11.3250    65.5610    24.9190    26.6410    23.5980     2.2210 
  268.6250   -11.0890    67.7820    25.8620    27.8580    23.2350     2.2300 
  268.7500   -10.8290    70.2020    28.6310    31.2660    25.4400     2.2610 
  268.8750   -10.5470    72.1210    33.0450    36.5880    34.7610     2.3270 
  269.0000   -10.3410    72.2730    38.4740    42.9590    53.3670     2.4230 
  269.1250   -10.3030    69.4660    43.3620    48.3860    71.0090     2.5020 
  269.2500   -10.3370    66.3290    46.6330    51.4080    72.0020     2.5110 
  269.3750   -10.3480    64.7610    47.7490    51.8610    56.8280     2.4420 
  269.5000   -10.3710    65.3090    47.6760    51.4040    40.2150     2.3450 
  269.6250   -10.2800    65.7150    49.8960    54.3720    35.3170     2.2690 
  269.7500   -10.0740    63.6500    57.9670    66.2040    71.2980     2.2560 
  269.8750    -9.6080    60.1100    72.2330    84.7140   172.1660     2.3120 
  270.0000    -8.6170    55.9700    73.1570    84.9270   295.4190     2.4350 
  270.1250    -7.3040    54.2070    61.6870    71.4130   336.6330     2.5720 
  270.2500    -5.9650    55.9340    40.3840    44.6240   248.2030     2.6490 
  270.3750    -4.7870    60.0740    17.6080    19.3650   120.7500     2.6350 
  270.5000    -3.6570    64.1060     9.6010    10.6410    42.7410     2.5560 
  270.6250    -2.6430    66.7160     6.1150     6.8760    15.4060     2.4740 
  270.7500    -1.8190    66.1730     4.5780     5.3060     9.6160     2.4090 
  270.8750    -1.4220    63.5300     3.8990     4.7310     6.3100     2.3440 
  271.0000    -1.4070    57.0150     3.8200     4.7720     4.6420     2.2750 
  271.1250    -1.4780    50.2930     3.9390     4.9640     4.5890     2.2270 
  271.2500    -1.6060    45.4460     4.1200     5.1660     4.8860     2.2120 
  271.3750    -2.0770    44.2970     4.3970     5.4550     5.0350     2.2200 
  271.5000    -2.7250    44.9340     4.7380     5.8200     5.1760     2.2310 
  271.6250    -3.4880    44.7860     5.0770     6.1990     5.4370     2.2400 
  271.7500    -4.0840    44.2280     5.3930     6.5730     5.7190     2.2410 
  271.8750    -4.4880    43.4430     5.5820     6.8140     5.8710     2.2400 
  272.0000    -4.4540    44.2010     5.6700     6.9430     5.8090     2.2370 
  272.1250    -4.0530    45.0230     5.6460     6.9650     5.6560     2.2350 
  272.2500    -3.5880    45.7710     5.5480     6.9410     5.6490     2.2300 
  272.3750    -3.2670    44.9990     5.4280     6.9240     5.7960     2.2230 
  272.5000    -3.0960    44.1810     5.2580     6.8730     5.8260     2.1810 
  272.6250    -2.9010    43.5120     5.0660     6.7660     5.5740     2.0680 
  272.7500    -2.7030    43.4060     4.8160     6.5280     5.1100     1.9030 
  272.8750    -2.4890    43.2560     4.5680     6.2320     4.5900     1.7720 
  273.0000    -2.4780    42.9030     4.3960     5.9910     4.1340     1.7660 
  273.1250    -2.7640    42.4720     4.3210     5.8790     3.8780     1.8660 
  273.2500    -3.3210    43.2450     4.4410     6.0290     3.9960     2.0030 
  273.3750    -3.8320    45.7250     4.6920     6.3490     4.5320     2.1300 
  273.5000    -3.8390    49.9490     5.0060     6.7130     5.3560     2.2290 
  273.6250    -3.3440    53.2820     5.2850     6.9950     5.9840     2.2820 
  273.7500    -3.1070    54.6010     5.4080     7.0290     6.0050     2.2430 
  273.8750    -3.3430    53.0630     5.3880     6.8740     5.6590     2.1600 
  274.0000    -3.6600    50.6390     5.2480     6.5750     5.3260     2.1200 
  274.1250    -3.8850    49.0850     5.0420     6.2160     5.1020     2.1520 
  274.2500    -4.1220    48.3240     4.8180     5.8690     4.9540     2.2020 
  274.3750    -4.2970    47.1010     4.6060     5.5580     4.8760     2.2050 
  274.5000    -4.2740    46.1280     4.4460     5.3480     4.9190     2.1590 
  274.6250    -4.2210    46.3480     4.3580     5.2540     5.0550     2.1190 
  274.7500    -4.2510    48.3760     4.3190     5.2380     5.1530     2.1220 
  274.8750    -4.3510    50.3040     4.2980     5.2300     5.0830     2.1540 
  275.0000    -4.4840    51.6990     4.2630     5.1950     4.7980     2.1520 
  275.1250    -4.6710    52.0090     4.2150     5.1270     4.4470     2.1110 
  275.2500    -4.6940    53.3750     4.1490     5.0390     4.1650     2.0730 
  275.3750    -4.6940    55.7750     4.0980     4.9890     4.0370     2.0840 
  275.5000    -4.6940    58.0410     4.0680     4.9900     4.0760     2.1290 
  275.6250    -4.6940    58.0200     4.0440     5.0120     4.1460     2.1650 
  275.7500    -4.6940    55.9770     3.9750     4.9550     4.2040     2.1630 
  275.8750    -4.6940    54.4260     3.8560     4.8110     4.3200     2.1250 
  276.0000    -4.6940    56.2960     3.7200     4.6230     4.4420     2.0630 
  276.1250    -4.6940    60.5350     3.6940     4.5760     4.3830     1.9960 
  276.2500    -4.6940    67.4950     3.9120     4.8680     4.3770     1.9690 
  276.3750    -4.6940    75.5380     4.3170     5.4150     5.0270     2.0010 
  276.5000    -4.6940    83.3060     4.9760     6.2980     6.3460     2.0910 
  276.6250    -4.6940    88.4900     5.7070     7.2390     7.5860     2.1930 
  276.7500    -4.6940    89.1930     6.3420     8.0190     8.2410     2.2640 
  276.8750    -4.6940    90.9890     6.8060     8.5530     8.3150     2.2890 
  277.0000    -4.6940    92.1410     6.9740     8.7170     8.0280     2.2770 
  277.1250    -4.6940    94.2900     6.9100     8.6070     7.8850     2.2590 
  277.2500    -4.6940    94.1670     6.6610     8.3070     8.2180     2.2570 
  277.3750    -4.6940    96.5090     6.3240     7.9160     8.3750     2.2620 
  277.5000    -4.6940    99.7490     5.9380     7.4830     7.6940     2.2640 
  277.6250    -4.6940   102.8300     5.5700     7.0950     6.7670     2.2590 
  277.7500    -4.6940   102.5490     5.2660     6.8030     6.3620     2.2630 
  277.8750    -4.6940    98.7440     4.9990     6.5690     6.3700     2.2840 
  278.0000    -4.6940    93.2030     4.8120     6.4050     6.2540     2.3130 
  278.1250    -4.6940    89.0600     4.6880     6.3040     5.9220     2.3300 
  278.2500    -4.6940    90.0970     4.6130     6.2450     5.6470     2.3230 
  278.3750    -4.6940    94.1810     4.5740     6.2380     5.5730     2.3020 
  278.5000    -4.6940    99.1800     4.6020     6.3120     5.5750     2.2800 
  278.6250    -4.6940   101.9560     4.7000     6.4870     5.6340     2.2680 
  278.7500    -4.6940   103.0800     4.9180     6.8420     6.0580     2.2820 
