~V
VERS. 2.00: Ver 2.00
~W
STRT.M 60.0000:
STOP.M 291.0000:
STEP.M 0.1250:
NULL. -999.2500:
UWI. F12014:
~C
DEPT.M :
SP.MV :
GR.API :
RI. :
RML.OHMM :
RXO.OHMM :
DEN.GM/CC :
~A
   60.0000   164.7510    39.8200     0.1880     0.3400     0.0370     2.3610 
   60.1250   162.0380    39.8860     0.1780     0.3350     0.0370     2.3730 
   60.2500   157.8770    39.2590     0.1650     0.3420     0.0390     2.4020 
   60.3750   151.7770    38.8170     0.1510     0.3510     0.0410     2.4560 
   60.5000   144.3920    38.4410     0.1410     0.3700     0.0410     2.5160 
   60.6250   137.5710    38.1530     0.1410     0.3790     0.0390     2.5450 
   60.7500   132.2270    36.9790     0.1420     0.3780     0.0360     2.5180 
   60.8750   128.1260    35.4950     0.1430     0.3540     0.0330     2.4580 
   61.0000   124.7540    34.7750     0.1430     0.3250     0.0310     2.4000 
   61.1250   122.1520    35.8550     0.1420     0.3140     0.0330     2.3610 
   61.2500   120.8140    37.6160     0.1420     0.3310     0.0340     2.3460 
   61.3750   121.4020    38.9950     0.1420     0.3560     0.0310     2.3440 
   61.5000   122.8060    38.2000     0.1430     0.3660     0.0240     2.3520 
   61.6250   124.8430    37.2260     0.1430     0.3700     0.0170     2.3600 
   61.7500   127.5740    37.3460     0.1430     0.3650     0.0160     2.3650 
   61.8750   130.3890    38.8380     0.1430     0.3540     0.0210     2.3710 
   62.0000   132.8610    38.5900     0.1420     0.3440     0.0270     2.3750 
   62.1250   134.7150    37.8420     0.1420     0.3380     0.0310     2.3750 
   62.2500   135.8830    37.0800     0.1510     0.3340     0.0340     2.3760 
   62.3750   136.7290    37.8970     0.1650     0.3370     0.0370     2.3800 
   62.5000   137.6790    39.3000     0.1770     0.3330     0.0360     2.3960 
   62.6250   139.0950    40.0010     0.1860     0.3300     0.0330     2.4060 
   62.7500   141.4750    39.7600     0.1770     0.3160     0.0400     2.4010 
   62.8750   144.8170    38.6690     0.1680     0.3010     0.1580     2.3860 
   63.0000   148.8980    38.3580     0.1630     0.2960     0.5210     2.3830 
   63.1250   152.7360    38.5690     0.1690     0.3100     0.9480     2.3870 
   63.2500   153.9950    38.9120     0.1890     0.3410     1.0940     2.3930 
   63.3750   151.0350    38.2130     0.2120     0.3730     0.9720     2.3970 
   63.5000   145.0610    37.2130     0.2290     0.3940     0.8700     2.3980 
   63.6250   139.8960    36.1900     0.2320     0.3910     0.9190     2.3950 
   63.7500   137.1070    36.5080     0.2210     0.3690     0.9340     2.3940 
   63.8750   135.7760    37.2010     0.2000     0.3390     0.7510     2.3910 
   64.0000   134.8150    38.4690     0.1790     0.3120     0.4340     2.3780 
   64.1250   133.8990    39.3570     0.1660     0.3010     0.1760     2.3420 
   64.2500   132.4460    40.2960     0.1470     0.3000     0.1090     2.3070 
   64.3750   129.9850    41.3100     0.1260     0.2790     0.1510     2.2840 
   64.5000   125.9840    42.5540     0.0980     0.2290     0.2540     2.2780 
   64.6250   120.4180    44.6620     0.0710     0.1580     0.6200     2.2720 
   64.7500   113.2270    46.4430     0.0560     0.0930     1.6360     2.2460 
   64.8750   104.6250    47.7740     0.0590     0.0600     3.7460     2.1970 
   65.0000    94.7370    47.9540     0.0940     0.0740     7.0430     2.1250 
   65.1250    84.1780    48.2680     0.1940     0.1380     9.8410     2.0230 
   65.2500    73.4250    49.8040     0.4770     0.3530    10.1280     1.8840 
   65.3750    62.9990    53.6250     1.1580     0.9530     8.5130     1.7690 
   65.5000    53.8970    58.4940     2.3930     2.0720     7.2290     1.7730 
   65.6250    46.3900    62.9800     4.1040     3.6030     8.3370     1.8930 
   65.7500    40.3130    64.2530     5.7740     4.9850    11.3690     2.0400 
   65.8750    34.9920    64.6040     7.0110     5.7790    13.1200     2.1290 
   66.0000    29.9910    66.3860     7.5170     5.7860    11.7720     2.1510 
   66.1250    25.8290    70.5540     7.4910     5.3890     9.1010     2.1490 
   66.2500    22.9600    75.8010     7.3300     4.9950     7.7300     2.1460 
   66.3750    21.1670    78.6810     7.2220     4.8290     7.6350     2.1420 
   66.5000    20.1600    78.7070     7.3150     4.9200     7.7360     2.1370 
   66.6250    19.6410    76.8410     7.5440     5.1200     7.7960     2.1260 
   66.7500    18.9130    74.6090     7.8170     5.3080     7.7250     2.1150 
   66.8750    18.1230    72.4650     8.0240     5.4760     7.4940     2.0980 
   67.0000    17.5390    69.8210     8.2150     5.7520     7.1730     2.0930 
   67.1250    17.1390    68.5610     8.7050     6.5630     7.0600     2.1070 
   67.2500    16.9250    67.6600     9.7370     7.9460     9.6980     2.1550 
   67.3750    16.8640    67.5140    10.6160     9.1330    19.0660     2.2330 
   67.5000    16.8300    66.5230    10.9030     9.5920    31.9270     2.3010 
   67.6250    16.8800    67.6290    10.1610     8.9090    36.0710     2.3190 
   67.7500    16.7310    71.8370     8.6170     7.4760    26.1140     2.2880 
   67.8750    16.6200    79.5820     7.0160     6.0520    12.7190     2.2610 
   68.0000    16.2690    88.1750     5.7290     4.9840     6.2270     2.2620 
   68.1250    15.5670    93.8930     4.9780     4.4330     5.0380     2.2830 
   68.2500    14.5910    96.5910     4.6680     4.2590     4.9280     2.2930 
   68.3750    13.4920    98.6070     4.6870     4.3270     4.8980     2.2950 
   68.5000    12.3100    99.4830     4.8540     4.5240     4.9300     2.2810 
   68.6250    10.9130    98.6690     5.1560     4.8360     5.0090     2.2500 
   68.7500     9.2770    93.8880     5.7640     5.4230     5.2790     2.1930 
   68.8750     7.9300    88.3560     6.5800     6.2440     5.8190     2.1340 
   69.0000     6.6640    81.1450     7.4910     7.1450     6.4380     2.0960 
   69.1250     5.2370    76.5950     8.2080     7.8790     6.8210     2.0860 
   69.2500     3.7380    73.3190     8.5040     8.1940     6.9260     2.0920 
   69.3750     2.1700    73.2490     8.3650     8.0800     7.0130     2.1160 
   69.5000     0.7620    72.5320     8.1130     7.9190     7.2280     2.1610 
   69.6250    -0.2940    73.0260     8.3600     8.4030     7.7080     2.2320 
   69.7500    -0.3210    72.5140     9.6370    10.0720     9.6100     2.3200 
   69.8750     0.5300    71.8630    12.0440    13.0610    14.8930     2.4170 
   70.0000     1.6670    69.9540    15.2180    16.8950    24.6630     2.4910 
   70.1250     2.3990    68.6240    18.0380    20.1840    34.3890     2.5120 
   70.2500     2.4980    66.8890    18.6380    20.6910    35.9350     2.4630 
   70.3750     2.2920    67.0430    17.0250    18.6190    27.7880     2.3650 
   70.5000     2.0560    68.0670    13.9160    14.9240    16.3850     2.2570 
   70.6250     1.8500    70.5640    10.6720    11.3480     9.3710     2.1800 
   70.7500     1.6630    71.9780     8.8650     9.6250     7.6480     2.1440 
   70.8750     1.7280    72.1290     7.9990     8.9830     7.5540     2.1270 
   71.0000     1.9300    71.9500     7.7630     8.9710     7.4260     2.1130 
   71.1250     2.0560    71.4100     7.8510     9.2370     7.2020     2.0960 
   71.2500     1.9830    72.0440     8.0020     9.4810     7.0780     2.0860 
   71.3750     1.8960    72.6620     8.1140     9.5830     7.0220     2.0820 
   71.5000     1.8920    72.1910     8.1970     9.5180     6.9540     2.0850 
   71.6250     1.9720    71.0960     8.2540     9.3740     6.9610     2.0810 
   71.7500     2.0900    68.8870     8.2630     9.2190     7.1150     2.0780 
   71.8750     2.1470    67.4970     8.2270     9.1070     7.2860     2.0770 
   72.0000     2.0670    67.0080     8.1520     9.0600     7.3560     2.0820 
   72.1250     1.9950    67.7310     8.0700     9.0440     7.3790     2.0820 
   72.2500     1.9070    69.2500     7.9940     9.0560     7.4520     2.0800 
   72.3750     1.9720    70.3550     8.0480     9.3060     7.5800     2.0790 
   72.5000     2.1550    71.2330     8.4000     9.9870     7.7060     2.1060 
   72.6250     2.2620    71.5410     9.0560    11.1040     7.7580     2.1720 
   72.7500     2.3880    70.5730     9.8170    12.3650     7.6740     2.2600 
