~V
VERS. 2.00: Ver 2.00
~W
STRT.M 60.0000:
STOP.M 291.0000:
STEP.M 0.1250:
NULL. -999.2500:
UWI. F12014:
~C
DEPT.M :
SP.MV :
GR.API :
RI. :
RML.OHMM :
RXO.OHMM :
DEN.GM/CC :
~A
# ...
  163.0000    -9.3220    69.0390     7.5470     8.5940     8.3800     2.1460 
  163.1250    -8.8450    69.8480     7.6750     8.6910     8.4840     2.1400 
  163.2500    -8.1470    70.4410     7.7610     8.7440     8.6410     2.1330 
  163.3750    -7.6320    71.8950     7.8170     8.7620     8.7640     2.1280 
  163.5000    -7.0830    73.3570     7.8660     8.7850     8.7870     2.1240 
  163.6250    -6.6100    75.0500     7.9630     8.8800     8.7740     2.1300 
  163.7500    -6.3080    73.3750     8.0950     9.0470     8.7970     2.1430 
  163.8750    -6.2280    69.8560     8.2560     9.2540     8.8290     2.1560 
  164.0000    -6.5070    66.6180     8.3560     9.3930     8.8390     2.1640 
  164.1250    -7.1970    67.0450     8.4110     9.4590     8.8510     2.1680 
  164.2500    -7.8840    68.2330     8.4790     9.5280     8.8900     2.1710 
  164.3750    -8.3030    68.7000     8.6750     9.7350     9.0430     2.1830 
  164.5000    -8.2540    68.2560     9.2340    10.3910     9.7090     2.2190 
  164.6250    -8.0670    68.8910    10.2280    11.5930    11.2570     2.2830 
  164.7500    -7.6240    70.5330    11.9770    13.7290    13.6630     2.3580 
  164.8750    -6.8690    71.4730    14.1740    16.3470    16.4480     2.4270 
  165.0000    -5.8280    69.7280    16.3530    18.8650    19.7060     2.4670 
  165.1250    -4.9390    66.3120    18.1500    20.8070    22.6840     2.4790 
  165.2500    -4.4510    63.6060    18.8940    21.4280    23.2450     2.4710 
  165.3750    -4.0920    64.1870    18.8880    21.1850    21.4150     2.4640 
  165.5000    -3.6460    66.7610    18.3890    20.4610    19.5930     2.4570 
  165.6250    -3.1760    69.5050    17.8650    19.8090    19.4680     2.4450 
  165.7500    -2.8410    70.6620    17.5220    19.4190    20.0520     2.4290 
  165.8750    -2.3680    70.1090    17.4370    19.3370    20.2570     2.4220 
  166.0000    -1.7990    68.2720    17.4080    19.2640    20.5160     2.4210 
  166.1250    -1.1620    65.6030    17.3610    19.1480    21.0680     2.4230 
  166.2500    -0.7390    64.2260    17.3400    19.0240    21.1790     2.4290 
  166.3750    -0.4760    64.4400    17.4480    19.0330    20.3750     2.4370 
  166.5000    -0.6660    65.6250    17.9260    19.4400    19.4010     2.4450 
  166.6250    -0.8950    66.0050    18.7270    20.1860    19.6210     2.4520 
  166.7500    -1.1200    65.7830    19.9330    21.3470    21.6130     2.4620 
  166.8750    -1.4450    65.4080    21.1400    22.4810    24.3600     2.4640 
  167.0000    -1.6770    64.5260    22.0930    23.3130    27.0900     2.4540 
  167.1250    -1.7880    63.8540    22.2320    23.2560    29.4660     2.4400 
  167.2500    -1.9790    64.8600    21.4480    22.2760    30.1960     2.4260 
  167.3750    -2.2460    66.8960    20.2090    20.8670    27.5850     2.4120 
  167.5000    -2.2070    67.3840    18.9040    19.5080    22.3610     2.4050 
  167.6250    -2.2760    66.6460    18.0710    18.7070    18.3250     2.4050 
  167.7500    -2.6610    66.5050    17.5460    18.2390    18.1170     2.4100 
  167.8750    -2.9550    66.4290    17.2780    18.0080    20.1220     2.4110 
  168.0000    -3.2220    66.5170    17.2880    18.0340    21.2900     2.4090 
  168.1250    -3.2980    67.1170    17.8470    18.5840    20.8210     2.4050 
  168.2500    -3.0050    70.3910    19.0080    19.7470    20.6500     2.4140 
  168.3750    -2.6120    73.1250    21.1720    22.0360    23.9430     2.4350 
  168.5000    -2.0430    73.6270    24.3090    25.4860    30.6680     2.4630 
  168.6250    -1.5360    72.6650    28.0790    29.7270    36.6610     2.4780 
  168.7500    -1.2080    72.8230    31.5170    33.4290    39.6440     2.4820 
  168.8750    -1.1770    73.6420    33.4500    35.4720    40.8970     2.4840 
  169.0000    -1.2650    72.8580    34.0780    36.0380    40.6760     2.4920 
  169.1250    -1.5360    72.4260    33.1520    34.8940    38.0800     2.5000 
  169.2500    -1.6920    71.5370    31.4730    33.1280    34.3650     2.5120 
  169.3750    -1.6960    72.4890    29.7800    31.3160    31.6480     2.5230 
  169.5000    -1.7000    72.4440    27.6660    29.0330    29.9770     2.5210 
  169.6250    -1.7500    72.5120    25.7960    27.0570    28.9090     2.5070 
  169.7500    -1.7760    71.0510    24.0580    25.2240    28.0400     2.4890 
  169.8750    -1.6120    71.3440    22.5030    23.6160    26.2060     2.4740 
  170.0000    -1.3110    72.0800    21.2140    22.2900    23.6160     2.4580 
  170.1250    -1.0320    73.7950    20.2650    21.3070    22.2630     2.4420 
  170.2500    -0.8420    73.8880    19.6480    20.6200    22.4230     2.4350 
  170.3750    -0.8110    74.1350    19.3880    20.3140    22.4800     2.4350 
  170.5000    -0.8760    75.0260    19.3940    20.2790    21.4330     2.4400 
  170.6250    -1.0020    75.7600    19.3910    20.2140    20.1590     2.4370 
  170.7500    -0.9830    77.4120    19.2000    19.9290    19.3650     2.4280 
  170.8750    -1.0400    77.6700    18.8800    19.5170    19.3440     2.4240 
  171.0000    -1.1470    75.6560    18.6310    19.1970    19.3830     2.4270 
  171.1250    -1.3300    71.5600    18.5270    19.0640    19.0820     2.4290 
  171.2500    -1.5660    68.3950    18.5350    19.1250    18.7430     2.4240 
  171.3750    -1.9020    68.3780    18.5780    19.2490    19.6630     2.4140 
  171.5000    -2.2760    69.2060    18.2640    18.9670    20.6930     2.4100 
  171.6250    -2.7110    70.4530    17.4760    18.1400    20.1790     2.4070 
  171.7500    -3.1840    69.2290    16.3750    16.9800    17.5200     2.4080 
  171.8750    -3.6260    66.3780    15.3050    15.8860    15.4270     2.4100 
  172.0000    -4.3020    62.9930    14.8060    15.4740    15.0000     2.4200 
  172.1250    -5.1900    61.4430    14.8380    15.6740    15.2500     2.4300 
  172.2500    -6.0220    62.2870    15.4120    16.4310    15.3660     2.4360 
  172.3750    -6.7620    64.6390    16.2350    17.4210    15.7200     2.4360 
  172.5000    -7.1590    66.6830    16.9300    18.1950    16.5450     2.4330 
  172.6250    -7.2200    68.4890    17.4830    18.7850    17.1450     2.4300 
  172.7500    -7.2460    69.1910    17.7800    19.1110    17.1730     2.4230 
  172.8750    -7.3420    70.1670    18.0270    19.4180    17.1810     2.4160 
  173.0000    -7.5210    68.8280    18.2950    19.7750    17.8180     2.4120 
  173.1250    -7.5710    67.7070    18.5580    20.1560    18.9270     2.4110 
  173.2500    -7.5520    67.3560    18.9430    20.6780    19.8060     2.4100 
  173.3750    -7.7160    69.6610    19.2570    21.0850    19.9340     2.4020 
  173.5000    -7.8870    72.5240    19.1670    20.9990    19.7120     2.3950 
  173.6250    -8.1120    77.0760    18.7360    20.5040    19.6810     2.3910 
  173.7500    -8.4560    81.3380    18.0610    19.7060    19.4220     2.3910 
  173.8750    -8.8450    83.1700    17.2840    18.8010    18.5000     2.3900 
  174.0000    -9.2720    82.4680    16.7920    18.2260    17.2770     2.3830 
  174.1250    -9.6920    81.5600    16.5170    17.9140    16.2980     2.3700 
  174.2500   -10.1460    81.7940    16.5200    17.9210    15.5710     2.3510 
  174.3750   -10.7670    80.1970    16.8070    18.2370    15.2690     2.3280 
  174.5000   -11.2940    77.5350    17.1400    18.5720    15.3340     2.3040 
  174.6250   -11.5840    75.9860    17.3820    18.7710    15.3060     2.2840 
  174.7500   -11.6450    76.8890    17.5280    18.8700    15.1850     2.2780 
  174.8750   -11.7740    78.9470    17.5960    18.8920    15.2930     2.2800 
  175.0000   -11.8510    79.6980    17.5310    18.7950    15.7260     2.2780 
  175.1250   -11.7900    78.8190    17.4010    18.6650    15.8230     2.2710 
  175.2500   -11.6940    76.6540    17.2260    18.4760    15.0330     2.2720 
  175.3750   -11.7440    74.5230    16.9980    18.2010    13.9730     2.2890 
  175.5000   -11.8050    72.7050    16.7970    18.0170    13.5190     2.3150 
  175.6250   -11.6450    72.3920    16.6290    17.9560    13.8820     2.3430 
  175.7500   -10.9120    72.6770    16.4680    17.9620    14.9380     2.3720 
