~V
VERS. 2.00: Ver 2.00
~W
STRT.M 60.0000:
STOP.M 291.0000:
STEP.M 0.1250:
NULL. -999.2500:
UWI. F12014:
~C
DEPT.M :
SP.MV :
GR.API :
RI. :
RML.OHMM :
RXO.OHMM :
DEN.GM/CC :
~A
# ...
  124.3750   -10.6850    73.6270    16.3500    18.6810    38.2540     2.4660 
  124.5000   -10.8760    73.5020    17.6370    19.8110    38.8700     2.4030 
  124.6250   -11.0670    73.5480    16.4550    18.1380    32.4130     2.2890 
  124.7500   -10.9180    73.8370    13.7470    14.8280    23.8420     2.1730 
  124.8750   -10.3120    74.2320    10.5640    11.1890    17.6580     2.0980 
  125.0000    -9.3310    73.5580     8.4390     8.9600    13.9730     2.0780 
  125.1250    -8.4500    72.1620     7.5240     8.0850    11.2210     2.0840 
  125.2500    -8.0230    69.4150     7.0730     7.7310     8.9410     2.0920 
  125.3750    -8.0080    68.5310     6.8930     7.6450     8.1460     2.0980 
  125.5000    -8.2440    69.3470     6.9020     7.6930     7.7750     2.0960 
  125.6250    -8.5420    70.4720     6.9670     7.7360     7.5090     2.0880 
  125.7500    -8.5610    70.9020     7.0220     7.7380     7.3450     2.0740 
  125.8750    -8.4960    70.7610     7.0520     7.7270     7.3160     2.0690 
  126.0000    -8.3890    70.9920     7.0750     7.7280     7.4730     2.0730 
  126.1250    -8.3660    70.6900     7.1060     7.7420     7.5440     2.0810 
  126.2500    -8.4500    69.4110     7.1470     7.7450     7.6260     2.0860 
  126.3750    -8.7020    67.1750     7.2040     7.7650     7.7480     2.0910 
  126.5000    -9.1210    65.5850     7.2650     7.8050     7.9270     2.1010 
  126.6250    -9.5560    63.6870     7.3380     7.8850     8.0760     2.1180 
  126.7500    -9.9680    62.9090     7.4300     8.0190     8.1480     2.1380 
  126.8750   -10.1890    62.6080     7.5150     8.1750     8.0370     2.1520 
  127.0000   -10.2850    65.3260     7.5890     8.3340     7.7210     2.1500 
  127.1250   -10.4260    68.3410     7.5880     8.4010     7.0900     2.1430 
  127.2500   -10.7350    72.2110     7.3090     8.0860     6.4700     2.1410 
  127.3750   -11.1890    75.3880     6.7570     7.4260     6.0430     2.1530 
  127.5000   -12.0620    79.0220     6.0610     6.5770     5.7670     2.1800 
  127.6250   -13.0960    81.9500     5.4110     5.7990     5.3390     2.2110 
  127.7500   -13.8940    84.3640     5.0700     5.4320     4.8320     2.2330 
  127.8750   -14.1030    85.5260     5.0650     5.4770     4.6140     2.2330 
  128.0000   -13.5580    84.1000     5.4420     6.0000     4.9290     2.2190 
  128.1250   -12.6160    79.8260     6.1290     6.8630     5.5770     2.2000 
  128.2500   -11.8870    75.2360     6.8840     7.7660     6.1530     2.1810 
  128.3750   -11.4250    71.6790     7.4400     8.4180     6.3440     2.1570 
  128.5000   -11.4520    70.0270     7.5940     8.5400     6.1830     2.1390 
  128.6250   -11.9520    69.6880     7.4610     8.3360     6.0340     2.1320 
  128.7500   -12.6770    70.4340     7.2920     8.0780     6.1340     2.1380 
  128.8750   -13.2180    70.7970     7.1940     7.9120     6.3710     2.1480 
  129.0000   -13.4280    71.0340     7.2130     7.9030     6.5780     2.1580 
  129.1250   -13.5080    72.4320     7.2300     7.9020     6.7280     2.1670 
  129.2500   -13.4510    74.5860     7.1820     7.8390     6.8360     2.1690 
  129.3750   -13.3100    75.8850     7.0840     7.7270     6.8450     2.1670 
  129.5000   -13.1340    75.3260     6.9570     7.5960     6.6440     2.1630 
  129.6250   -13.0430    75.5420     6.8430     7.4920     6.3070     2.1540 
  129.7500   -12.7950    74.7280     6.7540     7.4280     6.0340     2.1410 
  129.8750   -12.5540    74.2500     6.7150     7.4240     5.9220     2.1220 
  130.0000   -12.5010    73.0520     6.7200     7.4640     5.9310     2.1060 
  130.1250   -12.9280    73.3470     6.7080     7.4880     6.0060     2.0990 
  130.2500   -13.8130    71.8380     6.6100     7.4000     6.1560     2.1030 
  130.3750   -15.2630    70.5820     6.4620     7.2480     6.2870     2.1160 
  130.5000   -17.0820    69.9190     6.2910     7.0670     6.2760     2.1300 
  130.6250   -18.9550    72.5720     6.1770     6.9480     6.2220     2.1400 
  130.7500   -20.1690    76.4300     6.1340     6.9260     6.3080     2.1360 
  130.8750   -20.4130    80.5880     6.1820     7.0250     6.5000     2.1250 
  131.0000   -19.8860    81.2480     6.3200     7.2550     6.6010     2.1120 
  131.1250   -19.2990    78.3900     6.5070     7.5810     6.5720     2.1050 
  131.2500   -18.7000    73.6660     6.6840     7.8740     6.5280     2.0960 
  131.3750   -18.1770    71.2410     6.8010     8.0580     6.5500     2.0810 
  131.5000   -17.7920    70.9180     6.8690     8.1380     6.6320     2.0660 
  131.6250   -17.3690    72.2570     6.9090     8.1810     6.6900     2.0640 
  131.7500   -17.0520    73.0440     6.9400     8.2770     6.6460     2.0780 
  131.8750   -16.8500    73.7310     6.9520     8.3560     6.5380     2.0960 
  132.0000   -16.9220    73.6410     6.9530     8.4200     6.4830     2.1080 
  132.1250   -17.1320    74.4120     6.9400     8.4340     6.5300     2.1180 
  132.2500   -17.3760    75.1720     6.9000     8.3960     6.6350     2.1240 
  132.3750   -17.3990    76.1100     6.8410     8.3180     6.7450     2.1260 
  132.5000   -17.2160    77.2740     6.7830     8.2330     6.8790     2.1240 
  132.6250   -16.8650    78.2930     6.7280     8.1410     7.0390     2.1200 
  132.7500   -16.5860    77.8160     6.6930     8.0900     7.1960     2.1160 
  132.8750   -16.3160    76.1000     6.6840     8.0870     7.3270     2.1070 
  133.0000   -16.0260    74.7150     6.6650     8.0380     7.3190     2.0960 
  133.1250   -15.4230    73.8160     6.6030     7.9240     7.0770     2.0830 
  133.2500   -14.7670    70.3660     6.5160     7.7580     6.6690     2.0790 
  133.3750   -14.1950    68.0850     6.4320     7.6010     6.3250     2.0840 
  133.5000   -13.8250    68.7800     6.4110     7.5520     6.1860     2.0970 
  133.6250   -13.5230    72.4030     6.4620     7.6220     6.2000     2.1050 
  133.7500   -12.9430    74.9320     6.5610     7.7910     6.2620     2.1070 
  133.8750   -11.9900    75.0490     6.6510     7.9420     6.2730     2.1090 
  134.0000   -10.9290    76.2600     6.6160     7.8970     6.2540     2.1220 
  134.1250    -9.6550    80.3570     6.3390     7.4820     6.2800     2.1470 
  134.2500    -8.0800    85.3820     5.8730     6.8190     6.2630     2.1790 
  134.3750    -6.2370    88.8430     5.3280     6.0700     6.0540     2.2050 
  134.5000    -4.3790    90.8420     4.8500     5.4720     5.6370     2.2160 
  134.6250    -2.7810    94.7010     4.5230     5.0950     5.2000     2.2150 
  134.7500    -1.7470    99.4540     4.2850     4.8250     4.9010     2.2160 
  134.8750    -1.3620   103.9860     4.1690     4.6940     4.7490     2.2240 
  135.0000    -1.5110   107.7130     4.2110     4.7370     4.7020     2.2360 
  135.1250    -2.0490   109.3250     4.3410     4.8630     4.7870     2.2440 
  135.2500    -2.6740   107.7910     4.5260     5.0370     5.1460     2.2520 
  135.3750    -3.4220   104.3100     4.7500     5.2450     5.5880     2.2550 
  135.5000    -4.0550   100.9220     5.0780     5.5510     5.7910     2.2580 
  135.6250    -4.6960    98.4960     5.5070     5.9810     5.8880     2.2700 
  135.7500    -5.3940    95.3330     5.9130     6.4340     6.4340     2.2980 
  135.8750    -6.1300    92.4560     6.2220     6.8070     7.3210     2.3250 
  136.0000    -6.7790    91.9090     6.3220     6.9540     7.5770     2.3240 
  136.1250    -7.4500    92.8410     6.2410     6.8620     6.8700     2.2970 
  136.2500    -8.0760    93.2890     5.9470     6.5270     5.9380     2.2640 
  136.3750    -8.6170    93.1080     5.5280     6.0760     5.5840     2.2430 
  136.5000    -8.5750    94.7650     5.1210     5.6590     5.6500     2.2380 
  136.6250    -8.2280    98.4850     4.8320     5.3620     5.6160     2.2420 
  136.7500    -8.1860    99.6310     4.7650     5.2640     5.4790     2.2520 
  136.8750    -8.6250    97.6730     5.0240     5.5350     5.5550     2.2710 
  137.0000    -9.2540    92.7260     5.8910     6.5470     6.7680     2.3220 
  137.1250    -9.9300    87.6870     7.6060     8.6290    11.0810     2.4050 
