~V
VERS. 2.00: Ver 2.00
~W
STRT.M 66.0000:
STOP.M 299.0000:
STEP.M 0.1250:
NULL. -999.2500:
UWI. F12016:
~C
DEPT.M :
SP.MV :
GR.API :
RI. :
RML.OHMM :
RXO.OHMM :
DEN.GM/CC :
~A
# ...
  259.1250   -14.1090    78.8250    13.2120    15.3290    16.9450     2.3380 
  259.2500   -15.0770    77.3950    14.4910    16.8110    20.4510     2.3060 
  259.3750   -16.1220    74.8320    15.8690    18.3280    21.6130     2.2780 
  259.5000   -17.1850    71.4630    17.0770    19.5760    22.7840     2.2610 
  259.6250   -17.8280    66.7600    17.9680    20.4060    24.1710     2.2540 
  259.7500   -17.8040    62.5420    18.2900    20.5760    24.2900     2.2530 
  259.8750   -17.2980    61.0210    18.1010    20.1630    23.5650     2.2560 
  260.0000   -16.6980    62.4890    17.5650    19.4040    22.6100     2.2580 
  260.1250   -16.3370    63.5580    16.6950    18.2900    21.3580     2.2590 
  260.2500   -16.5350    63.1400    15.5870    16.9500    19.2760     2.2540 
  260.3750   -17.0490    63.2550    14.3920    15.5810    16.8670     2.2420 
  260.5000   -17.6030    65.6430    13.2140    14.2400    14.7470     2.2270 
  260.6250   -17.9740    69.0800    12.1350    13.0700    13.2560     2.2120 
  260.7500   -17.8400    69.3280    11.3600    12.2630    12.7010     2.1980 
  260.8750   -17.2830    64.5040    10.7550    11.6740    12.7290     2.1860 
  261.0000   -16.6500    60.2810    10.2520    11.1950    12.8120     2.1790 
  261.1250   -16.0990    62.7090     9.7310    10.6890    12.5320     2.1820 
  261.2500   -15.5800    69.0940     9.2270    10.1990    11.6460     2.2010 
  261.3750   -15.1530    71.8610     8.9170     9.9120    10.4250     2.2360 
  261.5000   -14.9280    72.8020     8.9820    10.0530     9.4570     2.2770 
  261.6250   -14.8280    75.3400     9.5170    10.7370     9.7300     2.3140 
  261.7500   -14.9430    79.5300    10.9020    12.4120    13.1990     2.3350 
  261.8750   -15.3020    81.0230    12.8470    14.7490    19.8870     2.3380 
  262.0000   -15.9010    77.4550    15.0600    17.3760    26.5950     2.3230 
  262.1250   -16.5980    71.5860    17.2040    19.8150    29.7570     2.3010 
  262.2500   -17.3590    69.0030    18.8780    21.5870    28.7970     2.2770 
  262.3750   -18.1030    68.8420    20.4290    23.2190    26.5690     2.2550 
  262.5000   -18.7900    67.2880    21.9140    24.8570    27.2530     2.2340 
  262.6250   -19.3200    64.8460    23.5690    26.8960    31.4700     2.2140 
  262.7500   -19.4580    63.4990    25.4180    29.2790    38.5230     2.1990 
  262.8750   -19.1170    62.1870    26.9720    31.2860    44.7870     2.1920 
  263.0000   -18.4470    60.3750    27.4310    31.9140    44.6480     2.1940 
  263.1250   -17.8220    60.2010    26.4700    30.8270    41.6740     2.1990 
  263.2500   -17.6010    60.0570    24.6880    28.7780    38.3060     2.2050 
  263.3750   -17.8830    59.1180    22.8010    26.6530    32.1290     2.2080 
  263.5000   -18.4080    58.5340    21.6940    25.4730    27.5540     2.2040 
  263.6250   -18.9000    59.3250    21.2570    25.0580    30.2180     2.1940 
  263.7500   -19.0880    58.6290    21.1820    25.0110    35.1610     2.1840 
  263.8750   -18.7270    55.8850    21.2130    25.0290    36.2300     2.1800 
  264.0000   -17.9230    52.7580    21.2630    25.0840    34.2600     2.1870 
  264.1250   -17.0550    51.4470    21.4530    25.3610    31.0480     2.1990 
  264.2500   -16.2040    53.7390    21.8570    26.0840    30.3960     2.2090 
  264.3750   -15.3670    58.0830    22.8000    27.6100    36.0620     2.2120 
  264.5000   -14.5770    58.1400    23.7280    28.9810    41.4350     2.2100 
  264.6250   -13.8780    52.3360    23.4270    28.5170    40.6490     2.2130 
  264.7500   -13.1810    47.1270    20.3710    24.5510    43.7600     2.2280 
  264.8750   -12.3960    48.8780    16.0880    19.0470    45.9560     2.2570 
  265.0000   -11.4660    57.1480    11.5800    13.4570    30.7310     2.2940 
  265.1250   -10.4260    67.9680     8.4840     9.8050    12.5450     2.3270 
  265.2500    -9.4700    77.2790     7.1140     8.2420     7.5260     2.3440 
  265.3750    -8.7850    82.3050     6.3600     7.4550     8.1150     2.3480 
  265.5000    -8.4630    82.5610     6.1750     7.3580     7.9920     2.3410 
  265.6250    -8.4320    82.9590     6.2920     7.5470     7.7550     2.3320 
  265.7500    -8.4340    84.9800     6.4110     7.6690     7.9700     2.3260 
  265.8750    -8.0800    86.0750     6.3710     7.5600     7.9240     2.3270 
  266.0000    -7.2800    83.6110     6.2420     7.3550     7.3550     2.3340 
  266.1250    -6.3100    80.9210     6.0850     7.1290     6.9180     2.3430 
  266.2500    -5.5420    81.8820     5.9370     6.9340     6.8670     2.3500 
  266.3750    -5.3600    84.4320     5.8160     6.7810     6.9380     2.3530 
  266.5000    -5.8300    86.1290     5.7760     6.7350     6.9500     2.3530 
  266.6250    -6.5880    87.2950     5.8120     6.8040     6.8790     2.3520 
  266.7500    -7.4190    87.6630     5.9060     6.9620     7.0930     2.3490 
  266.8750    -8.0360    85.5060     6.0480     7.2200     7.7250     2.3460 
  267.0000    -8.1800    80.7290     6.2640     7.5910     8.1590     2.3420 
  267.1250    -8.0630    78.5630     6.5290     8.0080     8.0880     2.3360 
  267.2500    -7.9760    79.4290     6.7690     8.3770     8.4110     2.3280 
  267.3750    -7.8560    79.7420     6.8930     8.5530     9.5210     2.3170 
  267.5000    -7.7760    78.3980     6.8640     8.5080     9.9470     2.3080 
  267.6250    -7.8760    75.9950     6.8410     8.4420     9.2670     2.3030 
  267.7500    -8.0320    73.7710     6.9730     8.5730     8.5340     2.3050 
  267.8750    -8.1140    72.0020     7.3440     9.0290     9.2300     2.3060 
  268.0000    -8.1970    71.3760     8.0150     9.9240    11.9410     2.3010 
  268.1250    -8.3680    70.9380     9.0240    11.2840    14.0970     2.2890 
  268.2500    -8.7270    70.1630    10.1160    12.6980    14.4390     2.2720 
  268.3750    -9.2330    69.2240    11.0130    13.8050    14.2820     2.2570 
  268.5000    -9.7850    67.3000    11.4320    14.2500    14.1630     2.2460 
  268.6250   -10.2700    65.9010    11.2640    13.9600    14.2040     2.2420 
  268.7500   -10.8280    68.1960    10.6340    13.1250    14.2350     2.2460 
  268.8750   -11.1550    72.1980     9.7220    11.9330    13.3550     2.2570 
  269.0000   -11.0450    73.8310     8.7720    10.6750    11.5810     2.2710 
  269.1250   -10.4740    74.0310     8.0200     9.6710    10.0810     2.2840 
  269.2500    -9.7350    75.4060     7.7880     9.3580     9.2890     2.2920 
  269.3750    -9.2020    76.2490     8.3000    10.0410     9.9010     2.2950 
  269.5000    -9.1770    76.0300     9.3590    11.4720    13.3860     2.2940 
  269.6250    -9.6530    75.7910    10.9960    13.6430    19.1560     2.2890 
  269.7500   -10.4310    74.6670    12.8010    15.9090    23.1090     2.2800 
  269.8750   -11.0710    72.6530    14.1760    17.4310    22.4600     2.2700 
  270.0000   -11.3860    69.9210    14.7880    17.8590    19.5960     2.2610 
  270.1250   -11.2300    66.9940    14.6630    17.3590    17.2170     2.2550 
  270.2500   -10.8870    63.6770    14.1840    16.5670    15.9360     2.2490 
  270.3750   -10.6600    63.2500    13.9940    16.2880    16.2890     2.2440 
  270.5000   -10.5640    67.2320    14.3410    16.7480    17.7650     2.2370 
  270.6250   -10.6060    71.3910    14.9820    17.5700    19.4440     2.2320 
  270.7500   -10.8430    72.5500    15.7610    18.5670    21.1280     2.2310 
  270.8750   -11.2540    71.0230    16.4960    19.4470    22.0170     2.2350 
  271.0000   -11.7130    70.8320    16.9970    20.0010    22.2440     2.2430 
  271.1250   -12.1690    71.4730    17.1690    20.1280    23.5000     2.2520 
  271.2500   -12.5400    71.0380    16.8140    19.5380    24.9440     2.2620 
  271.3750   -12.8100    69.6980    16.0610    18.4630    24.4380     2.2720 
  271.5000   -13.0900    70.1790    15.1950    17.2600    22.1540     2.2800 
  271.6250   -13.2920    71.3340    14.5490    16.3510    19.4570     2.2850 
  271.7500   -13.3360    71.7760    14.5790    16.3480    18.7400     2.2860 
  271.8750   -13.2510    71.8530    15.2880    17.2180    19.7180     2.2840 
