~V
VERS. 2.00: Ver 2.00
~W
STRT.M 60.0000:
STOP.M 291.0000:
STEP.M 0.1250:
NULL. -999.2500:
UWI. F12014:
~C
DEPT.M :
SP.MV :
GR.API :
RI. :
RML.OHMM :
RXO.OHMM :
DEN.GM/CC :
~A
# ...
  175.8750    -9.8140    73.2290    16.3620    18.0620    15.9240     2.4070 
  176.0000    -8.4520    71.7950    16.4970    18.4110    16.0580     2.4460 
  176.1250    -7.0210    71.2370    17.0770    19.1560    16.3650     2.4840 
  176.2500    -5.2610    70.6320    18.1670    20.4180    18.5790     2.5150 
  176.3750    -4.4530    70.3600    19.7090    22.1690    22.4560     2.5350 
  176.5000    -4.0100    69.3870    21.6690    24.3590    26.0970     2.5470 
  176.6250    -3.5670    69.3740    23.7480    26.6230    27.9080     2.5530 
  176.7500    -3.2280    68.2050    25.8230    28.8700    29.4820     2.5540 
  176.8750    -2.9720    67.3280    27.9910    31.2730    33.7310     2.5550 
  177.0000    -2.5910    67.8800    30.3340    34.1620    40.0280     2.5600 
  177.1250    -2.2320    71.4570    33.1240    37.9580    44.1880     2.5750 
  177.2500    -1.8320    74.4260    36.0690    42.0680    44.8210     2.5920 
  177.3750    -1.4390    74.6660    36.8350    43.1090    44.6450     2.6040 
  177.5000    -1.1830    72.5630    32.7220    38.0700    44.1840     2.6000 
  177.6250    -0.8970    72.4470    25.0520    28.5460    41.3340     2.5750 
  177.7500    -0.7140    75.0630    16.1230    17.8660    33.4960     2.5190 
  177.8750    -0.6830    78.4420     9.4840    10.2050    21.9770     2.4420 
  178.0000    -0.8320    79.9040     5.9310     6.3060    11.3610     2.3580 
  178.1250    -1.2330    81.0290     4.4300     4.7730     5.5240     2.2990 
  178.2500    -1.8970    83.1760     3.7410     4.1690     4.2520     2.2700 
  178.3750    -2.6440    86.2550     3.6250     4.1870     4.2300     2.2620 
  178.5000    -3.3960    86.2950     3.8330     4.5100     4.2980     2.2580 
  178.6250    -4.0560    83.7380     4.1530     4.9220     4.6400     2.2730 
  178.7500    -4.5740    78.2790     4.4930     5.3340     5.3070     2.2990 
  178.8750    -4.8800    74.1670     4.8350     5.7370     5.8720     2.3220 
  179.0000    -5.2150    71.8030     5.1350     6.0820     6.0460     2.3240 
  179.1250    -5.4520    72.1960     5.3120     6.2380     6.0460     2.3180 
  179.2500    -5.6080    73.1280     5.3860     6.2630     6.1260     2.3190 
  179.3750    -5.6880    74.6860     5.3780     6.1910     6.2540     2.3280 
  179.5000    -5.6430    75.4970     5.3370     6.1240     6.4030     2.3380 
  179.6250    -5.4290    76.4020     5.2660     6.0690     6.6080     2.3470 
  179.7500    -5.2080    77.0710     5.1540     5.9860     6.5900     2.3570 
  179.8750    -4.8340    78.5640     5.0400     5.8990     6.2010     2.3660 
  180.0000    -4.5100    82.0490     4.9560     5.8470     5.7560     2.3740 
  180.1250    -4.3070    84.8720     4.9220     5.8590     5.6990     2.3780 
  180.2500    -4.2270    85.9140     4.9350     5.9530     6.0650     2.3810 
  180.3750    -4.2010    83.9700     4.9960     6.1260     6.4080     2.3720 
  180.5000    -4.2160    82.9010     5.0730     6.3330     6.4840     2.3600 
  180.6250    -4.0330    83.0000     5.0690     6.4300     6.4880     2.3460 
  180.7500    -3.8150    85.9580     4.9210     6.3390     6.5020     2.3430 
  180.8750    -3.5600    89.7220     4.6210     6.0220     6.1980     2.3230 
  181.0000    -3.3040    93.0620     4.2460     5.5650     5.3980     2.2570 
  181.1250    -3.2770    93.1100     3.8910     5.1130     4.5470     2.1580 
  181.2500    -3.6170    89.4380     3.6260     4.7890     4.1160     2.0940 
  181.3750    -4.1390    84.0770     3.4650     4.6210     4.0760     2.1000 
  181.5000    -4.5670    80.2340     3.3960     4.5670     4.1880     2.1570 
  181.6250    -4.9860    78.6830     3.3580     4.5210     4.2650     2.2140 
  181.7500    -5.0930    80.9360     3.3230     4.4380     4.2230     2.2550 
  181.8750    -5.0090    83.5850     3.2720     4.3140     4.0580     2.2620 
  182.0000    -4.8450    84.8190     3.2240     4.2180     3.8190     2.2280 
  182.1250    -4.7350    84.3280     3.2160     4.2090     3.6260     2.1720 
  182.2500    -4.5480    85.3550     3.2650     4.3350     3.6110     2.1490 
  182.3750    -4.1320    87.9240     3.3900     4.5840     3.7750     2.1660 
  182.5000    -3.5980    89.8750     3.6090     4.9320     4.0570     2.2130 
  182.6250    -3.1250    90.8540     3.8770     5.3220     4.4070     2.2560 
  182.7500    -2.8690    90.4470     4.1580     5.6820     4.7640     2.2820 
  182.8750    -2.8500    90.3990     4.3760     5.9670     4.9550     2.2840 
  183.0000    -2.9610    90.9960     4.5000     6.1190     4.8670     2.2710 
  183.1250    -3.0330    93.0160     4.5440     6.1570     4.6800     2.2520 
  183.2500    -3.2960    94.1520     4.4870     6.0870     4.5740     2.2400 
  183.3750    -3.7270    93.6030     4.3570     5.9320     4.5560     2.2320 
  183.5000    -4.2350    91.4980     4.2020     5.7510     4.5510     2.2300 
  183.6250    -4.8260    90.0040     4.0690     5.6250     4.5410     2.2310 
  183.7500    -5.2610    88.6100     4.0130     5.6210     4.5840     2.2340 
  183.8750    -5.5360    86.6510     4.0340     5.7520     4.7070     2.2370 
  184.0000    -5.7300    85.3080     4.1300     5.9780     4.8750     2.2350 
  184.1250    -5.7870    86.0380     4.2310     6.1890     4.9430     2.2340 
  184.2500    -5.6690    88.9110     4.2490     6.2190     4.7780     2.2440 
  184.3750    -5.3140    91.9250     4.1560     6.0560     4.4170     2.2650 
  184.5000    -5.2150    92.6030     3.9640     5.7190     4.0030     2.2710 
  184.6250    -5.4440    92.8320     3.7940     5.4080     3.6930     2.2490 
  184.7500    -6.1990    90.8280     3.8090     5.3990     3.6480     2.2250 
  184.8750    -7.3210    88.0340     4.0920     5.8440     4.1140     2.2270 
  185.0000    -8.8050    83.5640     4.6670     6.7910     5.3190     2.2620 
  185.1250   -10.2810    79.7710     5.3730     7.9240     6.7290     2.3020 
  185.2500   -11.5170    78.0230     5.9170     8.6970     7.3480     2.3220 
  185.3750   -12.4550    77.2280     6.0420     8.7270     6.8870     2.3190 
  185.5000   -12.7950    76.2650     5.8030     8.1530     5.9320     2.2930 
  185.6250   -12.3030    76.3290     5.4120     7.4250     5.2860     2.2640 
  185.7500   -11.1550    79.2210     5.2010     7.0800     5.1340     2.2470 
  185.8750    -9.9070    83.0250     5.2680     7.2310     5.4110     2.2600 
  186.0000    -8.9150    83.2290     5.5110     7.6830     6.2320     2.2960 
  186.1250    -8.2440    80.1810     5.7700     8.1570     7.0890     2.3310 
  186.2500    -7.9390    76.4240     5.7250     8.1490     7.3010     2.3380 
  186.3750    -7.8930    75.6530     5.3620     7.6450     6.9080     2.3230 
  186.5000    -7.9620    77.8390     4.7920     6.8230     6.2170     2.2900 
  186.6250    -8.1220    81.4230     4.1660     5.9190     5.4040     2.2450 
  186.7500    -8.5570    83.5150     3.7390     5.3030     4.6030     2.1920 
  186.8750    -9.5100    83.4700     3.5090     4.9790     4.1170     2.1590 
  187.0000   -11.0130    82.4960     3.5190     5.0030     3.9430     2.1660 
  187.1250   -12.8820    83.0760     3.8020     5.4310     3.9430     2.1970 
  187.2500   -14.8810    85.8580     4.2830     6.1500     4.3260     2.2200 
  187.3750   -16.4000    87.4190     4.8940     7.0210     5.0250     2.2220 
  187.5000   -16.5180    86.6560     5.5170     7.8470     5.6540     2.2110 
  187.6250   -15.5150    84.5050     6.0180     8.4590     5.9290     2.2030 
  187.7500   -13.7830    85.4520     6.2830     8.6960     5.8940     2.2070 
  187.8750   -11.8600    87.8750     6.2040     8.4520     5.7760     2.2150 
  188.0000   -10.0860    91.0230     5.8000     7.8050     5.5420     2.2240 
  188.1250    -8.4960    91.9970     5.2000     6.9210     5.0730     2.2310 
  188.2500    -7.2140    91.3950     4.5580     6.0240     4.4770     2.2410 
  188.3750    -6.5420    90.9430     4.0550     5.3490     4.0590     2.2460 
  188.5000    -6.3290    92.6040     3.7370     4.9420     4.0030     2.2350 
  188.6250    -6.4200    94.9280     3.6450     4.8620     4.1850     2.2040 
