~V
VERS. 2.00: Ver 2.00
~W
STRT.M 66.0000:
STOP.M 299.0000:
STEP.M 0.1250:
NULL. -999.2500:
UWI. F12016:
~C
DEPT.M :
SP.MV :
GR.API :
RI. :
RML.OHMM :
RXO.OHMM :
DEN.GM/CC :
~A
# ...
  156.1250   -11.0920    72.9590     5.7980     7.0810     7.6370     2.1460 
  156.2500   -11.4240    71.3020     5.7790     7.0230     7.4560     2.1520 
  156.3750   -11.7020    72.4470     5.8010     7.0300     7.3810     2.1550 
  156.5000   -11.8750    75.1410     5.8900     7.1260     7.5640     2.1530 
  156.6250   -12.0140    74.7380     6.0240     7.2860     8.0110     2.1490 
  156.7500   -12.1740    72.6930     6.1960     7.4950     8.6310     2.1460 
  156.8750   -12.3080    73.2290     6.3910     7.7360     8.9740     2.1440 
  157.0000   -12.4570    75.2890     6.6080     8.0090     8.7330     2.1430 
  157.1250   -12.5450    73.9200     6.8610     8.3480     8.4650     2.1420 
  157.2500   -12.2690    69.2320     7.0840     8.6620     8.5870     2.1410 
  157.3750   -11.5310    65.8620     7.1080     8.6930     8.8030     2.1430 
  157.5000   -10.3420    66.9770     6.7470     8.2100     8.8070     2.1530 
  157.6250    -9.0690    71.5490     6.0700     7.3000     8.2470     2.1740 
  157.7500    -8.0750    77.3330     5.2810     6.2520     6.8530     2.2090 
  157.8750    -7.5830    81.2960     4.6700     5.4710     5.3490     2.2490 
  158.0000    -7.5120    82.3460     4.4200     5.1780     5.2890     2.2830 
  158.1250    -7.7560    83.0200     4.4860     5.3290     6.5540     2.3000 
  158.2500    -8.2410    84.4750     4.8930     5.9250     8.2620     2.3000 
  158.3750    -8.5520    83.3650     5.2680     6.4110    12.3930     2.2910 
  158.5000    -8.5330    79.2680     5.3970     6.5290    15.0450     2.2820 
  158.6250    -8.4130    75.9520     5.1660     6.1280    11.1040     2.2790 
  158.7500    -8.3010    76.0440     4.6710     5.4090     6.5520     2.2820 
  158.8750    -8.1240    78.8400     4.3030     4.9050     5.6260     2.2830 
  159.0000    -8.1430    81.0950     4.2610     4.8480     6.1450     2.2710 
  159.1250    -8.5340    80.3150     4.5990     5.2830     6.9480     2.2440 
  159.2500    -9.3340    75.9350     5.2850     6.1240     8.1590     2.2060 
  159.3750   -10.3550    72.0260     6.1850     7.1620     8.7180     2.1660 
  159.5000   -11.3230    71.2180     6.9790     7.9830     8.6100     2.1360 
  159.6250   -12.0400    70.2690     7.4960     8.4410     8.5910     2.1190 
  159.7500   -12.5160    68.2910     7.6810     8.5340     8.3950     2.1160 
  159.8750   -12.9070    67.6140     7.6660     8.4420     8.3150     2.1210 
  160.0000   -13.2110    67.7860     7.6000     8.3380     8.3780     2.1280 
  160.1250   -13.3750    66.4480     7.5520     8.2810     8.4650     2.1330 
  160.2500   -13.5000    63.4510     7.5230     8.2800     8.6640     2.1340 
  160.3750   -13.3740    61.9840     7.4910     8.3020     8.8330     2.1370 
  160.5000   -12.7030    64.1440     7.4100     8.2760     8.8050     2.1430 
  160.6250   -11.6080    66.6620     7.1900     8.0650     8.7280     2.1540 
  160.7500   -10.3900    67.1860     6.8370     7.6780     8.7680     2.1690 
  160.8750    -9.4570    67.9220     6.6210     7.4380     8.6000     2.1920 
  161.0000    -9.1300    71.2770     6.7520     7.6080     7.9680     2.2230 
  161.1250    -9.2670    75.2500     7.4240     8.4480     9.1900     2.2610 
  161.2500    -9.6770    76.4890     8.8500    10.2360    19.0850     2.2990 
  161.3750   -10.2500    76.0180    11.2230    13.2030    29.6630     2.3300 
  161.5000   -10.6450    74.7140    14.3020    16.7050    26.9950     2.3490 
  161.6250   -10.6290    73.4910    16.7810    19.2330    20.5300     2.3590 
  161.7500   -10.4170    73.5160    18.0310    20.1580    20.0480     2.3650 
  161.8750   -10.2590    73.3990    17.8600    19.4400    23.9050     2.3710 
  162.0000   -10.1290    71.8960    17.2240    18.4920    25.0710     2.3760 
  162.1250   -10.1610    70.3430    16.9760    18.1330    20.1220     2.3750 
  162.2500   -10.4590    70.6110    17.0960    18.2860    18.7150     2.3690 
  162.3750   -10.8450    71.1700    17.1580    18.3730    22.6600     2.3620 
  162.5000   -11.1770    70.6980    16.5660    17.6750    23.9080     2.3580 
  162.6250   -11.5230    70.8510    15.2620    16.1730    21.0450     2.3580 
  162.7500   -11.7370    71.5810    13.8390    14.5060    16.9030     2.3570 
  162.8750   -11.9400    71.1100    12.7680    13.2800    14.1610     2.3570 
  163.0000   -12.1910    69.9380    12.7380    13.3400    15.8870     2.3640 
  163.1250   -12.4620    68.8200    13.9920    14.9680    22.7490     2.3830 
  163.2500   -12.8680    68.6470    16.7920    18.3580    38.2390     2.4120 
  163.3750   -13.4310    70.7550    20.1000    22.1850    52.7640     2.4390 
  163.5000   -13.8650    74.7760    22.4600    24.6440    46.5630     2.4500 
  163.6250   -13.6780    75.6080    22.8880    24.8200    29.9540     2.4400 
  163.7500   -12.9880    73.2420    21.1700    22.6730    21.1380     2.4150 
  163.8750   -12.2270    73.4520    19.0330    20.2180    19.3190     2.3890 
  164.0000   -11.7400    77.6560    17.3450    18.4490    19.2610     2.3700 
  164.1250   -11.7720    79.1040    16.5650    17.7010    19.0280     2.3610 
  164.2500   -12.2510    76.3140    16.5290    17.7320    18.9400     2.3620 
  164.3750   -12.9450    73.5980    16.9930    18.2620    20.4170     2.3690 
  164.5000   -13.6310    73.6460    17.7630    19.0960    23.0740     2.3780 
  164.6250   -14.0430    75.4550    18.5500    19.9260    24.4410     2.3870 
  164.7500   -13.8550    75.6190    19.2090    20.5600    24.9780     2.3930 
  164.8750   -13.4050    72.2100    19.7530    21.0160    25.1860     2.3940 
  165.0000   -12.9490    67.7640    20.1150    21.2500    24.9010     2.3900 
  165.1250   -12.4820    66.7540    20.2690    21.2980    23.5990     2.3840 
  165.2500   -12.0480    69.3050    20.2510    21.2640    22.0990     2.3760 
  165.3750   -11.7560    72.1320    20.0650    21.0940    21.8120     2.3710 
  165.5000   -11.6460    73.7680    19.0310    19.9230    22.2110     2.3680 
  165.6250   -11.5900    74.5710    17.1860    17.9410    22.9840     2.3680 
  165.7500   -11.5460    75.6060    15.0690    15.6790    21.7830     2.3690 
  165.8750   -11.4610    77.6400    13.3180    13.8890    16.8560     2.3700 
  166.0000   -11.3520    80.3410    12.8790    13.6180    14.5510     2.3720 
  166.1250   -11.3210    80.8680    13.8750    15.0320    19.9200     2.3780 
  166.2500   -11.4670    78.6770    15.9120    17.5380    25.8350     2.3890 
  166.3750   -11.7720    76.5050    18.6890    20.8450    25.9780     2.4010 
  166.5000   -12.2380    76.2330    21.6280    24.1200    24.2120     2.4110 
  166.6250   -12.5920    77.3390    23.9640    26.6870    28.6820     2.4180 
  166.7500   -12.4600    75.7990    25.5550    28.4850    41.3550     2.4240 
  166.8750   -11.8560    73.8910    26.3250    29.3860    48.6550     2.4300 
  167.0000   -11.0640    75.2410    26.0230    29.0640    46.0220     2.4380 
  167.1250   -10.4010    78.0290    24.7580    27.5090    42.1750     2.4420 
  167.2500   -10.2870    78.3690    22.7870    25.1600    35.1900     2.4400 
  167.3750   -10.7090    75.8960    20.8360    22.8750    27.3780     2.4300 
  167.5000   -11.3140    74.9430    19.6190    21.4960    24.5510     2.4180 
  167.6250   -11.9330    73.9600    19.2350    21.1700    25.0040     2.4100 
  167.7500   -12.2160    70.6150    19.8570    21.9670    26.1900     2.4110 
  167.8750   -12.0440    66.6480    21.0990    23.4320    25.2450     2.4250 
  168.0000   -11.5440    64.3110    22.4210    24.9620    27.8590     2.4500 
  168.1250   -11.1250    65.2150    23.4800    26.1880    39.3820     2.4770 
  168.2500   -10.8770    68.2580    23.8300    26.5630    45.3390     2.4920 
  168.3750   -10.6700    72.1210    22.4710    24.8320    37.0540     2.4880 
  168.5000   -10.6840    74.1400    19.5010    21.3150    27.1280     2.4650 
  168.6250   -10.8330    71.9960    15.8000    16.9910    23.5260     2.4320 
  168.7500   -10.9880    67.6970    11.9440    12.6270    20.4040     2.3940 
  168.8750   -11.1610    65.8790     9.4610     9.9170    14.2460     2.3510 
