~V
VERS. 2.00: Ver 2.00
~W
STRT.M 60.0000:
STOP.M 291.0000:
STEP.M 0.1250:
NULL. -999.2500:
UWI. F12014:
~C
DEPT.M :
SP.MV :
GR.API :
RI. :
RML.OHMM :
RXO.OHMM :
DEN.GM/CC :
~A
# ...
  240.2500   -25.8140    59.3830    10.2000    12.0760    10.3970     2.1840 
  240.3750   -25.7610    61.2560    10.1790    11.9810    10.4420     2.1810 
  240.5000   -25.6200    63.3350    10.2020    11.9750    10.5670     2.1790 
  240.6250   -25.5470    63.9880    10.2410    11.9910    10.7020     2.1780 
  240.7500   -25.3910    65.2400    10.2780    12.0090    10.7550     2.1790 
  240.8750   -24.8840    65.2410    10.2630    11.9740    10.7760     2.1830 
  241.0000   -24.3340    64.9790    10.1740    11.8530    10.7450     2.1900 
  241.1250   -24.2200    62.2030     9.9860    11.6080    10.6710     2.1950 
  241.2500   -24.3150    59.3630     9.7410    11.3150    10.4770     2.1940 
  241.3750   -24.5330    56.8980     9.4860    11.0170    10.2390     2.1890 
  241.5000   -24.7270    56.0080     9.2520    10.7770     9.9500     2.1850 
  241.6250   -24.8530    55.5480     9.0860    10.6090     9.7760     2.1830 
  241.7500   -25.0780    55.2160     8.9410    10.4260     9.7730     2.1800 
  241.8750   -25.0510    56.5580     8.8250    10.2560     9.9110     2.1760 
  242.0000   -24.7120    56.4490     8.7410    10.1450    10.3000     2.1730 
  242.1250   -24.4720    55.3450     8.7430    10.1740    10.8880     2.1720 
  242.2500   -24.5020    52.6450     8.8260    10.3090    11.4070     2.1700 
  242.3750   -24.4030    53.0890     8.9500    10.4790    11.6650     2.1700 
  242.5000   -24.0860    54.1280     9.0520    10.5930    11.7410     2.1720 
  242.6250   -23.5640    55.5210     9.1340    10.6810    11.7120     2.1760 
  242.7500   -22.8580    55.8050     9.2380    10.8010    11.6580     2.1800 
  242.8750   -21.2670    59.7350     9.3600    10.9520    11.8570     2.1990 
  243.0000   -20.2490    64.5650     9.5150    11.1690    12.3670     2.2360 
  243.1250   -19.4290    68.0570     9.6830    11.4100    12.7190     2.2780 
  243.2500   -18.9440    66.2210     9.8150    11.5960    12.5860     2.2910 
  243.3750   -18.6960    63.6990     9.8990    11.7060    12.1610     2.2720 
  243.5000   -18.5510    63.1870     9.8690    11.6600    12.0340     2.2360 
  243.6250   -18.6200    64.0380     9.7690    11.5490    12.5760     2.2070 
  243.7500   -18.9750    62.4910     9.6690    11.4850    13.3370     2.1880 
  243.8750   -19.4440    60.4000     9.5740    11.4420    13.5460     2.1780 
  244.0000   -20.0310    59.3820     9.4490    11.3500    13.0110     2.1770 
  244.1250   -20.9010    60.5150     9.2390    11.1250    12.2760     2.1820 
  244.2500   -21.8850    60.9660     8.9660    10.7860    11.6630     2.1870 
  244.3750   -22.8390    60.3690     8.6840    10.4230    11.1470     2.1850 
  244.5000   -23.4490    59.8450     8.4830    10.1690    10.8500     2.1810 
  244.6250   -23.8230    59.1690     8.3960    10.0590    10.8460     2.1750 
  244.7500   -24.0600    58.2670     8.4160    10.0820    11.0320     2.1680 
  244.8750   -24.2660    56.8890     8.5190    10.2040    11.2190     2.1570 
  245.0000   -24.5360    56.4940     8.6570    10.3670    11.2710     2.1450 
  245.1250   -24.8450    56.5280     8.7830    10.5170    11.2050     2.1380 
  245.2500   -24.8830    57.2460     8.8620    10.6160    11.0780     2.1390 
  245.3750   -25.1810    57.0940     8.8820    10.6570    10.7990     2.1400 
  245.5000   -25.6650    57.3290     8.8420    10.6340    10.1650     2.1310 
  245.6250   -26.3860    57.3080     8.7730    10.5830     9.3310     2.1100 
  245.7500   -27.2140    56.6060     8.7240    10.5510     8.7870     2.0870 
  245.8750   -27.8820    55.1080     8.6950    10.5300     8.6910     2.0730 
  246.0000   -28.3890    53.6070     8.6740    10.5270     8.6980     2.0760 
  246.1250   -28.8280    54.2570     8.6690    10.5300     8.5320     2.0950 
  246.2500   -29.1600    55.8600     8.6530    10.5170     8.4920     2.1190 
  246.3750   -29.5370    57.1600     8.6370    10.4880     8.9420     2.1390 
  246.5000   -29.9110    56.8130     8.6470    10.4840     9.6290     2.1540 
  246.6250   -30.2850    56.2880     8.7020    10.5300     9.9650     2.1670 
  246.7500   -30.7120    56.5330     8.7920    10.6300     9.9890     2.1760 
  246.8750   -31.1240    56.3550     8.8810    10.7230    10.1500     2.1820 
  247.0000   -31.8910    55.9720     8.8760    10.6950    10.3200     2.1810 
  247.1250   -32.8640    55.2800     8.7410    10.4970    10.1130     2.1720 
  247.2500   -33.9390    54.8500     8.5140    10.1740     9.5520     2.1580 
  247.3750   -34.9470    53.6670     8.2910     9.8540     8.9340     2.1470 
  247.5000   -35.8160    51.4530     8.1410     9.6450     8.4290     2.1470 
  247.6250   -36.5030    49.6790     8.1300     9.6310     8.2250     2.1510 
  247.7500   -37.0600    49.6210     8.2630     9.7880     8.4890     2.1550 
  247.8750   -37.5560    51.9170     8.4800    10.0370     8.9550     2.1540 
  248.0000   -38.0210    55.6880     8.7300    10.3190     9.3320     2.1520 
  248.1250   -38.5250    59.0830     8.9420    10.5520     9.5710     2.1530 
  248.2500   -39.0700    60.9650     9.0730    10.6840     9.7080     2.1610 
  248.3750   -39.5170    61.3670     9.1550    10.7380     9.9610     2.1660 
  248.5000   -39.6500    61.1430     9.2110    10.7480    10.4160     2.1670 
  248.6250   -39.4480    60.1740     9.2510    10.7440    10.7710     2.1630 
  248.7500   -38.8870    57.8070     9.2690    10.7470    10.6560     2.1690 
  248.8750   -38.0210    53.6290     9.2330    10.7030    10.0830     2.1710 
  249.0000   -36.9990    51.2430     9.1140    10.5500     9.4370     2.1490 
  249.1250   -35.9230    51.1040     8.9450    10.3270     9.0860     2.0740 
  249.2500   -34.8240    54.1060     8.7820    10.0970     9.2090     1.9770 
  249.3750   -33.8480    56.1280     8.6630     9.9360     9.6340     1.9180 
  249.5000   -33.2870    58.3710     8.6320     9.9110     9.9350     1.9470 
  249.6250   -33.1380    58.9200     8.6710     9.9610     9.7890     2.0110 
  249.7500   -33.1920    59.0860     8.7200     9.9810     9.1220     2.0460 
  249.8750   -33.4970    57.3790     8.7380     9.9470     8.1890     2.0340 
  250.0000   -33.9360    55.0350     8.6850     9.8210     7.3990     2.0110 
  250.1250   -34.5420    55.3100     8.6440     9.7300     7.0370     2.0110 
  250.2500   -35.1870    57.4250     8.7030     9.7810     7.0680     2.0420 
  250.3750   -35.6790    61.2320     8.8570     9.9500     7.2270     2.0920 
  250.5000   -35.9120    63.2910     9.0720    10.1560     7.4830     2.1470 
  250.6250   -36.0450    64.1880     9.2720    10.3090     7.9250     2.1960 
  250.7500   -35.9230    63.2680     9.5110    10.4590     8.3460     2.2150 
  250.8750   -35.8090    61.2570     9.8570    10.6660     8.3970     2.2030 
  251.0000   -35.8240    58.5170    10.3040    10.9660     8.2340     2.1750 
  251.1250   -36.1290    55.9720    10.8610    11.3920     8.5150     2.1670 
  251.2500   -36.9150    54.2040    11.3810    11.7800     9.3500     2.1830 
  251.3750   -37.9140    52.9360    11.6720    11.9550     9.9500     2.1920 
  251.5000   -38.8140    52.4490    11.6060    11.7910     9.8950     2.1740 
  251.6250   -39.3560    53.3670    11.2070    11.3390     9.6180     2.1480 
  251.7500   -39.4170    55.7880    10.5450    10.7140     9.5980     2.1370 
  251.8750   -39.4100    57.8960     9.8650    10.1400     9.9720     2.1410 
  252.0000   -39.2490    57.1020     9.2930     9.6910    10.3740     2.1390 
  252.1250   -38.7760    54.2990     8.8560     9.3330    10.0760     2.1140 
  252.2500   -38.0590    51.3790     8.6700     9.1400     8.9340     2.0450 
  252.3750   -36.9300    49.4750     9.2660     9.7690     7.9140     1.9480 
  252.5000   -35.4840    48.8110    10.9160    11.5480     8.0940     1.8860 
  252.6250   -33.8480    48.0150    15.2510    16.4060    13.5940     1.9270 
  252.7500   -32.2230    48.4630    26.4280    28.6920    45.2150     2.0890 
  252.8750   -30.6510    48.2480    43.4710    48.2020   110.6390     2.2980 
  253.0000   -29.1860    48.8320    76.0780    87.4540   195.0210     2.4760 
