~V
VERS. 2.00: Ver 2.00
~W
STRT.M 60.0000:
STOP.M 291.0000:
STEP.M 0.1250:
NULL. -999.2500:
UWI. F12014:
~C
DEPT.M :
SP.MV :
GR.API :
RI. :
RML.OHMM :
RXO.OHMM :
DEN.GM/CC :
~A
# ...
   72.8750     2.7120    68.1540    10.3960    13.3220     7.5520     2.3100 
   73.0000     3.4630    67.0500    10.7270    13.8500     7.6020     2.2820 
   73.1250     4.2910    69.0060    10.4620    13.4370     7.8860     2.2120 
   73.2500     5.0540    73.1690     9.8510    12.5120     8.4050     2.1580 
   73.3750     5.6950    74.8980     9.0920    11.4430     9.0350     2.1300 
   73.5000     6.2440    73.7690     8.3810    10.4860     9.4090     2.1140 
   73.6250     6.6030    70.2320     8.0050     9.9900     9.2150     2.1000 
   73.7500     6.8510    67.4110     7.7640     9.6790     8.5040     2.0920 
   73.8750     6.7480    64.9090     7.5360     9.4100     7.7740     2.0900 
   74.0000     5.9770    64.3540     7.3640     9.2550     7.3610     2.0880 
   74.1250     4.5430    66.8070     7.2860     9.2680     7.2120     2.0890 
   74.2500     2.8150    71.0600     7.2960     9.3660     7.1760     2.0890 
   74.3750     1.3080    75.2360     7.3270     9.4810     7.0980     2.0880 
   74.5000     0.3740    76.6490     7.3180     9.5580     6.9400     2.0820 
   74.6250    -0.1570    77.0270     7.2840     9.5390     6.7660     2.0740 
   74.7500    -0.2900    75.6160     7.2200     9.4430     6.5940     2.0680 
   74.8750    -0.0420    74.2580     7.1570     9.3460     6.4190     2.0660 
   75.0000     0.0000    72.7410     7.1300     9.2880     6.3290     2.0720 
   75.1250    -0.2180    71.0410     7.1310     9.2510     6.3790     2.0810 
   75.2500    -0.5990    68.7940     7.1540     9.2450     6.4480     2.0880 
   75.3750    -1.0260    66.3430     7.1810     9.2760     6.3810     2.0910 
   75.5000    -1.4040    65.3020     7.2070     9.3620     6.1740     2.0860 
   75.6250    -1.6210    66.4160     7.2280     9.4760     6.0050     2.0810 
   75.7500    -1.8430    68.4680     7.2460     9.5780     6.0020     2.0740 
   75.8750    -2.0180    68.8900     7.2660     9.6470     6.0960     2.0700 
   76.0000    -2.1400    66.2610     7.2960     9.6650     6.1970     2.0620 
   76.1250    -2.1100    63.3220     7.3350     9.6520     6.2870     2.0590 
   76.2500    -2.0870    61.9760     7.3920     9.6420     6.4310     2.0650 
   76.3750    -2.1100    62.4780     7.4360     9.6700     6.6320     2.0830 
   76.5000    -2.3270    63.1880     7.4660     9.7320     6.7790     2.0960 
   76.6250    -2.7730    65.0270     7.4880     9.8210     6.7140     2.0980 
   76.7500    -3.4300    67.0810     7.4990     9.9290     6.4220     2.0880 
   76.8750    -4.6120    69.9000     7.4970    10.0260     6.1330     2.0790 
   77.0000    -6.2490    71.8530     7.4510    10.0480     6.0770     2.0770 
   77.1250    -8.2440    74.1950     7.3050     9.9180     6.2160     2.0920 
   77.2500   -10.3230    76.0530     7.0230     9.5390     6.3740     2.1200 
   77.3750   -12.1880    79.3430     6.6340     8.9900     6.4580     2.1550 
   77.5000   -13.1800    83.3950     6.1930     8.3760     6.4280     2.1830 
   77.6250   -13.1040    87.6790     5.8050     7.8430     6.2930     2.1970 
   77.7500   -11.6810    90.0210     5.5680     7.5510     6.1400     2.1890 
   77.8750    -9.4340    90.1610     5.5360     7.5620     6.1180     2.1620 
   78.0000    -6.4620    87.8790     5.7940     8.0120     6.2680     2.1270 
   78.1250    -3.6510    83.9050     6.2980     8.8120     6.5320     2.1000 
   78.2500    -2.0330    78.0150     6.9820     9.8230     6.9810     2.0900 
   78.3750    -1.8880    71.8580     7.6110    10.6970     7.6380     2.0840 
   78.5000    -2.6320    68.0390     8.0110    11.2020     8.1540     2.0770 
   78.6250    -3.5440    66.3950     8.1140    11.2420     8.0500     2.0670 
   78.7500    -4.0860    64.1120     7.8700    10.8200     7.3700     2.0630 
   78.8750    -4.3070    61.1790     7.5500    10.3390     6.7390     2.0590 
   79.0000    -4.4820    59.1510     7.2470     9.9340     6.5460     2.0590 
   79.1250    -4.6650    59.9090     7.0620     9.7430     6.6600     2.0640 
   79.2500    -4.7420    62.3460     7.0160     9.7450     6.8040     2.0750 
   79.3750    -4.7420    64.8970     7.0060     9.7890     6.7330     2.0830 
   79.5000    -4.9060    65.8290     7.0350     9.8830     6.4270     2.0830 
   79.6250    -5.3600    64.5830     7.0940    10.0250     6.1730     2.0790 
   79.7500    -6.2600    61.7610     7.2180    10.2220     6.1890     2.0810 
   79.8750    -7.1910    59.8000     7.3930    10.3690     6.3570     2.0910 
   80.0000    -7.8430    59.6090     7.5580    10.3640     6.5690     2.1040 
   80.1250    -8.0070    62.3160     7.6420    10.2520     6.8630     2.1090 
   80.2500    -7.5230    64.7590     7.5560    10.1310     7.1760     2.1020 
   80.3750    -6.4960    65.4180     7.3690    10.0770     7.3240     2.0960 
   80.5000    -5.6150    62.2300     7.1740    10.0930     7.2820     2.0930 
   80.6250    -5.0850    59.6870     7.0380    10.1000     7.2850     2.0890 
   80.7500    -5.0350    58.3220     6.9830    10.0660     7.4410     2.0830 
   80.8750    -5.1990    59.3870     6.9660    10.0210     7.5990     2.0790 
   81.0000    -5.3630    59.1100     6.9580     9.9750     7.6060     2.0790 
   81.1250    -5.4440    59.9380     6.9510     9.9550     7.4820     2.0830 
   81.2500    -5.1460    61.8290     6.9490     9.9890     7.3510     2.0890 
   81.3750    -4.4900    64.4430     6.9480    10.0390     7.2880     2.0900 
   81.5000    -4.0630    66.4180     6.9430    10.0800     7.2910     2.0930 
   81.6250    -4.0780    66.7430     6.9200    10.0750     7.3010     2.1020 
   81.7500    -4.5470    69.7690     6.8260     9.9430     7.2260     2.1260 
   81.8750    -5.0540    73.5530     6.6060     9.6180     7.0120     2.1540 
   82.0000    -5.2530    79.6640     6.2450     9.0790     6.6810     2.1740 
   82.1250    -4.6040    84.5010     5.8120     8.4440     6.2910     2.1830 
   82.2500    -3.5740    89.0490     5.4380     7.9020     5.9440     2.1800 
   82.3750    -2.8340    91.5850     5.1630     7.5210     5.8080     2.1760 
   82.5000    -2.4180    93.3080     4.9940     7.2920     5.8870     2.1810 
   82.6250    -1.8650    94.1250     4.9020     7.1570     5.9050     2.1970 
   82.7500    -1.0990    95.1150     4.8260     7.0050     5.7080     2.2120 
   82.8750    -0.6220    94.6880     4.7800     6.8670     5.4860     2.2200 
   83.0000    -0.5450    95.1050     4.7600     6.7850     5.4100     2.2210 
   83.1250    -0.4160    96.3230     4.7810     6.7870     5.4800     2.2300 
   83.2500    -0.1940    98.9840     4.8660     6.9090     5.7680     2.2450 
   83.3750    -0.1100   102.2130     4.9780     7.0590     6.1690     2.2640 
   83.5000     0.0760   104.0330     5.0780     7.1720     6.3040     2.2710 
   83.6250     0.0650   103.1340     5.1150     7.2220     6.0970     2.2670 
   83.7500    -0.0760   100.0640     5.0860     7.2230     5.8120     2.2530 
   83.8750    -0.1410    96.8950     4.9910     7.1410     5.7060     2.2420 
   84.0000    -0.2210    95.2220     4.8340     6.9510     5.7480     2.2380 
   84.1250    -0.3550    94.4950     4.6800     6.7220     5.7140     2.2400 
   84.2500    -0.5450    95.0420     4.6090     6.6130     5.5860     2.2410 
   84.3750    -0.8810    97.3000     4.6810     6.7600     5.6110     2.2500 
   84.5000    -1.3240    97.6740     5.1210     7.5600     6.0590     2.2840 
   84.6250    -1.9410    96.1330     6.1310     9.3440     7.5830     2.3560 
   84.7500    -2.3840    94.2610     7.3970    11.4540    12.2130     2.4330 
   84.8750    -2.9560    92.5810     8.3400    12.7350    18.9060     2.4650 
   85.0000    -3.7880    92.1400     8.5950    12.6920    21.8300     2.4200 
   85.1250    -4.7190    89.6570     7.9490    11.1710    17.8770     2.3400 
   85.2500    -5.5270    89.1400     6.8590     9.2590    10.8940     2.2750 
   85.3750    -6.2750    89.0730     5.9280     7.9070     6.9090     2.2380 
   85.5000    -7.0110    90.4950     5.4520     7.3810     6.4180     2.2110 
   85.6250    -7.3580    89.3800     5.4170     7.4180     6.4930     2.1820 
