~V
VERS. 2.00: Ver 2.00
~W
STRT.M 60.0000:
STOP.M 291.0000:
STEP.M 0.1250:
NULL. -999.2500:
UWI. F12014:
~C
DEPT.M :
SP.MV :
GR.API :
RI. :
RML.OHMM :
RXO.OHMM :
DEN.GM/CC :
~A
# ...
  137.2500   -10.3150    82.7620    10.4010    12.0020    18.4680     2.4870 
  137.3750   -10.5090    79.6120    13.4510    15.5550    23.8860     2.5260 
  137.5000   -10.8410    77.8520    15.2410    17.3070    22.7990     2.5000 
  137.6250   -11.3870    76.1960    14.7680    16.3490    17.0090     2.4200 
  137.7500   -11.9170    73.3310    12.6170    13.5250    11.2450     2.3070 
  137.8750   -12.0890    71.9480     9.8850    10.2920     8.0690     2.2000 
  138.0000   -12.1570    71.9550     8.2830     8.6340     7.1550     2.1260 
  138.1250   -12.2410    70.8250     7.6370     8.0780     7.1370     2.0860 
  138.2500   -12.5810    66.3290     7.5490     8.0920     7.2390     2.0740 
  138.3750   -13.1340    62.3850     7.6660     8.2970     7.2620     2.0800 
  138.5000   -13.6450    62.6500     7.8140     8.4910     7.0960     2.0950 
  138.6250   -13.9660    66.5480     7.9150     8.6040     6.8980     2.1040 
  138.7500   -14.4580    70.3600     7.9540     8.6260     6.9630     2.1040 
  138.8750   -15.2090    73.9420     7.9460     8.5930     7.2120     2.1000 
  139.0000   -16.3420    76.7070     7.8910     8.5100     7.3790     2.1010 
  139.1250   -17.6350    78.6870     7.8020     8.4010     7.3540     2.1030 
  139.2500   -18.6690    78.5960     7.6790     8.2680     7.1830     2.1050 
  139.3750   -19.1760    78.0610     7.5150     8.0900     6.9870     2.1060 
  139.5000   -19.2910    78.3450     7.3640     7.9380     6.8300     2.1120 
  139.6250   -19.0310    78.8640     7.3130     7.9170     6.8100     2.1380 
  139.7500   -18.2530    80.3410     7.4800     8.1680     6.9890     2.2120 
  139.8750   -17.2160    81.2980     7.8580     8.6640     7.1890     2.3270 
  140.0000   -16.3150    81.3650     8.3160     9.2260     7.1960     2.4330 
  140.1250   -15.5300    79.9970     8.6910     9.6530     7.0290     2.4610 
  140.2500   -14.8310    78.0530     8.8440     9.7960     6.8870     2.3870 
  140.3750   -14.4610    75.0040     8.7620     9.6630     6.8440     2.2710 
  140.5000   -14.3240    72.1530     8.5090     9.3620     6.8400     2.1860 
  140.6250   -14.2940    71.2280     8.2460     9.0870     6.8630     2.1480 
  140.7500   -14.5450    72.7880     8.0730     8.9320     6.8740     2.1330 
  140.8750   -15.1710    75.0110     7.9920     8.8830     6.7890     2.1190 
  141.0000   -16.0370    76.1780     7.9200     8.8520     6.5670     2.1120 
  141.1250   -16.8190    76.1030     7.8230     8.8280     6.3260     2.1150 
  141.2500   -17.3410    75.2770     7.7120     8.8220     6.2810     2.1250 
  141.3750   -17.6660    75.5240     7.6450     8.8540     6.5180     2.1320 
  141.5000   -17.5320    76.2250     7.6490     8.9260     6.9270     2.1340 
  141.6250   -17.1240    78.9530     7.7000     9.0160     7.1840     2.1290 
  141.7500   -16.3920    79.4380     7.7890     9.1310     7.1330     2.1230 
  141.8750   -15.5830    78.1830     7.8820     9.2530     6.9900     2.1150 
  142.0000   -14.9190    73.2250     7.9620     9.3450     6.9920     2.1060 
  142.1250   -14.1030    68.7560     8.0140     9.3970     7.1420     2.1000 
  142.2500   -12.6800    66.9740     8.0360     9.4070     7.2190     2.0990 
  142.3750   -10.7150    68.2670     8.0130     9.3730     7.1100     2.1000 
  142.5000    -8.9910    70.8560     7.9560     9.3000     6.8640     2.0940 
  142.6250    -8.6630    71.1690     7.8720     9.2010     6.6030     2.0850 
  142.7500    -8.9640    70.5720     7.7870     9.0990     6.4800     2.0800 
  142.8750    -9.2430    69.5660     7.7210     8.9890     6.4920     2.0800 
  143.0000    -9.4720    69.9540     7.6860     8.8450     6.5500     2.0900 
  143.1250    -9.5630    71.1160     7.6540     8.7010     6.5610     2.1040 
  143.2500    -9.7200    72.9560     7.6320     8.5810     6.4960     2.1160 
  143.3750    -9.8840    74.1530     7.6110     8.5250     6.3940     2.1200 
  143.5000   -10.0780    75.2610     7.5670     8.4890     6.3120     2.1210 
  143.6250   -10.2120    76.4820     7.5150     8.4520     6.3240     2.1210 
  143.7500   -10.2840    78.3630     7.4640     8.4300     6.4090     2.1200 
  143.8750   -10.3570    78.7120     7.4180     8.4190     6.4330     2.1170 
  144.0000   -10.5020    77.5800     7.3860     8.4190     6.3470     2.1150 
  144.1250   -10.5780    74.6090     7.3760     8.4270     6.2630     2.1160 
  144.2500   -10.6050    72.7930     7.3810     8.4340     6.2400     2.1230 
  144.3750   -10.5780    73.6520     7.3890     8.4430     6.2860     2.1420 
  144.5000   -10.7690    77.2520     7.3920     8.4580     6.4010     2.1650 
  144.6250   -11.1040    81.0320     7.3650     8.4490     6.4730     2.1810 
  144.7500   -11.1200    83.8470     7.3210     8.4220     6.3820     2.1730 
  144.8750   -10.9750    85.0400     7.2590     8.3980     6.2040     2.1560 
  145.0000   -11.1460    84.7760     7.1910     8.4120     6.0800     2.1330 
  145.1250   -11.4250    82.1470     7.1180     8.4070     6.0250     2.1120 
  145.2500   -11.8020    79.4380     7.0540     8.3640     6.0120     2.0920 
  145.3750   -12.1880    76.5760     7.0050     8.2770     6.0400     2.0850 
  145.5000   -12.5880    75.6400     6.9690     8.1890     6.0880     2.0860 
  145.6250   -13.0270    76.4380     6.9470     8.1650     6.1320     2.0960 
  145.7500   -13.5040    78.8250     6.9450     8.1940     6.1750     2.1050 
  145.8750   -13.9580    80.8160     6.9630     8.2280     6.2240     2.1130 
  146.0000   -14.2210    81.6860     6.9840     8.2150     6.2800     2.1120 
  146.1250   -14.0950    80.3570     7.0130     8.1770     6.3630     2.1050 
  146.2500   -13.8850    78.8370     7.0320     8.1170     6.5160     2.0940 
  146.3750   -13.7740    79.1490     7.0520     8.0540     6.6980     2.0830 
  146.5000   -13.7520    80.9470     7.1080     8.0540     6.8000     2.0810 
  146.6250   -13.7740    82.5430     7.2080     8.1360     7.0490     2.0900 
  146.7500   -13.7970    81.6610     7.3570     8.3010     8.1130     2.1100 
  146.8750   -13.5840    78.4100     7.5400     8.5520     9.5020     2.1310 
  147.0000   -13.1150    75.2710     7.6080     8.6730     9.6730     2.1480 
  147.1250   -12.6070    72.7290     7.3510     8.4040     8.5130     2.1650 
  147.2500   -11.8020    72.7810     6.5790     7.5270     7.3520     2.1800 
  147.3750   -10.8140    74.8400     5.5650     6.3200     6.8740     2.1600 
  147.5000   -10.2340    79.2860     4.5360     5.1010     6.3450     2.0760 
  147.6250   -10.6310    83.5260     3.8060     4.2370     5.4240     1.9780 
  147.7500   -11.9050    85.5630     3.6070     4.0340     4.6490     1.9550 
  147.8750   -13.7590    85.3710     3.8440     4.3860     4.4760     2.0200 
  148.0000   -16.0060    84.5220     4.5060     5.2530     5.0610     2.1100 
  148.1250   -18.2990    82.5750     5.5430     6.5540     6.1050     2.1650 
  148.2500   -20.4880    79.0920     6.7260     7.9610     7.0840     2.1830 
  148.3750   -22.6240    76.1650     7.7520     9.0600     7.5270     2.2000 
  148.5000   -24.4290    75.5640     8.4420     9.7050     7.4150     2.2270 
  148.6250   -25.6230    75.8100     8.6820     9.7920     7.1840     2.2500 
  148.7500   -26.1420    74.8760     8.5910     9.5430     7.3180     2.2520 
  148.8750   -26.4160    73.7090     8.4450     9.2960     7.8760     2.2380 
  149.0000   -26.5150    73.7540     8.3200     9.1220     8.3770     2.2190 
  149.1250   -26.4470    73.3740     8.1960     8.9770     8.4010     2.2090 
  149.2500   -26.2870    71.9260     8.0670     8.8620     8.0680     2.2030 
  149.3750   -25.8060    70.1910     7.9420     8.7820     7.8580     2.1910 
  149.5000   -25.0470    69.8680     7.8400     8.7360     7.8300     2.1610 
  149.6250   -24.0590    69.6210     7.7900     8.7500     7.7210     2.1300 
  149.7500   -23.0360    69.3300     7.8260     8.8400     7.4830     2.1140 
  149.8750   -22.0370    69.1910     7.8840     8.9270     7.1890     2.1200 
  150.0000   -20.8850    68.7910     7.9330     8.9930     6.9260     2.1350 
