~V
VERS. 2.00: Ver 2.00
~W
STRT.M 66.0000:
STOP.M 299.0000:
STEP.M 0.1250:
NULL. -999.2500:
UWI. F12016:
~C
DEPT.M :
SP.MV :
GR.API :
RI. :
RML.OHMM :
RXO.OHMM :
DEN.GM/CC :
~A
# ...
   78.8750    -9.8340    80.1770     6.9550    10.0600     7.5790     2.1430 
   79.0000   -10.5370    78.8150     7.0270    10.2220     7.9760     2.1460 
   79.1250   -11.2950    77.7160     7.0880    10.3450     8.4560     2.1530 
   79.2500   -11.9240    79.6750     7.1140    10.3740     8.4820     2.1610 
   79.3750   -11.9970    81.3150     7.0970    10.3040     8.2790     2.1690 
   79.5000   -11.5690    79.0350     7.0840    10.2190     8.4170     2.1750 
   79.6250   -11.0300    75.0470     7.3010    10.5460     8.9920     2.1790 
   79.7500   -10.6450    73.7840     7.8490    11.4600    10.0940     2.1800 
   79.8750   -10.4530    74.4650     8.5500    12.6490    11.2290     2.1790 
   80.0000   -10.4410    73.8330     9.1230    13.6000    15.3010     2.1740 
   80.1250   -10.6560    70.9540     9.2690    13.7780    30.4850     2.1650 
   80.2500   -10.9370    67.9860     8.8970    13.0530    38.6270     2.1530 
   80.3750   -11.1750    65.6790     8.1380    11.7290    23.6690     2.1380 
   80.5000   -11.2880    63.8970     7.3280    10.4210     8.6850     2.1250 
   80.6250   -11.2720    62.2180     6.6660     9.4570     8.0520     2.1150 
   80.7500   -11.2910    61.5120     6.3580     9.1030     8.1850     2.1110 
   80.8750   -11.4420    62.6590     6.3670     9.2270     8.4380     2.1100 
   81.0000   -11.7280    64.1470     6.4640     9.4390     8.4370     2.1120 
   81.1250   -12.1400    63.4960     6.5370     9.5650     8.1510     2.1150 
   81.2500   -12.5480    60.7410     6.5650     9.6060     7.9530     2.1180 
   81.3750   -12.5330    59.8140     6.5750     9.6170     8.0220     2.1210 
   81.5000   -12.0730    64.9690     6.5740     9.6090     8.3160     2.1220 
   81.6250   -11.3520    72.9000     6.5760     9.6150     8.7250     2.1220 
   81.7500   -10.5810    78.5610     6.5770     9.6250     8.7990     2.1180 
   81.8750   -10.1110    79.1170     6.5810     9.6320     8.4200     2.1110 
   82.0000   -10.1070    75.8420     6.5820     9.6420     8.1470     2.1040 
   82.1250   -10.4800    71.8240     6.5670     9.6430     8.2020     2.1000 
   82.2500   -11.1500    69.3220     6.5500     9.6600     8.2590     2.1000 
   82.3750   -11.7040    68.8020     6.5390     9.7050     8.0530     2.1030 
   82.5000   -11.7880    70.0020     6.5400     9.7620     7.7400     2.1070 
   82.6250   -11.3640    70.6000     6.5520     9.8210     7.6810     2.1090 
   82.7500   -10.8060    69.1380     6.5730     9.8820     7.8130     2.1080 
   82.8750   -10.3470    66.6580     6.5950     9.9490     7.8780     2.1060 
   83.0000    -9.9600    65.6920     6.6230    10.0220     7.8550     2.1050 
   83.1250    -9.7290    66.7190     6.6440    10.0710     7.9000     2.1050 
   83.2500    -9.7120    67.1680     6.6570    10.0990     8.1810     2.1070 
   83.3750    -9.8240    65.8750     6.6620    10.0940     8.3900     2.1110 
   83.5000    -9.9750    65.2150     6.6560    10.0950     8.0770     2.1150 
   83.6250   -10.1830    64.5850     6.6470    10.0930     7.8410     2.1190 
   83.7500   -10.3910    63.5150     6.6320    10.0950     7.8540     2.1220 
   83.8750   -10.6100    61.9980     6.6160    10.1070     7.8750     2.1240 
   84.0000   -10.9930    62.4520     6.6060    10.0810     8.0630     2.1260 
   84.1250   -11.4440    65.1640     6.5900    10.0590     8.2650     2.1300 
   84.2500   -11.9760    67.7490     6.5640    10.0220     8.1500     2.1350 
   84.3750   -12.5930    69.7950     6.5320     9.9950     7.9480     2.1410 
   84.5000   -12.9770    72.1740     6.4910     9.9800     7.8660     2.1440 
   84.6250   -12.8770    75.4440     6.4550     9.9750     7.7240     2.1430 
   84.7500   -12.2240    77.3950     6.4170     9.9660     7.4780     2.1380 
   84.8750   -11.3480    78.3240     6.3760     9.9560     7.3720     2.1300 
   85.0000   -10.7730    78.6210     6.3420     9.9510     7.4970     2.1240 
   85.1250   -10.7540    77.4170     6.3060     9.9150     7.5330     2.1200 
   85.2500   -11.2980    75.2330     6.2750     9.8060     7.3350     2.1210 
   85.3750   -12.0620    74.3550     6.2460     9.6200     7.1140     2.1230 
   85.5000   -12.7130    75.2680     6.2240     9.3670     7.0120     2.1240 
   85.6250   -12.8820    76.6280     6.2010     9.1030     7.0110     2.1250 
   85.7500   -12.3620    77.8580     6.1880     8.8890     7.0430     2.1250 
   85.8750   -11.5260    77.8710     6.1800     8.6970     7.0770     2.1250 
   86.0000   -10.7730    76.1420     6.1740     8.5420     7.1700     2.1240 
   86.1250   -10.1790    75.2900     6.1670     8.4120     7.3130     2.1210 
   86.2500    -9.8180    76.3790     6.1680     8.2820     7.4950     2.1180 
   86.3750    -9.7310    76.4890     6.1670     8.1460     7.5980     2.1150 
   86.5000    -9.8570    75.6120     6.1720     8.0240     7.4870     2.1120 
   86.6250    -9.9890    76.0470     6.1860     7.9220     7.4600     2.1100 
   86.7500   -10.0660    76.4890     6.2130     7.8530     7.6560     2.1080 
   86.8750   -10.0120    74.3830     6.2640     7.8190     7.8950     2.1070 
   87.0000    -9.8510    70.2350     6.3330     7.8160     8.0800     2.1040 
   87.1250    -9.8150    66.4240     6.4130     7.8180     8.1800     2.1010 
   87.2500    -9.8600    63.4260     6.4560     7.8000     8.2310     2.0990 
   87.3750    -9.9200    62.9330     6.3540     7.5770     8.2180     2.1030 
   87.5000   -10.1080    68.0330     6.0490     7.1180     8.0050     2.1200 
   87.6250   -10.2960    76.0540     5.5900     6.4860     7.4960     2.1470 
   87.7500   -10.1290    83.8910     5.0220     5.7690     6.6160     2.1790 
   87.8750    -9.4340    90.9120     4.4910     5.1390     5.7430     2.2090 
   88.0000    -8.2590    98.5760     4.0380     4.6440     5.2700     2.2330 
   88.1250    -7.0430   104.6730     3.7230     4.3480     5.0650     2.2500 
   88.2500    -6.4310   105.7510     3.5250     4.1860     4.9660     2.2580 
   88.3750    -6.5070   102.6550     3.3990     4.0780     4.9240     2.2540 
   88.5000    -6.9480    98.7990     3.3010     3.9580     4.9640     2.2430 
   88.6250    -7.5070    97.1030     3.2150     3.8220     4.7400     2.2340 
   88.7500    -7.8900    98.8940     3.2130     3.7590     4.5170     2.2360 
   88.8750    -7.8150   101.4460     3.3150     3.8180     4.8840     2.2500 
   89.0000    -7.3860   100.8520     3.7590     4.3100     5.6070     2.2710 
   89.1250    -7.0860    96.9080     4.7980     5.5940     6.5290     2.2990 
   89.2500    -7.0280    90.3990     6.3170     7.5370    12.9920     2.3360 
   89.3750    -7.0750    81.4860     7.7730     9.4270    30.7750     2.3790 
   89.5000    -7.2280    71.7210     8.7120    10.5910    43.8300     2.4110 
   89.6250    -7.3770    67.1640     8.5630    10.2600    32.9360     2.4190 
   89.7500    -7.5480    71.7880     7.5460     8.8320    13.9040     2.3960 
   89.8750    -7.8640    80.2080     6.3340     7.2360     7.4810     2.3580 
   90.0000    -8.1780    86.8630     5.2660     5.9480     7.7580     2.3210 
   90.1250    -8.4170    90.0010     4.7770     5.4470     7.0440     2.2900 
   90.2500    -8.5950    91.8620     4.6800     5.3940     6.4770     2.2640 
   90.3750    -8.8740    93.1250     4.7820     5.5490     6.3790     2.2400 
   90.5000    -9.2500    94.3850     5.0260     5.8610     6.5690     2.2200 
   90.6250    -9.7760    94.9710     5.4080     6.3460     7.0260     2.2020 
   90.7500   -10.3250    94.1570     5.7810     6.7990     7.4630     2.1870 
   90.8750   -10.4840    91.8350     5.9480     6.9570     7.6900     2.1760 
   91.0000   -10.0240    88.9900     5.8460     6.7850     7.4510     2.1720 
   91.1250    -9.1310    87.8120     5.5490     6.3640     6.5930     2.1770 
   91.2500    -8.1070    90.5390     5.1690     5.8830     5.7390     2.1920 
   91.3750    -7.4420    94.8920     4.8530     5.5280     5.7340     2.2110 
   91.5000    -7.3910    98.3000     4.6530     5.3550     6.3750     2.2280 
   91.6250    -7.7570   101.8440     4.5710     5.3390     6.6450     2.2400 
