~V
VERS. 2.00: Ver 2.00
~W
STRT.M 60.0000:
STOP.M 291.0000:
STEP.M 0.1250:
NULL. -999.2500:
UWI. F12014:
~C
DEPT.M :
SP.MV :
GR.API :
RI. :
RML.OHMM :
RXO.OHMM :
DEN.GM/CC :
~A
# ...
  188.7500    -6.6720    95.6870     3.7440     5.0380     4.3840     2.1670 
  188.8750    -7.0150    93.4950     3.9010     5.2570     4.4040     2.1500 
  189.0000    -7.5490    90.6280     4.0130     5.3670     4.2680     2.1560 
  189.1250    -8.1140    89.7890     4.0090     5.2890     4.2130     2.1820 
  189.2500    -8.6710    92.8830     3.8910     5.0660     4.2790     2.2050 
  189.3750    -9.1360    95.8290     3.7280     4.8000     4.2750     2.2270 
  189.5000    -9.4990    96.1420     3.5760     4.5780     4.1600     2.2440 
  189.6250    -9.6780    94.8420     3.4780     4.4390     4.0580     2.2590 
  189.7500    -9.7960    93.9890     3.4550     4.4070     3.9870     2.2700 
  189.8750    -9.8230    93.0540     3.4700     4.4250     3.9260     2.2730 
  190.0000   -10.0670    91.9560     3.4950     4.4560     3.9330     2.2720 
  190.1250   -10.2040    90.2950     3.5080     4.4680     4.0180     2.2700 
  190.2500   -10.4260    89.6020     3.4890     4.4500     4.1130     2.2770 
  190.3750   -10.6850    88.4250     3.4550     4.3900     4.1580     2.2910 
  190.5000   -10.8910    87.4930     3.4260     4.3220     4.1600     2.3110 
  190.6250   -11.0670    84.5610     3.4260     4.2870     4.1490     2.3200 
  190.7500   -11.1810    81.7000     3.4840     4.3190     4.1840     2.3100 
  190.8750   -11.2800    79.3010     3.6120     4.4670     4.3200     2.2790 
  191.0000   -11.5240    80.0530     3.8570     4.7610     4.4810     2.2350 
  191.1250   -11.9740    83.3910     4.1840     5.1800     4.5600     2.1980 
  191.2500   -12.5700    88.1010     4.5800     5.7070     4.7230     2.1980 
  191.3750   -13.2790    92.2280     4.9290     6.1840     5.2000     2.2250 
  191.5000   -14.0380    93.2880     5.1570     6.5000     5.8500     2.2550 
  191.6250   -14.7440    91.6680     5.2810     6.6550     6.2480     2.2690 
  191.7500   -15.3890    89.2650     5.3210     6.6690     6.2690     2.2740 
  191.8750   -15.8650    87.9920     5.3650     6.6740     6.2450     2.2750 
  192.0000   -16.2430    86.7760     5.4720     6.7830     6.4420     2.2700 
  192.1250   -16.3610    86.1750     5.6990     7.0910     6.8000     2.2670 
  192.2500   -16.1100    85.5790     5.9910     7.4920     7.1210     2.2650 
  192.3750   -15.5070    86.7700     6.2200     7.7880     7.3020     2.2640 
  192.5000   -14.5110    88.5580     6.2410     7.7770     7.3420     2.2630 
  192.6250   -13.4700    90.1100     6.0250     7.4230     7.1460     2.2590 
  192.7500   -12.5050    89.3260     5.6640     6.9040     6.6140     2.2490 
  192.8750   -12.0430    88.4460     5.2580     6.3650     6.0660     2.2350 
  193.0000   -12.2450    89.4870     4.9540     6.0010     5.8730     2.2370 
  193.1250   -12.7220    91.7490     4.7780     5.8450     5.9660     2.2550 
  193.2500   -13.0620    91.6970     4.7250     5.8230     6.0670     2.2720 
  193.3750   -13.3250    90.3410     4.7120     5.8290     6.0780     2.2800 
  193.5000   -13.5570    88.3900     4.6830     5.7870     6.0190     2.2770 
  193.6250   -13.8590    86.4000     4.6550     5.7310     5.8370     2.2750 
  193.7500   -14.0300    85.8000     4.6980     5.7600     5.6420     2.2740 
  193.8750   -14.2400    85.9890     4.7930     5.8610     5.7170     2.2710 
  194.0000   -14.3700    87.8690     4.9210     5.9850     6.2070     2.2640 
  194.1250   -14.4310    88.7970     5.0830     6.1540     6.8540     2.2620 
  194.2500   -14.2970    90.5050     5.3100     6.4320     7.1760     2.2710 
  194.3750   -14.0340    91.1620     5.5400     6.7310     7.0830     2.3040 
  194.5000   -13.5500    89.9530     5.7000     6.9960     7.0210     2.3490 
  194.6250   -13.0730    86.6830     5.7490     7.1300     7.1910     2.3920 
  194.7500   -12.9050    85.1740     5.6170     6.9840     7.2800     2.3920 
  194.8750   -12.8670    88.7690     5.4020     6.7100     7.1460     2.3660 
  195.0000   -12.8360    96.2980     5.1430     6.3670     7.0360     2.3350 
  195.1250   -12.6760   102.7920     4.9120     6.0920     7.1100     2.3310 
  195.2500   -12.5010   103.3210     4.7740     5.9570     7.0700     2.3340 
  195.3750   -12.2950    99.8080     4.7230     5.9310     6.5790     2.3130 
  195.5000   -12.2110    95.5890     4.7210     5.9300     5.6700     2.2440 
  195.6250   -12.4930    92.0550     4.7130     5.9040     4.8850     2.1700 
  195.7500   -12.9510    88.7170     4.7030     5.8650     4.7620     2.1490 
  195.8750   -13.2940    86.6450     4.6420     5.7480     5.0400     2.1650 
  196.0000   -13.4580    88.2310     4.5190     5.5420     5.1310     2.1850 
  196.1250   -13.4310    92.5570     4.3560     5.2860     4.8970     2.1780 
  196.2500   -13.4010    95.1740     4.1730     5.0330     4.5920     2.1700 
  196.3750   -13.3930    94.2840     4.0350     4.8630     4.4030     2.1660 
  196.5000   -13.3020    91.7300     3.9710     4.8200     4.2670     2.1800 
  196.6250   -13.1870    91.8880     3.9890     4.8780     4.0790     2.1980 
  196.7500   -13.1910    94.4970     4.0020     4.9220     3.8950     2.2210 
  196.8750   -13.1110    96.7330     3.9300     4.8460     3.7990     2.2340 
  197.0000   -12.8330    95.5850     3.7250     4.5800     3.7230     2.2330 
  197.1250   -12.5160    92.1480     3.3930     4.1420     3.5580     2.2170 
  197.2500   -12.3440    88.1260     3.0370     3.6730     3.2960     2.2080 
  197.3750   -12.5770    84.2070     2.7630     3.3080     3.0630     2.2110 
  197.5000   -12.9620    81.3930     2.6320     3.1460     2.9960     2.2210 
  197.6250   -13.4620    80.9530     2.7370     3.2920     3.2000     2.2300 
  197.7500   -13.9810    82.7830     3.0910     3.7580     3.7950     2.2570 
  197.8750   -14.5220    84.7790     3.5580     4.3550     4.7270     2.3000 
  198.0000   -14.9420    86.1660     4.0260     4.9160     5.6400     2.3320 
  198.1250   -15.2240    87.2520     4.3290     5.2480     6.0260     2.3350 
  198.2500   -15.1900    87.5640     4.3900     5.2690     5.8080     2.3170 
  198.3750   -15.0410    86.4280     4.2970     5.1170     5.4980     2.3010 
  198.5000   -14.7590    86.3700     4.1170     4.8870     5.4110     2.2930 
  198.6250   -14.5530    89.6930     3.9490     4.7040     5.3010     2.2930 
  198.7500   -14.3430    94.0350     3.8680     4.6220     5.0050     2.2740 
  198.8750   -14.2100    96.1610     3.8560     4.6310     4.8130     2.2420 
  199.0000   -14.4350    95.1900     3.8970     4.7030     4.9430     2.2120 
  199.1250   -15.1170    94.7290     3.9490     4.7910     5.2040     2.2140 
  199.2500   -15.7200    94.3850     4.0010     4.8670     5.3710     2.2370 
  199.3750   -16.0330    94.3570     4.0660     4.9560     5.4050     2.2580 
  199.5000   -16.0790    92.7440     4.1790     5.1090     5.4600     2.2690 
  199.6250   -15.9110    90.4640     4.2880     5.2600     5.8030     2.2830 
  199.7500   -15.8650    88.1890     4.3690     5.3760     6.3580     2.2990 
  199.8750   -15.9110    86.0540     4.3620     5.3640     6.5200     2.3060 
  200.0000   -16.1280    84.5990     4.2140     5.1610     5.9820     2.2930 
  200.1250   -16.3150    84.4030     3.9910     4.8590     5.2820     2.2690 
  200.2500   -16.3950    86.4810     3.7750     4.5770     4.9450     2.2500 
  200.3750   -16.5210    89.9090     3.6140     4.3830     4.8730     2.2440 
  200.5000   -16.8490    93.7150     3.5690     4.3360     4.8570     2.2450 
  200.6250   -17.0930    96.1490     3.6070     4.3930     4.8760     2.2460 
  200.7500   -17.1960    96.4190     3.7000     4.5010     4.9220     2.2480 
  200.8750   -17.0860    93.9360     3.8220     4.6320     4.9670     2.2510 
  201.0000   -16.9030    90.3030     3.9490     4.7760     5.0660     2.2550 
  201.1250   -16.7810    88.2620     4.0670     4.8970     5.2050     2.2600 
  201.2500   -16.7390    87.9790     4.1340     4.9580     5.2240     2.2670 
  201.3750   -16.7040    88.7110     4.1500     4.9660     5.0820     2.2700 
  201.5000   -16.7880    88.9810     4.1090     4.9000     4.9250     2.2680 
