~V
VERS. 2.00: Ver 2.00
~W
STRT.M 60.0000:
STOP.M 291.0000:
STEP.M 0.1250:
NULL. -999.2500:
UWI. F12014:
~C
DEPT.M :
SP.MV :
GR.API :
RI. :
RML.OHMM :
RXO.OHMM :
DEN.GM/CC :
~A
# ...
  214.5000   -29.8830    64.3720    82.8040    81.6640    87.6790     2.1530 
  214.6250   -29.9560    66.0860    89.3290    88.3790   103.0020     2.1520 
  214.7500   -30.0060    66.4690    98.8690    97.8500   121.0050     2.1490 
  214.8750   -30.0780    64.5180   108.6590   107.1930   129.5990     2.1430 
  215.0000   -30.0170    61.7880   116.1480   114.0220   124.3100     2.1390 
  215.1250   -29.9940    60.0220   121.4570   118.6060   113.5470     2.1380 
  215.2500   -29.9060    60.3790   125.1290   121.9780   105.3070     2.1410 
  215.3750   -29.8340    61.5490   129.5120   126.4270   104.4320     2.1410 
  215.5000   -29.7840    60.4280   135.5770   132.7200   111.0550     2.1340 
  215.6250   -29.9480    59.0080   143.0790   140.4130   118.2500     2.1260 
  215.7500   -30.0670    57.9070   149.8750   147.1700   121.1370     2.1260 
  215.8750   -29.9860    58.1780   154.0160   151.2500   120.4210     2.1330 
  216.0000   -29.6970    57.4940   154.6790   151.9510   119.9650     2.1420 
  216.1250   -29.4830    57.3320   153.4700   150.9530   122.5720     2.1460 
  216.2500   -29.2580    56.0510   152.3250   150.1940   131.1810     2.1470 
  216.3750   -29.0020    54.5410   151.9820   150.1180   147.3710     2.1460 
  216.5000   -28.6400    53.2190   151.8050   150.0750   162.0590     2.1430 
  216.6250   -28.3920    53.2740   151.2040   149.5320   160.4880     2.1370 
  216.7500   -28.2320    55.3670   150.0130   148.3120   141.7130     2.1230 
  216.8750   -28.0180    56.0710   148.3480   146.5840   119.2040     2.1070 
  217.0000   -27.7130    55.6890   145.9490   143.9130   101.8100     2.0900 
  217.1250   -27.3160    53.3130   143.4070   140.9160    94.8110     2.0880 
  217.2500   -26.9160    51.1910   140.4770   137.4370   103.7840     2.1010 
  217.3750   -26.6450    50.0000   136.7530   133.0950   120.7230     2.1230 
  217.5000   -26.4500    50.6430   132.5630   128.3190   127.5020     2.1360 
  217.6250   -26.2020    52.5660   127.1230   122.2320   119.4530     2.1380 
  217.7500   -26.0420    52.9490   119.9140   114.4150   104.4380     2.1310 
  217.8750   -25.8820    53.3870   111.5910   105.8390    91.5860     2.1240 
  218.0000   -25.8320    54.3850   103.2100    97.5620    85.6070     2.1200 
  218.1250   -25.8210    56.4150    95.7360    90.4510    82.5570     2.1230 
  218.2500   -25.8210    57.7710    90.6450    85.7850    79.4480     2.1340 
  218.3750   -25.7980    58.8910    87.9600    83.4880    77.0400     2.1470 
  218.5000   -25.7210    59.3460    88.3460    84.2150    77.0590     2.1540 
  218.6250   -25.4700    58.0790    91.0760    87.3100    78.7470     2.1570 
  218.7500   -25.3320    54.8570    96.0540    92.7300    80.7540     2.1560 
  218.8750   -25.2330    52.7640   100.8030    97.6290    81.9590     2.1510 
  219.0000   -25.1870    53.1380   102.3130    99.1000    84.8600     2.1470 
  219.1250   -24.9660    55.4230    99.1720    96.0130    87.4040     2.1430 
  219.2500   -24.7750    56.2530    92.4490    89.5120    88.5980     2.1240 
  219.3750   -24.6910    57.0180    85.5560    83.1490    86.0130     2.0880 
  219.5000   -24.5660    56.8060    81.5470    79.7470    81.9620     2.0550 
  219.6250   -24.3790    55.3020    81.9550    80.6800    80.7880     2.0520 
  219.7500   -24.1380    52.2060    86.5390    85.8900    84.1200     2.0810 
  219.8750   -23.8980    49.9790    92.0350    91.4510    89.7290     2.1160 
  220.0000   -23.7870    51.3760    94.4590    93.3530    93.2580     2.1340 
  220.1250   -23.6310    53.9450    89.7290    87.8900    94.7540     2.1440 
  220.2500   -23.4520    56.2560    78.0320    75.7070    89.7660     2.1550 
  220.3750   -23.4630    57.9160    64.8070    62.6540    78.5940     2.1770 
  220.5000   -23.6650    60.0470    53.5990    51.8600    65.3920     2.1990 
  220.6250   -24.0050    61.7380    47.2390    45.7610    56.0600     2.2260 
  220.7500   -24.2070    61.4930    44.2140    42.9250    50.5500     2.2470 
  220.8750   -24.3020    59.5050    43.8850    42.7280    47.3640     2.2570 
  221.0000   -24.1950    58.8030    45.0510    43.9040    46.6990     2.2450 
  221.1250   -24.0810    59.9020    46.6980    45.4130    46.7920     2.2270 
  221.2500   -24.0050    62.2300    47.8330    46.3240    47.2600     2.2130 
  221.3750   -23.8600    64.7650    48.1450    46.4710    47.4470     2.2050 
  221.5000   -23.4900    67.7290    47.8560    46.0890    46.1290     2.1970 
  221.6250   -23.1200    70.1370    46.7850    44.9920    43.5310     2.1920 
  221.7500   -22.7270    71.0330    44.8910    43.1630    40.5250     2.1940 
  221.8750   -22.4640    70.4440    42.5060    40.8740    38.4640     2.2030 
  222.0000   -22.2190    69.4910    39.7620    38.3120    37.0870     2.2080 
  222.1250   -21.9370    70.1730    37.2880    36.0700    35.9580     2.2120 
  222.2500   -21.5860    70.7420    35.1350    34.1660    34.4400     2.2230 
  222.3750   -21.3880    71.6730    33.3370    32.6020    32.9690     2.2440 
  222.5000   -21.4110    71.9600    31.7550    31.2250    32.0210     2.2570 
  222.6250   -21.4790    73.8470    30.5450    30.1920    32.1540     2.2580 
  222.7500   -21.4720    75.7700    30.0230    29.8570    33.0880     2.2510 
  222.8750   -21.6700    75.8090    30.1450    30.1690    33.4590     2.2470 
  223.0000   -22.1430    73.8180    31.1020    31.3410    34.0260     2.2350 
  223.1250   -22.6470    71.7790    33.2940    33.8770    35.5800     2.2150 
  223.2500   -23.0970    70.3980    37.3100    38.2930    39.3040     2.1940 
  223.3750   -23.4400    69.0540    42.9510    44.3240    43.4840     2.1850 
  223.5000   -23.6160    67.2780    49.6960    51.4320    47.6210     2.1820 
  223.6250   -23.6460    66.5560    56.1760    58.1430    53.9580     2.1780 
  223.7500   -23.7830    66.8520    60.6280    62.6540    60.2460     2.1700 
  223.8750   -23.8980    67.0120    62.9630    65.0090    63.0370     2.1630 
  224.0000   -24.0010    63.8960    63.4780    65.5070    61.2200     2.1690 
  224.1250   -23.9050    60.5720    63.0040    64.9460    58.0270     2.2000 
  224.2500   -23.7830    57.3100    59.5550    61.0500    54.0460     2.2570 
  224.3750   -23.7910    55.8980    53.0460    54.0010    48.1360     2.3130 
  224.5000   -23.9970    56.3490    45.1520    45.6520    42.9810     2.3370 
  224.6250   -24.2790    59.3860    37.8290    38.1270    39.8910     2.3250 
  224.7500   -24.6230    62.7510    34.6200    35.1720    40.3090     2.2840 
  224.8750   -25.0880    64.0090    35.5010    36.6120    42.3170     2.2260 
  225.0000   -25.4540    61.0200    40.1030    42.0410    46.2550     2.1590 
  225.1250   -25.5840    55.6850    47.2370    49.7630    50.0740     2.0910 
  225.2500   -25.4080    51.4080    53.4170    56.0360    53.7490     2.0470 
  225.3750   -24.9660    50.6930    55.5850    57.6390    54.1090     2.0400 
  225.5000   -24.4620    53.7840    52.8700    54.0340    51.8560     2.0740 
  225.6250   -24.0120    57.5660    46.9570    47.5340    47.5900     2.1270 
  225.7500   -23.5430    59.4310    40.9860    41.3650    43.6290     2.1550 
  225.8750   -22.9820    58.2620    36.3330    36.7930    39.5240     2.1300 
  226.0000   -22.1620    56.3870    33.7210    34.5850    37.0510     2.0600 
  226.1250   -21.2810    54.9350    33.0930    34.3870    35.8390     1.9960 
  226.2500   -20.4300    54.0910    33.7050    35.4400    35.4470     1.9950 
  226.3750   -19.7320    53.7670    34.8600    36.9500    35.5530     2.0380 
  226.5000   -18.9960    55.8660    35.1860    37.3740    36.0170     2.0980 
  226.6250   -18.2820    60.1830    34.0200    36.1870    36.2650     2.1420 
  226.7500   -17.7330    63.8160    31.4800    33.4850    35.4780     2.1720 
  226.8750   -17.3900    65.6030    28.3000    30.1220    32.8490     2.1910 
  227.0000   -17.2140    66.1030    25.9640    27.6750    30.2310     2.2060 
  227.1250   -17.2600    65.9270    25.1720    26.8210    28.4940     2.2160 
  227.2500   -17.4320    65.9310    26.5900    28.4890    29.0330     2.2240 
