~V
VERS. 2.00: Ver 2.00
~W
STRT.M 66.0000:
STOP.M 299.0000:
STEP.M 0.1250:
NULL. -999.2500:
UWI. F12016:
~C
DEPT.M :
SP.MV :
GR.API :
RI. :
RML.OHMM :
RXO.OHMM :
DEN.GM/CC :
~A
# ...
  143.2500   -14.7560    70.5090     7.0450     8.0330    11.5900     2.2010 
  143.3750   -14.2310    73.0090     6.4930     7.3490    11.3540     2.2520 
  143.5000   -13.6730    76.0820     5.6780     6.3160     7.9320     2.2860 
  143.6250   -13.1450    83.0990     4.8740     5.3090     5.2240     2.3000 
  143.7500   -12.8040    91.1400     4.4680     4.8400     4.6600     2.3010 
  143.8750   -12.5820    94.7170     4.3720     4.7680     5.3270     2.3080 
  144.0000   -12.6190    94.8030     4.5710     5.0680     6.2870     2.3250 
  144.1250   -12.8830    95.9190     4.8810     5.4680     7.0780     2.3400 
  144.2500   -13.2390    95.3800     5.0610     5.6560     7.4990     2.3380 
  144.3750   -13.7100    92.8770     5.0030     5.5410     6.6830     2.3160 
  144.5000   -14.1680    92.4530     4.7620     5.1980     5.5760     2.2860 
  144.6250   -14.2080    96.4060     4.4930     4.8660     5.6860     2.2620 
  144.7500   -13.5620   100.0010     4.4200     4.7950     6.3750     2.2500 
  144.8750   -12.6690   100.6670     4.4870     4.9070     6.4460     2.2460 
  145.0000   -12.0070   100.0240     4.6850     5.1770     6.5300     2.2440 
  145.1250   -11.8880    99.0440     4.8410     5.3860     7.4700     2.2420 
  145.2500   -12.3630    96.8450     4.8450     5.3920     7.5840     2.2350 
  145.3750   -13.0950    94.6100     4.7120     5.2280     6.4910     2.2270 
  145.5000   -13.8290    94.1700     4.5640     5.0510     5.9490     2.2240 
  145.6250   -14.2980    95.5180     4.5690     5.0720     6.1130     2.2260 
  145.7500   -14.2240    97.8740     4.7730     5.3590     6.3000     2.2320 
  145.8750   -13.8710    97.8020     5.1510     5.8720     7.1370     2.2340 
  146.0000   -13.6890    94.4370     5.5790     6.4240     8.1150     2.2260 
  146.1250   -13.7620    90.2000     5.8560     6.7530     7.7810     2.2120 
  146.2500   -14.0770    88.4000     5.9140     6.7990     7.0010     2.2000 
  146.3750   -14.5450    87.0100     5.7730     6.6020     6.8980     2.1920 
  146.5000   -15.1080    84.0750     5.5080     6.2980     7.2090     2.1870 
  146.6250   -15.6160    82.6570     5.2900     6.0500     7.2480     2.1800 
  146.7500   -15.9970    83.0600     5.1150     5.8340     6.7770     2.1720 
  146.8750   -16.2840    83.7960     5.0070     5.6890     6.5170     2.1710 
  147.0000   -16.3940    85.8250     5.1170     5.8190     6.8970     2.1820 
  147.1250   -16.4800    89.5470     5.4720     6.2830     7.3790     2.2090 
  147.2500   -16.8090    89.7490     6.0460     7.0320    10.6690     2.2470 
  147.3750   -17.2560    83.4550     6.6830     7.8340    15.7910     2.2790 
  147.5000   -17.8680    75.0100     7.1770     8.4120    14.9240     2.2860 
  147.6250   -18.5140    69.3870     7.4140     8.6300    10.1630     2.2640 
  147.7500   -18.8920    68.5070     7.3460     8.4910     7.8530     2.2210 
  147.8750   -18.7270    70.1870     7.1120     8.1900     7.4810     2.1740 
  148.0000   -18.1160    71.4490     6.8480     7.8920     7.8620     2.1370 
  148.1250   -17.4480    71.7560     6.6780     7.7190     8.2060     2.1150 
  148.2500   -17.0430    72.3940     6.5820     7.6120     8.0230     2.1060 
  148.3750   -17.1600    74.2530     6.4820     7.5020     7.7980     2.1060 
  148.5000   -17.7870    76.3290     6.3810     7.3960     7.9140     2.1130 
  148.6250   -18.5730    79.4320     6.3240     7.3520     8.0770     2.1220 
  148.7500   -19.2530    82.3900     6.3530     7.4020     7.9620     2.1290 
  148.8750   -19.5490    82.5790     6.4430     7.5200     7.9550     2.1320 
  149.0000   -19.3490    79.0290     6.5750     7.6890     8.3770     2.1320 
  149.1250   -18.9620    75.2720     6.7170     7.8690     8.7920     2.1310 
  149.2500   -18.6180    74.3550     6.8280     8.0180     8.9780     2.1290 
  149.3750   -18.3280    73.3460     6.8510     8.0510     9.0970     2.1240 
  149.5000   -18.2090    69.6890     6.7560     7.9280     9.0520     2.1170 
  149.6250   -18.1920    66.3910     6.5950     7.7370     8.6140     2.1080 
  149.7500   -18.3050    67.4960     6.4390     7.5500     7.9980     2.0990 
  149.8750   -18.5170    71.6220     6.3420     7.4440     7.8780     2.0930 
  150.0000   -18.7420    74.1620     6.2730     7.3630     8.4220     2.0930 
  150.1250   -18.9540    72.7750     6.2750     7.3680     9.1440     2.1000 
  150.2500   -19.1760    70.2900     6.5460     7.7200     9.1480     2.1200 
  150.3750   -19.4080    69.0620     7.0250     8.3070     9.7300     2.1570 
  150.5000   -19.6270    69.0810     7.4600     8.8140    26.4370     2.2150 
  150.6250   -19.7840    67.5050     7.7930     9.1770    55.3540     2.2790 
  150.7500   -20.0370    64.6120     8.0160     9.3550    53.8830     2.3220 
  150.8750   -20.1530    63.6080     8.2330     9.5460    24.9070     2.3240 
  151.0000   -19.8870    64.2340     8.5410     9.9120     9.1170     2.2830 
  151.1250   -19.2580    65.5690     8.9180    10.4840     7.4490     2.2230 
  151.2500   -18.5270    66.6460     9.2230    10.9860     6.8720     2.1650 
  151.3750   -17.9930    66.8920     9.2060    11.0260     6.8690     2.1210 
  151.5000   -18.0590    67.1450     8.6900    10.3660     7.6120     2.0940 
  151.6250   -18.6030    67.6420     7.7020     9.0420     8.0320     2.0800 
  151.7500   -19.2590    68.5070     6.6810     7.7770     7.8890     2.0770 
  151.8750   -19.8770    69.9490     5.9830     6.9830     7.7750     2.0800 
  152.0000   -20.1420    72.5320     5.7290     6.7660     7.8320     2.0820 
  152.1250   -19.9650    74.6570     5.6720     6.8010     7.9170     2.0830 
  152.2500   -19.6050    73.8700     5.7260     6.9070     7.8350     2.0820 
  152.3750   -19.3370    71.8480     5.7800     6.9820     7.6730     2.0830 
  152.5000   -19.2510    72.5780     5.8000     6.9880     7.6880     2.0860 
  152.6250   -19.2390    74.9300     5.8010     6.9670     7.6750     2.0890 
  152.7500   -19.4350    74.7890     5.7850     6.9310     7.5440     2.0920 
  152.8750   -19.8280    72.2040     5.7530     6.8850     7.4690     2.0950 
  153.0000   -20.2350    71.4060     5.7200     6.8240     7.4170     2.1000 
  153.1250   -20.6760    73.4750     5.6800     6.7610     7.4820     2.1050 
  153.2500   -21.0550    74.7270     5.6540     6.7330     7.6460     2.1100 
  153.3750   -21.4280    73.1880     5.6560     6.7440     7.6580     2.1100 
  153.5000   -21.8260    71.7110     5.6790     6.7890     7.4380     2.1070 
  153.6250   -22.2920    74.2460     5.7120     6.8410     7.1940     2.1020 
  153.7500   -22.8230    79.6530     5.7300     6.8850     7.1880     2.0980 
  153.8750   -23.4280    81.5590     5.7310     6.8980     7.3350     2.0960 
  154.0000   -23.9500    78.2670     5.7170     6.8820     7.4210     2.0970 
  154.1250   -24.0140    75.0520     5.7010     6.8680     7.4040     2.0980 
  154.2500   -23.5320    74.4860     5.6830     6.8520     7.3630     2.1000 
  154.3750   -22.8070    74.5160     5.6600     6.8470     7.3540     2.1050 
  154.5000   -22.0300    74.5390     5.6320     6.8500     7.2640     2.1120 
  154.6250   -21.3210    75.0560     5.5690     6.7910     7.0630     2.1230 
  154.7500   -20.4820    76.4220     5.4320     6.6430     6.8980     2.1390 
  154.8750   -18.9030    79.4150     5.2530     6.4370     6.8140     2.1600 
  155.0000   -15.7970    84.7880     5.0420     6.1690     6.6300     2.1850 
  155.1250   -12.6500    88.4210     4.8660     5.9450     6.3140     2.2080 
  155.2500   -11.4070    89.6500     4.7890     5.8530     6.2630     2.2210 
  155.3750   -10.5910    89.7240     4.8290     5.9160     6.7120     2.2220 
  155.5000   -10.1450    88.1600     5.0040     6.1610     7.2580     2.2080 
  155.6250   -10.0820    84.9290     5.2510     6.4870     7.4030     2.1860 
  155.7500   -10.2230    81.6270     5.5120     6.8080     7.2840     2.1630 
  155.8750   -10.4960    79.3110     5.6980     7.0160     7.3530     2.1480 
  156.0000   -10.7850    76.4820     5.7880     7.0960     7.5960     2.1430 
