~V
VERS. 2.00: Ver 2.00
~W
STRT.M 66.0000:
STOP.M 299.0000:
STEP.M 0.1250:
NULL. -999.2500:
UWI. F12016:
~C
DEPT.M :
SP.MV :
GR.API :
RI. :
RML.OHMM :
RXO.OHMM :
DEN.GM/CC :
~A
# ...
  130.3750   -21.6420    75.1130     5.8010     7.1640     7.1200     2.1300 
  130.5000   -21.6910    73.8470     5.8480     7.1960     7.1000     2.1320 
  130.6250   -21.9100    71.0240     5.8700     7.1960     6.8980     2.1320 
  130.7500   -22.2690    69.4960     5.8670     7.1600     6.7430     2.1310 
  130.8750   -22.6620    71.0260     5.8530     7.1160     6.7980     2.1300 
  131.0000   -23.1260    75.1590     5.8390     7.0860     6.9490     2.1310 
  131.1250   -23.6310    77.8660     5.8390     7.0730     7.1740     2.1340 
  131.2500   -24.1470    76.9460     5.8560     7.0910     7.4500     2.1370 
  131.3750   -24.6450    74.7290     5.8820     7.1140     7.6090     2.1390 
  131.5000   -25.1010    74.9080     5.9150     7.1410     7.5850     2.1390 
  131.6250   -25.5260    77.2540     5.9620     7.1820     7.5000     2.1390 
  131.7500   -25.9120    78.6670     6.0110     7.2230     7.5490     2.1400 
  131.8750   -26.2650    78.4650     6.0500     7.2390     7.8700     2.1430 
  132.0000   -26.2530    79.5080     6.0690     7.2360     8.1500     2.1460 
  132.1250   -25.8410    81.4360     6.0670     7.2180     7.8920     2.1480 
  132.2500   -25.2180    79.6780     6.0400     7.1880     7.4380     2.1440 
  132.3750   -24.6330    74.4740     5.9830     7.1470     7.2210     2.1380 
  132.5000   -24.3960    70.9940     5.9080     7.0850     7.1380     2.1320 
  132.6250   -24.5850    69.8200     5.8100     6.9870     7.1320     2.1290 
  132.7500   -24.9770    68.1660     5.7060     6.8550     7.2350     2.1300 
  132.8750   -25.3410    67.0030     5.6160     6.7280     7.3540     2.1340 
  133.0000   -25.4630    69.4130     5.6470     6.7510     7.2760     2.1390 
  133.1250   -25.0020    73.6770     5.8680     7.0220     7.0440     2.1440 
  133.2500   -23.8770    74.5420     6.3770     7.6530     6.9610     2.1540 
  133.3750   -22.3970    71.4090     7.2530     8.7390     8.4730     2.1750 
  133.5000   -20.3400    68.6190     8.4590    10.2220    12.9420     2.2120 
  133.6250   -17.3950    69.3820     9.6930    11.6940    17.9470     2.2580 
  133.7500   -14.4040    70.5880    10.4330    12.4940    20.2310     2.2940 
  133.8750   -13.3500    70.1560    10.4650    12.3860    19.0290     2.3020 
  134.0000   -13.7720    70.2550     9.6890    11.3060    14.6440     2.2750 
  134.1250   -14.5120    71.3020     8.5490     9.8710     9.9440     2.2280 
  134.2500   -15.3650    71.2660     7.4390     8.5610     7.9530     2.1800 
  134.3750   -16.1870    69.6910     6.5380     7.5490     7.7720     2.1460 
  134.5000   -16.8970    68.4180     6.0150     7.0010     7.8960     2.1310 
  134.6250   -17.5060    67.9600     5.7960     6.8070     8.0050     2.1270 
  134.7500   -17.9680    66.8790     5.7780     6.8210     7.9350     2.1260 
  134.8750   -18.4070    67.1340     5.8330     6.8780     7.9000     2.1260 
  135.0000   -18.8560    69.4270     5.9040     6.9150     8.0330     2.1290 
  135.1250   -19.1020    71.5580     5.9730     6.9380     8.0550     2.1350 
  135.2500   -18.8900    69.9320     6.0350     6.9690     7.7260     2.1410 
  135.3750   -18.3350    66.9000     6.1050     7.0120     7.3650     2.1450 
  135.5000   -17.7380    65.8360     6.1870     7.0710     7.4220     2.1440 
  135.6250   -17.3750    66.3120     6.2800     7.1370     7.8140     2.1410 
  135.7500   -17.4330    65.1000     6.3820     7.1950     8.1130     2.1360 
  135.8750   -17.6940    61.6040     6.4560     7.2380     8.2050     2.1300 
  136.0000   -18.1110    58.8900     6.4820     7.2250     8.3010     2.1250 
  136.1250   -18.6220    58.6410     6.4770     7.1780     8.3610     2.1220 
  136.2500   -18.7830    61.2880     6.4410     7.1180     8.3670     2.1210 
  136.3750   -18.5200    66.0090     6.4020     7.0390     8.1990     2.1230 
  136.5000   -18.0860    70.1590     6.3590     6.9650     7.8220     2.1260 
  136.6250   -17.7330    71.6760     6.3210     6.9040     7.7810     2.1320 
  136.7500   -17.3820    69.2880     6.3440     6.9340     8.0770     2.1430 
  136.8750   -17.1700    65.5310     6.4410     7.0610     8.3240     2.1620 
  137.0000   -17.2090    63.7930     6.5550     7.2080     9.2460     2.1940 
  137.1250   -17.4040    65.5780     6.6580     7.3370    10.7440     2.2320 
  137.2500   -17.6800    69.1330     6.6910     7.3790    10.5690     2.2650 
  137.3750   -17.9460    71.1600     6.6660     7.3650     8.8400     2.2790 
  137.5000   -18.1020    70.4850     6.6170     7.3170     7.8170     2.2660 
  137.6250   -18.2400    68.6400     6.5610     7.2730     7.5560     2.2350 
  137.7500   -18.4780    67.2390     6.5140     7.2260     7.4570     2.2010 
  137.8750   -18.7520    67.2810     6.4790     7.1950     7.6160     2.1730 
  138.0000   -19.0910    69.0400     6.4390     7.1590     7.7940     2.1550 
  138.1250   -19.5040    72.5240     6.3740     7.0880     7.8040     2.1460 
  138.2500   -19.7160    73.7420     6.2970     7.0220     7.8050     2.1440 
  138.3750   -19.5110    71.5490     6.2620     6.9920     7.8710     2.1440 
  138.5000   -18.8660    68.2070     6.2910     7.0390     7.8680     2.1440 
  138.6250   -18.1370    66.4760     6.3600     7.1290     7.7840     2.1410 
  138.7500   -17.5550    64.7430     6.4190     7.1970     7.8960     2.1360 
  138.8750   -17.5090    63.6230     6.4340     7.2140     8.2050     2.1320 
  139.0000   -17.9370    65.4200     6.3920     7.1620     8.3770     2.1290 
  139.1250   -18.5400    68.6390     6.3040     7.0430     8.1910     2.1290 
  139.2500   -19.0920    70.1660     6.2100     6.9310     7.6680     2.1280 
  139.3750   -19.3060    69.7200     6.1390     6.8540     7.2150     2.1270 
  139.5000   -19.0160    67.5590     6.1190     6.8400     7.1270     2.1230 
  139.6250   -18.5730    64.5420     6.1410     6.8800     7.2560     2.1190 
  139.7500   -18.2830    62.1770     6.1600     6.9120     7.3330     2.1150 
  139.8750   -18.0780    61.0670     6.1490     6.8990     7.2850     2.1130 
  140.0000   -17.9080    60.6990     6.1010     6.8380     7.2950     2.1150 
  140.1250   -17.8910    61.7730     6.0350     6.7520     7.0950     2.1200 
  140.2500   -18.0230    63.5110     5.9690     6.6710     6.7240     2.1260 
  140.3750   -18.2400    66.0790     5.9220     6.6030     6.5540     2.1290 
  140.5000   -18.4730    68.6880     5.9120     6.5850     6.5960     2.1260 
  140.6250   -18.6460    70.0460     5.9390     6.6110     6.9940     2.1210 
  140.7500   -18.7090    68.7450     6.0090     6.6840     7.4110     2.1150 
  140.8750   -18.8260    66.4300     6.1110     6.8060     7.6010     2.1140 
  141.0000   -19.0220    66.3080     6.2020     6.9080     7.9320     2.1170 
  141.1250   -19.2390    66.4700     6.2480     6.9400     8.4160     2.1250 
  141.2500   -19.5390    65.5860     6.2250     6.8750     8.6010     2.1360 
  141.3750   -19.7500    65.8470     6.1610     6.7530     8.4800     2.1460 
  141.5000   -19.6110    68.9960     6.0670     6.6150     8.1820     2.1500 
  141.6250   -19.0790    72.1760     5.9830     6.5080     7.6630     2.1450 
  141.7500   -18.3070    72.3290     5.9370     6.4660     7.2760     2.1320 
  141.8750   -17.5560    70.5030     5.9540     6.5040     7.1400     2.1150 
  142.0000   -17.2910    67.9570     6.0860     6.6700     7.1940     2.1030 
  142.1250   -17.6370    67.2170     6.2900     6.9230     7.4650     2.1000 
  142.2500   -18.2300    67.8100     6.5100     7.1830     7.6570     2.1040 
  142.3750   -18.8060    66.8280     6.6890     7.3840     7.6090     2.1110 
  142.5000   -18.9660    64.7550     6.7580     7.4520     7.5370     2.1120 
  142.6250   -18.5380    64.2920     6.7200     7.3940     7.4680     2.1080 
  142.7500   -17.6330    65.1820     6.6440     7.3100     7.3040     2.1030 
  142.8750   -16.7610    65.0950     6.6770     7.3980     7.1920     2.1030 
  143.0000   -16.0370    64.6780     6.8960     7.7400     7.3880     2.1180 
  143.1250   -15.3430    66.7870     7.1530     8.1320     9.0160     2.1510 
