~V
VERS. 2.00: Ver 2.00
~W
STRT.M 66.0000:
STOP.M 299.0000:
STEP.M 0.1250:
NULL. -999.2500:
UWI. F12016:
~C
DEPT.M :
SP.MV :
GR.API :
RI. :
RML.OHMM :
RXO.OHMM :
DEN.GM/CC :
~A
# ...
  169.0000   -11.2510    69.6230     8.2270     8.5630     9.7730     2.3070 
  169.1250   -11.2900    74.5840     7.9320     8.2550     8.7150     2.2730 
  169.2500   -11.4520    75.0040     8.6220     9.0660     8.8240     2.2650 
  169.3750   -11.7440    72.5930     9.9880    10.6390    14.4290     2.2840 
  169.5000   -11.9770    72.5270    12.2070    13.2690    24.9890     2.3220 
  169.6250   -12.2450    75.5130    14.6810    15.9880    28.2510     2.3580 
  169.7500   -12.4860    76.3430    15.8000    17.0070    24.9510     2.3780 
  169.8750   -12.4350    74.7330    15.2100    16.1360    22.4300     2.3780 
  170.0000   -11.8140    76.1120    12.8730    13.3260    17.9670     2.3590 
  170.1250   -10.9080    80.6340    10.0830    10.3190    11.6620     2.3280 
  170.2500   -10.0940    84.2320     8.2220     8.4430     8.4100     2.2890 
  170.3750    -9.7580    84.6910     7.2470     7.5280     8.6760     2.2490 
  170.5000   -10.2160    83.4860     6.9850     7.3950     9.8200     2.2170 
  170.6250   -11.1040    81.8780     7.3230     7.9020    10.3880     2.2040 
  170.7500   -11.9890    81.4240     8.2900     9.0860    13.1300     2.2190 
  170.8750   -12.4840    82.0680     9.6160    10.6830    36.2550     2.2580 
  171.0000   -12.2850    82.0970    11.6390    13.1560    66.7430     2.3130 
  171.1250   -11.5710    80.2730    14.7710    16.8310    60.6820     2.3690 
  171.2500   -10.8640    76.6380    18.4950    21.1360    38.3690     2.4150 
  171.3750   -10.3330    71.8530    21.9790    25.0670    36.1260     2.4490 
  171.5000    -9.9040    68.7610    24.3540    27.7700    45.5100     2.4720 
  171.6250    -9.7770    69.7280    25.3400    28.9370    55.1450     2.4860 
  171.7500    -9.9480    71.9300    24.8260    28.3240    52.8320     2.4900 
  171.8750   -10.2610    71.6860    23.3110    26.5190    36.9170     2.4830 
  172.0000   -10.7240    71.3090    21.1050    23.9010    24.9740     2.4660 
  172.1250   -11.1560    73.7260    19.0390    21.5630    21.5070     2.4430 
  172.2500   -11.5000    74.4740    18.0120    20.5680    20.0420     2.4210 
  172.3750   -11.7730    71.5370    17.7070    20.3970    19.5640     2.4060 
  172.5000   -12.0630    69.7110    17.8050    20.6290    22.8560     2.4020 
  172.6250   -12.2780    71.7300    17.9770    20.8920    27.1500     2.4030 
  172.7500   -12.5930    73.5100    17.9740    20.8520    26.0420     2.4040 
  172.8750   -12.8640    72.8770    17.6250    20.3240    23.5080     2.4030 
  173.0000   -12.8470    73.2800    17.0250    19.4970    23.0950     2.4050 
  173.1250   -12.2770    75.7170    16.2310    18.4680    21.8380     2.4100 
  173.2500   -11.3340    79.1410    15.5690    17.6810    19.4730     2.4150 
  173.3750   -10.4320    81.1230    15.1480    17.2170    17.9230     2.4140 
  173.5000   -10.0570    79.2120    14.9150    16.9820    18.0520     2.4000 
  173.6250   -10.4720    73.3890    14.7990    16.8870    18.9980     2.3780 
  173.7500   -11.4100    69.4290    14.7090    16.8180    18.5310     2.3560 
  173.8750   -12.4250    70.5070    14.5750    16.6660    17.1820     2.3440 
  174.0000   -12.9880    74.3740    14.2860    16.2910    16.5340     2.3460 
  174.1250   -12.8450    77.1680    13.8800    15.7660    15.7820     2.3560 
  174.2500   -12.1770    77.1810    13.5200    15.2980    15.1860     2.3640 
  174.3750   -11.3560    77.2950    13.3150    15.0320    15.5000     2.3680 
  174.5000   -10.7050    79.4190    13.4600    15.2260    15.6840     2.3700 
  174.6250   -10.1620    81.8600    14.0100    15.9390    16.8020     2.3770 
  174.7500    -9.8180    82.0390    14.6670    16.7860    21.0990     2.3920 
  174.8750    -9.6670    81.4620    15.2940    17.6080    25.1380     2.4090 
  175.0000    -9.6010    80.6200    15.6980    18.1240    23.9170     2.4190 
  175.1250    -9.7010    78.8720    15.7700    18.1870    19.1460     2.4180 
  175.2500    -9.8900    76.0010    15.5180    17.8510    18.9600     2.4110 
  175.3750   -10.1710    73.8940    15.0850    17.2950    23.4170     2.4040 
  175.5000   -10.4390    73.3220    14.5780    16.6570    23.0050     2.4020 
  175.6250   -10.6150    72.9150    14.1730    16.1490    18.4480     2.4050 
  175.7500   -10.6580    73.0330    13.9580    15.8530    16.0950     2.4120 
  175.8750   -10.7880    74.8690    13.9690    15.8760    16.1430     2.4260 
  176.0000   -10.8220    77.5010    14.2740    16.3070    20.5570     2.4440 
  176.1250   -10.3980    79.5490    14.8020    17.0030    27.7070     2.4600 
  176.2500    -9.5070    79.9250    15.0650    17.3120    29.6840     2.4630 
  176.3750    -8.4000    81.3740    14.7900    16.8820    26.0050     2.4510 
  176.5000    -7.5000    83.9370    13.9030    15.6890    20.3220     2.4300 
  176.6250    -7.1820    84.4300    12.6400    14.0910    16.2890     2.4070 
  176.7500    -7.5580    83.3230    11.6020    12.8380    15.2860     2.3900 
  176.8750    -8.2130    83.8020    10.9050    12.0430    14.5280     2.3780 
  177.0000    -8.9570    83.8480    10.7590    11.9150    13.6180     2.3690 
  177.1250    -9.6130    82.1820    11.0120    12.2280    15.4390     2.3630 
  177.2500    -9.8410    79.4610    11.6010    12.9260    21.4310     2.3610 
  177.3750    -9.7650    78.5450    12.3680    13.8070    23.5520     2.3610 
  177.5000    -9.6530    78.5580    13.1580    14.6940    18.8030     2.3590 
  177.6250    -9.5580    78.2060    13.8100    15.4020    16.3440     2.3540 
  177.7500    -9.5270    79.2460    14.2770    15.8810    17.5150     2.3470 
  177.8750    -9.5810    81.7830    14.6250    16.2060    18.4000     2.3400 
  178.0000    -9.6860    84.9560    14.8270    16.3680    18.4130     2.3330 
  178.1250    -9.7840    85.7370    14.9760    16.5060    18.6070     2.3270 
  178.2500    -9.8300    84.0020    15.2380    16.8150    19.1490     2.3260 
  178.3750    -9.7940    82.5130    15.7350    17.4410    19.4180     2.3360 
  178.5000    -9.6720    80.5600    16.3510    18.2090    21.2200     2.3570 
  178.6250    -9.6650    78.4150    16.8890    18.9000    25.0150     2.3850 
  178.7500    -9.7600    79.8110    17.0130    19.0370    26.1400     2.4050 
  178.8750    -9.8780    83.6400    16.5640    18.4760    22.8380     2.4100 
  179.0000   -10.1690    82.8090    15.6280    17.3330    19.2950     2.4020 
  179.1250   -10.3730    76.1630    14.4040    15.8820    17.6910     2.3900 
  179.2500   -10.1470    71.1800    13.3500    14.7120    16.7880     2.3810 
  179.3750    -9.4670    72.2980    12.6620    13.9840    14.8340     2.3750 
  179.5000    -8.6280    75.9170    12.3960    13.7240    13.4670     2.3690 
  179.6250    -8.0800    77.5570    12.4630    13.8240    13.6530     2.3620 
  179.7500    -8.2510    77.3100    12.7850    14.1680    13.5960     2.3580 
  179.8750    -8.9580    76.8100    13.1980    14.5890    13.4560     2.3580 
  180.0000    -9.8200    75.5300    13.6290    15.0180    13.8820     2.3610 
  180.1250   -10.5850    72.3700    13.9980    15.3940    14.8120     2.3620 
  180.2500   -10.9000    70.1170    14.3930    15.8290    15.8820     2.3610 
  180.3750   -10.6690    71.2890    14.9580    16.5110    17.2310     2.3610 
  180.5000   -10.2200    75.6680    15.7230    17.4450    19.0070     2.3630 
  180.6250    -9.8450    78.6620    16.3410    18.2110    20.2230     2.3660 
  180.7500    -9.4970    78.2740    16.5410    18.4570    21.2220     2.3660 
  180.8750    -9.2340    76.5640    16.2540    18.1110    20.8740     2.3590 
  181.0000    -9.1190    77.4530    15.5580    17.2840    17.6180     2.3490 
  181.1250    -9.1460    78.5470    14.7550    16.3770    15.0930     2.3400 
  181.2500    -9.1370    77.3140    14.3760    16.0470    16.3350     2.3410 
  181.3750    -9.0710    75.3360    14.6080    16.4950    19.2580     2.3540 
  181.5000    -8.8990    75.7690    15.5220    17.8270    20.8000     2.3830 
  181.6250    -8.6460    78.6530    16.8980    19.7140    22.6580     2.4220 
  181.7500    -8.4430    79.1530    18.1570    21.4390    25.0290     2.4580 
