~V
VERS. 2.00: Ver 2.00
~W
STRT.M 60.0000:
STOP.M 291.0000:
STEP.M 0.1250:
NULL. -999.2500:
UWI. F12014:
~C
DEPT.M :
SP.MV :
GR.API :
RI. :
RML.OHMM :
RXO.OHMM :
DEN.GM/CC :
~A
# ...
  253.1250   -27.8970    48.4040   130.1250   151.3600   284.0030     2.5890 
  253.2500   -26.7750    48.7810   200.2280   233.0610   378.7590     2.6430 
  253.3750   -25.7450    49.2310   261.1920   302.3940   475.6390     2.6670 
  253.5000   -24.7530    50.2420   271.4590   300.1990   538.6810     2.6800 
  253.6250   -23.8840    51.8680   212.7340   228.9560   520.5080     2.6950 
  253.7500   -22.9450    53.5620   129.3620   132.6170   400.8750     2.7050 
  253.8750   -22.1670    56.8330    52.9010    49.2990   237.9830     2.7000 
  254.0000   -21.5110    61.1590    17.2940    18.8120   106.5870     2.6600 
  254.1250   -21.1600    67.2950     9.5760    10.6230    35.5380     2.5780 
  254.2500   -20.8970    73.0020     6.9390     7.7190    11.3890     2.4800 
  254.3750   -20.8010    77.1940     5.6850     6.4370     5.7750     2.4110 
  254.5000   -20.6450    79.9440     5.5770     6.4850     6.0610     2.3950 
  254.6250   -20.5110    82.3010     6.0030     7.0940     6.7370     2.3860 
  254.7500   -20.2830    84.2590     6.5310     7.7040     7.0940     2.3650 
  254.8750   -19.9240    85.8170     6.7020     7.7990     6.8550     2.3420 
  255.0000   -19.2910    84.6230     6.3940     7.3120     6.2520     2.3510 
  255.1250   -18.5740    81.2010     5.7170     6.4020     5.5290     2.3850 
  255.2500   -17.9400    74.6070     4.9110     5.4010     4.6900     2.4120 
  255.3750   -17.5440    68.1330     4.2660     4.6280     3.8500     2.3890 
  255.5000   -17.4410    62.7520     3.8670     4.1590     3.2910     2.3040 
  255.6250   -17.4210    59.8470     3.7030     3.9780     3.0630     2.1930 
  255.7500   -17.4790    58.4750     3.7690     4.0820     3.0990     2.1230 
  255.8750   -17.3830    59.1520     3.9520     4.3390     3.3820     2.1080 
  256.0000   -16.9030    62.0860     4.2220     4.7360     3.8250     2.1470 
  256.1250   -16.6130    68.4330     4.4970     5.1580     4.1740     2.1970 
  256.2500   -16.3800    76.3360     4.7850     5.5970     4.2640     2.2380 
  256.3750   -15.7280    83.0310     5.0170     5.9490     4.2490     2.2590 
  256.5000   -14.5300    85.8330     5.1310     6.1390     4.3910     2.2730 
  256.6250   -12.6150    88.0140     5.0840     6.1380     4.7000     2.2820 
  256.7500    -9.9100    89.9300     4.8730     5.9550     4.8910     2.2860 
  256.8750    -6.0310    91.8810     4.5880     5.6690     4.8040     2.2820 
  257.0000    -2.7350    93.5080     4.3550     5.4180     4.6500     2.2800 
  257.1250    -1.9340    96.0680     4.3150     5.3470     4.8680     2.2790 
  257.2500    -2.1440    98.6620     4.5290     5.6290     5.6560     2.2750 
  257.3750    -2.5140    97.5930     4.9940     6.3730     6.6190     2.2700 
  257.5000    -2.9260    92.9680     5.8420     7.7040     7.4500     2.2650 
  257.6250    -3.3380    87.1000     6.6990     9.2730     8.2510     2.2610 
  257.7500    -3.6660    85.8700     7.4670    10.7130     9.1380     2.2580 
  257.8750    -3.8940    85.8830     8.0130    11.5470     9.6890     2.2600 
  258.0000    -4.0660    86.2510     8.0550    11.4740     9.3790     2.2630 
  258.1250    -4.1920    83.3040     7.6540    10.5390     8.5070     2.2740 
  258.2500    -4.3940    82.6520     7.0110     9.2770     7.6540     2.2840 
  258.3750    -4.6120    82.6990     6.2940     8.1870     7.1760     2.2880 
  258.5000    -4.9890    84.1880     6.0710     7.8900     7.2080     2.2710 
  258.6250    -5.2370    83.7720     6.4160     8.4540     7.7560     2.2370 
  258.7500    -5.3100    84.2620     7.3720     9.8830     8.8390     2.2030 
  258.8750    -5.3060    83.0090     8.8400    11.9400    10.2520     2.1630 
  259.0000    -5.2640    82.4620    10.5790    14.2430    11.5750     2.1200 
  259.1250    -5.1760    81.6810    12.1700    16.2010    12.5620     2.0840 
  259.2500    -5.0620    82.7430    13.3800    17.5590    13.4350     2.0830 
  259.3750    -4.9090    82.3040    14.0000    18.1710    14.4410     2.1030 
  259.5000    -4.8480    80.4300    14.2350    18.3550    15.0990     2.1220 
  259.6250    -4.8330    77.7330    13.9890    17.9860    14.7190     2.1300 
  259.7500    -4.8670    76.2310    13.0860    16.7940    13.3950     2.1440 
  259.8750    -4.9240    77.4380    11.7860    15.1000    11.7340     2.1690 
  260.0000    -4.9320    78.8370    10.2150    13.0610    10.0470     2.1960 
  260.1250    -5.0460    79.6760     8.8370    11.2980     8.6450     2.2180 
  260.2500    -5.1610    80.0180     8.0580    10.3540     7.8820     2.2310 
  260.3750    -5.2980    81.4590     7.9330    10.3110     8.1070     2.2400 
  260.5000    -5.5230    82.3470     8.5030    11.2080     9.7990     2.2490 
  260.6250    -5.9090    80.0020    10.0660    13.3910    12.9640     2.2560 
  260.7500    -6.2980    76.0800    12.6310    16.7920    17.3160     2.2470 
  260.8750    -6.6870    73.4140    15.7480    20.7850    21.7190     2.2260 
  261.0000    -6.9160    73.5270    19.0170    24.7650    25.4110     2.2080 
  261.1250    -7.0450    73.4180    21.6140    27.7770    28.5570     2.2050 
  261.2500    -7.0870    70.9310    23.1730    29.3370    30.6850     2.2060 
  261.3750    -7.0530    67.2100    23.8160    29.7460    30.8920     2.2030 
  261.5000    -7.0450    63.7350    23.5090    29.0540    29.2140     2.1940 
  261.6250    -7.0220    64.7950    22.7530    27.9280    27.2740     2.1910 
  261.7500    -6.9270    66.7930    22.0410    26.9810    26.2200     2.1950 
  261.8750    -6.6100    69.7200    21.7330    26.6480    26.2390     2.2000 
  262.0000    -6.2480    68.9360    21.9440    26.9640    27.1740     2.1980 
  262.1250    -6.1910    68.9560    22.3770    27.5170    28.1840     2.1910 
  262.2500    -6.2900    66.7340    22.8570    28.0190    28.6750     2.1880 
  262.3750    -6.3200    65.7080    23.2490    28.3070    29.0450     2.1910 
  262.5000    -6.3090    63.6830    23.3270    28.1060    29.3510     2.1980 
  262.6250    -6.2750    63.8030    22.9670    27.3040    28.8700     2.2010 
  262.7500    -6.3590    63.7140    22.2070    26.0610    27.5840     2.1990 
  262.8750    -6.5870    65.5190    21.2830    24.6680    26.2460     2.1970 
  263.0000    -7.0150    67.6360    20.4720    23.5030    24.7190     2.1970 
  263.1250    -7.5180    69.3510    20.0270    22.8420    22.6160     2.2010 
  263.2500    -8.1670    68.7380    20.1030    22.8340    21.4110     2.2060 
  263.3750    -8.8460    67.0140    20.7270    23.4500    22.5160     2.2150 
  263.5000    -9.5740    64.9360    21.6470    24.3570    24.6970     2.2210 
  263.6250   -10.1880    65.0720    22.5980    25.1790    25.2910     2.2220 
  263.7500   -10.6730    64.9590    23.1440    25.4430    23.6520     2.2180 
  263.8750   -11.0580    64.6950    23.3510    25.3070    21.8530     2.2130 
  264.0000   -11.5390    63.2600    23.4300    25.0820    21.0750     2.2060 
  264.1250   -12.0120    62.8020    23.6570    25.1550    20.6990     2.1940 
  264.2500   -12.4580    63.1030    24.1280    25.6100    19.8540     2.1820 
  264.3750   -12.7980    63.3360    24.7120    26.2380    19.0470     2.1750 
  264.5000   -13.1330    63.6580    25.1400    26.6680    19.5780     2.1790 
  264.6250   -13.4690    63.8620    25.0090    26.4250    21.6370     2.1850 
  264.7500   -13.7510    63.1230    23.9290    25.1410    24.0770     2.1900 
  264.8750   -13.9650    62.1370    22.3520    23.3880    25.0620     2.2010 
  265.0000   -14.0680    62.5170    20.7690    21.7300    23.9380     2.2240 
  265.1250   -14.0870    65.3320    19.6680    20.6470    22.1780     2.2570 
  265.2500   -13.9080    66.2150    19.3760    20.4500    21.5140     2.2820 
  265.3750   -13.6520    64.7800    20.0900    21.2760    21.9190     2.2940 
  265.5000   -13.3280    63.2620    22.2010    23.6210    23.6970     2.2950 
  265.6250   -12.9810    64.9380    25.6600    27.5860    30.0130     2.2920 
  265.7500   -12.7060    68.4540    30.4650    33.2320    42.6330     2.2750 
  265.8750   -12.6300    69.0880    36.4160    40.2520    55.0280     2.2450 
