~V
VERS. 2.00: Ver 2.00
~W
STRT.M 66.0000:
STOP.M 299.0000:
STEP.M 0.1250:
NULL. -999.2500:
UWI. F12016:
~C
DEPT.M :
SP.MV :
GR.API :
RI. :
RML.OHMM :
RXO.OHMM :
DEN.GM/CC :
~A
# ...
  284.8750    -5.6690    53.6650     5.6030     6.3760     5.9450     2.2710 
  285.0000    -5.6690    54.8180     5.6690     6.4240     6.7630     2.2780 
  285.1250    -5.6690    56.0830     6.1530     7.0810     9.6240     2.2930 
  285.2500    -5.6690    56.6360     7.0720     8.3530    14.1660     2.3150 
  285.3750    -5.6690    55.6830     8.0150     9.7220    17.1340     2.3370 
  285.5000    -5.6690    53.1580     8.3420    10.3220    16.9080     2.3520 
  285.6250    -5.6690    51.0250     7.7900     9.7500    13.3590     2.3540 
  285.7500    -5.6690    51.6200     6.5420     8.2070     8.4420     2.3410 
  285.8750    -5.6690    55.0390     5.2100     6.5090     5.5770     2.3200 
  286.0000    -5.6690    60.4380     4.3650     5.4510     5.2600     2.3030 
  286.1250    -5.6690    66.6020     4.0870     5.1990     6.4240     2.2950 
  286.2500    -5.6690    72.3800     4.2590     5.5990     7.8540     2.2960 
  286.3750    -5.6690    77.0180     4.7090     6.3940     8.3130     2.3000 
  286.5000    -5.6690    81.1240     5.1740     7.1310     7.8430     2.3050 
  286.6250    -5.6690    85.8110     5.4490     7.5130     7.2880     2.3130 
  286.7500    -5.6690    91.0930     5.4610     7.4460     7.2370     2.3260 
  286.8750    -5.6690    95.4500     5.4010     7.2780     7.4520     2.3410 
  287.0000    -5.6690    96.5570     5.4880     7.3670     7.5800     2.3580 
  287.1250    -5.6690    96.0620     5.7610     7.7830     8.2630     2.3740 
  287.2500    -5.6690    95.4660     6.0620     8.2520     9.3840     2.3830 
  287.3750    -5.6690    95.4730     6.2650     8.5910     9.8930     2.3830 
  287.5000    -5.6690    95.4800     6.3210     8.7250     9.4010     2.3770 
  287.6250    -5.6690    95.3840     6.1530     8.5220     8.8960     2.3700 
  287.7500    -5.6690    95.5200     5.8450     8.1320     9.0610     2.3640 
  287.8750    -5.6690    95.1830     5.4560     7.6180     8.4650     2.3610 
  288.0000    -5.6690    94.4510     5.2180     7.3340     7.3960     2.3590 
  288.1250    -5.6690    93.7620     5.0450     7.1570     7.5380     2.3580 
  288.2500    -5.6690    93.5480     4.9530     7.0940     8.3100     2.3560 
  288.3750    -5.6690    94.2060     4.8280     6.9710     8.0390     2.3520 
  288.5000    -5.6690    94.5820     4.6650     6.7660     6.9770     2.3420 
  288.6250    -5.6690    94.1190     4.5050     6.5170     6.4970     2.3310 
  288.7500    -5.6690    94.1720     4.3710     6.3040     6.4710     2.3250 
  288.8750    -5.6690    96.2780     4.3280     6.2340     6.4710     2.3300 
  289.0000    -5.6690    99.0020     4.3990     6.3770     6.7140     2.3470 
  289.1250    -5.6690    99.9800     4.5630     6.6720     7.1510     2.3700 
  289.2500    -5.6690    98.0150     4.6290     6.8110     7.1810     2.3860 
  289.3750    -5.6690    95.4560     4.5600     6.7300     6.5550     2.3840 
  289.5000    -5.6690    94.6210     4.2840     6.2870     5.7380     2.3600 
  289.6250    -5.6690    95.6270     3.9750     5.8020     5.2010     2.3250 
  289.7500    -5.6690    96.3440     3.7370     5.4210     5.0390     2.2920 
  289.8750    -5.6690    96.2940     3.5760     5.1640     5.0840     2.2720 
  290.0000    -5.6690    96.1580     3.5730     5.1560     5.1420     2.2700 
  290.1250    -5.6690    95.9430     3.5730     5.1460     5.1290     2.2800 
  290.2500    -5.6690    94.7440     3.5710     5.1260     5.0780     2.2960 
  290.3750    -5.6690    93.4850     3.5710     5.1380     5.0490     2.3120 
  290.5000    -5.6690    94.0200     3.5730     5.1500     5.0660     2.3230 
  290.6250    -5.6690    95.8990     3.5720     5.1600     5.0690     2.3300 
  290.7500    -5.6690    97.0680     3.5760     5.1650     5.2730     2.3360 
  290.8750    -5.6690    96.8710     3.5730     5.1730     6.3090     2.3430 
  291.0000    -5.6690    96.3690     3.5710     5.1820     7.0270     2.3480 
  291.1250    -5.6690    96.3980     3.5690     5.1910     6.1650     2.3480 
  291.2500    -5.6690    96.4170     3.5680     5.1930     5.3630     2.3400 
  291.3750    -5.6690    96.4170     3.5670     5.1930     5.3490     2.3280 
  291.5000    -5.6690    96.4170     3.5660     5.1910     5.4250     2.3170 
  291.6250    -5.6690    96.4170     3.5670     5.1930     5.4940     2.3110 
  291.7500    -5.6690    96.4170     3.5680     5.1950     5.4920     2.3080 
  291.8750    -5.6690    96.4170     3.5700     5.1970     5.4710     2.3070 
  292.0000    -5.6690    96.4170     3.5710     5.1980     5.4980     2.3090 
  292.1250    -5.6690    96.4170     3.5710     5.1970     5.5340     2.3120 
  292.2500    -5.6690    96.4170     3.5710     5.1960     5.5220     2.3170 
  292.3750    -5.6690    96.4170     3.5710     5.1970     5.9470     2.3200 
  292.5000    -5.6690    96.4170     3.5710     5.1990     7.5020     2.3200 
  292.6250    -5.6690    96.4170     3.5720     5.2000     9.4220     2.3200 
  292.7500    -5.6690    96.4170     3.5720     5.2000    10.4720     2.3200 
  292.8750    -5.6690    96.4170     3.5710     5.1990    10.7110     2.3200 
  293.0000    -5.6690    96.4170     3.5710     5.2010    10.6040     2.3170 
  293.1250    -5.6690    96.4170     3.5710     5.2020     9.7510     2.3110 
  293.2500    -5.6690    96.4170     3.5720     5.2040     8.1780     2.3070 
  293.3750    -5.6690    96.4170     3.5720     5.2060     7.3170     2.3110 
  293.5000    -5.6690    96.4170     3.5720     5.2060    11.0230     2.3310 
  293.6250    -5.6690    96.4170     3.5720     5.2060    25.6540     2.3580 
  293.7500    -5.6690    96.4170     3.5720     5.2060    41.0200     2.3750 
  293.8750    -5.6690    96.4170     3.5720     5.2060    37.7180     2.3640 
  294.0000    -5.6690    96.4170     3.5720     5.2060    26.2180     2.3210 
  294.1250    -5.6690    96.4170     3.5720     5.2060    25.7480     2.2620 
  294.2500    -5.6690    96.4170     3.5720     5.2060    38.9300     2.2080 
  294.3750    -5.6690    96.4170     3.5720     5.2060    51.8920     2.1690 
  294.5000    -5.6690    96.4170     3.5720     5.2060    48.2100     2.1450 
  294.6250    -5.6690    96.4170     3.5720     5.2060    39.0640     2.1270 
  294.7500    -5.6690    96.4170     3.5720     5.2060    37.1400     2.1070 
  294.8750    -5.6690    96.4170     3.5720     5.2060    37.4480     2.0820 
  295.0000    -5.6690    96.4170     3.5720     5.2060    40.0040     2.0550 
  295.1250    -5.6690    96.4170     3.5720     5.2060    46.5640     2.0320 
  295.2500    -5.6690    96.4170     3.5720     5.2060    49.6630     2.0150 
  295.3750    -5.6690    96.4170     3.5720     5.2060    47.7420     2.0070 
  295.5000    -5.6690    96.4170     3.5720     5.2060    46.5730     2.0040 
  295.6250    -5.6690    96.4170     3.5720     5.2060    46.6320     2.0050 
  295.7500    -5.6690    96.4170     3.5720     5.2060    46.6410     2.0060 
  295.8750    -5.6690    96.4170     3.5720     5.2060    46.6270     2.0070 
  296.0000    -5.6690    96.4170     3.5720     5.2060    46.6180     2.0070 
  296.1250    -5.6690    96.4170     3.5720     5.2060    46.6140     2.0080 
  296.2500    -5.6690    96.4170     3.5720     5.2060    46.6080     2.0080 
  296.3750    -5.6690    96.4170     3.5720     5.2060    46.6120     2.0090 
  296.5000    -5.6690    96.4170     3.5720     5.2060    46.6190     2.0090 
  296.6250    -5.6690    96.4170     3.5720     5.2060    46.6200     2.0080 
  296.7500    -5.6690    96.4170     3.5720     5.2060    46.6260     2.0060 
  296.8750    -5.6690    96.4170     3.5720     5.2060    46.6330     2.0030 
  297.0000    -5.6690    96.4170     3.5720     5.2060    46.6260     2.0030 
  297.1250    -5.6690    96.4170     3.5720     5.2060    46.6230     2.0040 
  297.2500    -5.6690    96.4170     3.5720     5.2060    46.6270     2.0060 
  297.3750    -5.6690    96.4170     3.5720     5.2060    46.6280     2.0090 
  297.5000    -5.6690    96.4170     3.5720     5.2060    46.6320     2.0100 
  297.6250    -5.6690    96.4170     3.5720     5.2060    46.6320     2.0090 
