~V
VERS. 2.00: Ver 2.00
~W
STRT.M 66.0000:
STOP.M 299.0000:
STEP.M 0.1250:
NULL. -999.2500:
UWI. F12016:
~C
DEPT.M :
SP.MV :
GR.API :
RI. :
RML.OHMM :
RXO.OHMM :
DEN.GM/CC :
~A
# ...
  207.6250    -5.9390    82.8640     5.5440     6.1400     7.4160     2.2350 
  207.7500    -6.3920    83.0070     5.9520     6.5970     8.4110     2.2240 
  207.8750    -6.8140    83.9080     6.2340     6.9040     9.2410     2.2150 
  208.0000    -7.0200    82.4230     6.3460     7.0120     8.4800     2.2080 
  208.1250    -6.8230    80.3940     6.2560     6.8730     7.7600     2.2060 
  208.2500    -6.3210    80.8040     6.0810     6.6210     8.9740     2.2090 
  208.3750    -5.8770    82.5440     6.0270     6.5160    10.1850     2.2210 
  208.5000    -5.6380    82.7590     6.4360     6.9690     9.1270     2.2510 
  208.6250    -5.5040    82.3010     7.8800     8.6610    10.8130     2.3010 
  208.7500    -5.6030    81.1180    10.6440    11.6500    22.4500     2.3680 
  208.8750    -5.8390    77.5850    15.6520    17.3770    35.6500     2.4290 
  209.0000    -6.1000    72.6100    22.6770    25.6900    41.7380     2.4580 
  209.1250    -6.4560    68.6170    29.3540    33.1900    45.6210     2.4430 
  209.2500    -6.8280    66.6100    33.8540    38.2800    47.3570     2.3890 
  209.3750    -7.1570    65.2730    35.1450    39.0550    46.5050     2.3210 
  209.5000    -7.4740    64.8500    33.3650    36.5360    44.9410     2.2610 
  209.6250    -7.8490    66.8080    30.9400    33.7390    40.9170     2.2210 
  209.7500    -8.1870    69.9670    28.3000    30.8040    34.6010     2.2010 
  209.8750    -8.5400    70.4290    25.2480    27.4530    29.4290     2.1950 
  210.0000    -8.8060    69.9060    22.3030    24.2340    31.4330     2.2000 
  210.1250    -8.6920    72.5150    19.5670    21.1130    34.9040     2.2160 
  210.2500    -8.0990    76.7620    16.9380    18.1130    27.5500     2.2430 
  210.3750    -7.2740    79.2820    15.0370    15.9240    20.8640     2.2790 
  210.5000    -6.5570    81.5800    13.5870    14.2310    24.4450     2.3140 
  210.6250    -6.3210    85.1180    12.7860    13.3660    25.3990     2.3390 
  210.7500    -6.6580    86.2500    13.1900    13.9460    21.5080     2.3540 
  210.8750    -7.2600    83.2370    14.6300    15.7810    20.4890     2.3700 
  211.0000    -7.8820    79.6720    15.9960    17.4970    29.4980     2.4000 
  211.1250    -8.2330    76.0610    15.6680    17.2660    48.9610     2.4350 
  211.2500    -8.0190    73.3050    13.3120    14.6480    54.4970     2.4490 
  211.3750    -7.5240    72.9700     9.9080    10.7500    33.1680     2.4190 
  211.5000    -7.1080    75.5470     6.7510     7.2100    10.6650     2.3410 
  211.6250    -6.8490    78.0320     5.0430     5.3530     3.7920     2.2450 
  211.7500    -6.6910    80.6580     4.4080     4.7280     3.7220     2.1760 
  211.8750    -6.7670    83.3190     4.3910     4.8180     5.0550     2.1600 
  212.0000    -7.1130    85.0050     5.0110     5.5860     7.7000     2.2020 
  212.1250    -7.5600    85.8850     5.9550     6.6900     9.1330     2.2720 
  212.2500    -8.0570    86.5270     7.0820     7.9450     9.6060     2.3340 
  212.3750    -8.4950    84.6410     8.0760     9.0210     9.7200     2.3590 
  212.5000    -8.8850    80.8540     8.6880     9.6690     9.0800     2.3410 
  212.6250    -9.3670    78.9580     8.9190     9.9050     9.8440     2.3010 
  212.7500    -9.8510    81.0520     8.8370     9.8250    10.9240     2.2630 
  212.8750   -10.2920    84.2340     8.6790     9.6920    11.0370     2.2430 
  213.0000   -10.7630    84.3870     8.5430     9.6410    12.3520     2.2420 
  213.1250   -11.0780    82.5910     8.4650     9.7190    12.4330     2.2560 
  213.2500   -10.9080    83.2450     8.4820     9.9610    10.6550     2.2780 
  213.3750   -10.2810    87.8350     8.6530    10.3980    10.5030     2.3040 
  213.5000    -9.5090    91.9680     9.0210    11.0580    11.5580     2.3320 
  213.6250    -8.9750    92.4440     9.5970    11.9610    12.3960     2.3600 
  213.7500    -9.0210    90.5570    10.3360    13.0640    13.3700     2.3890 
  213.8750    -9.5610    87.0280    11.0780    14.1270    14.6830     2.4160 
  214.0000   -10.2940    81.9900    11.5550    14.7640    15.4370     2.4330 
  214.1250   -11.0290    79.4090    11.6650    14.8700    14.8390     2.4400 
  214.2500   -11.4050    81.0450    11.3520    14.3840    13.5230     2.4340 
  214.3750   -11.2970    84.4390    10.7930    13.5960    12.9060     2.4210 
  214.5000   -10.9510    85.8650    10.2500    12.8850    13.1790     2.4060 
  214.6250   -10.7060    85.6040     9.8010    12.3420    13.4300     2.3920 
  214.7500   -10.5370    86.3140     9.5560    12.0970    13.6140     2.3820 
  214.8750   -10.4650    88.3300     9.4360    12.0250    13.7930     2.3760 
  215.0000   -10.5940    89.0420     9.3770    12.0150    13.4740     2.3720 
  215.1250   -10.8720    87.5050     9.3820    12.0600    12.6400     2.3670 
  215.2500   -11.2210    86.8460     9.4960    12.2230    11.9280     2.3640 
  215.3750   -11.6170    87.7650     9.7170    12.5380    12.8440     2.3660 
  215.5000   -11.9750    85.8190    10.0090    12.9460    14.6240     2.3730 
  215.6250   -12.3120    82.8870    10.2720    13.3030    14.8480     2.3820 
  215.7500   -12.6710    81.9910    10.4210    13.4890    14.3900     2.3870 
  215.8750   -13.0710    81.8740    10.4890    13.5420    14.2330     2.3850 
  216.0000   -13.5200    79.8930    10.5540    13.6180    13.8860     2.3820 
  216.1250   -13.9800    79.1400    10.6910    13.8100    13.8010     2.3830 
  216.2500   -14.1810    82.7380    10.9000    14.1100    14.7840     2.3890 
  216.3750   -13.9050    85.7480    11.1060    14.3810    16.4690     2.3960 
  216.5000   -13.2230    85.2950    11.1610    14.4240    16.9360     2.3980 
  216.6250   -12.4730    84.1080    11.0060    14.1530    15.4360     2.3920 
  216.7500   -12.0340    83.0790    10.6640    13.6330    13.7130     2.3790 
  216.8750   -12.1070    82.1080    10.2970    13.1160    13.2300     2.3660 
  217.0000   -12.5590    80.8150     9.9930    12.7240    13.4260     2.3600 
  217.1250   -13.0760    81.3050     9.7500    12.4640    13.4230     2.3610 
  217.2500   -13.4050    83.5740     9.5650    12.2810    13.0180     2.3690 
  217.3750   -13.2560    85.1080     9.3740    12.0660    11.6620     2.3780 
  217.5000   -12.5920    84.4560     9.1780    11.7910    10.2560     2.3850 
  217.6250   -11.8450    86.9400     9.0470    11.5700    11.0140     2.3900 
  217.7500   -11.2660    93.7630     9.0240    11.4510    12.4370     2.3900 
  217.8750   -10.7900    99.6700     9.1000    11.4220    12.4890     2.3860 
  218.0000   -10.5810   100.1420     9.2850    11.5210    12.1560     2.3770 
  218.1250   -10.6540   100.1960     9.4830    11.6370    12.0290     2.3680 
  218.2500   -10.8990   101.8100     9.6740    11.7360    12.0600     2.3630 
  218.3750   -11.2570   101.0660     9.8270    11.8280    12.0920     2.3640 
  218.5000   -11.6140    98.2320     9.9560    11.9140    11.8980     2.3680 
  218.6250   -11.9110    97.5500    10.0540    11.9840    11.6150     2.3720 
  218.7500   -12.2570    97.8560    10.1170    12.0360    11.6530     2.3740 
  218.8750   -12.7180    94.7390    10.1360    12.0450    12.7160     2.3750 
  219.0000   -13.1650    89.1270    10.0860    11.9670    14.0010     2.3770 
  219.1250   -13.5950    86.4990     9.9180    11.7410    13.5470     2.3790 
  219.2500   -13.9020    87.0950     9.6290    11.3710    12.4120     2.3810 
  219.3750   -13.8730    87.1050     9.2940    10.9470    12.3130     2.3830 
  219.5000   -13.3900    84.6290     9.0200    10.5930    12.0830     2.3860 
  219.6250   -12.7030    83.3920     8.9060    10.4300    11.3050     2.3890 
  219.7500   -12.0620    84.9570     9.2200    10.7570    11.2970     2.3870 
  219.8750   -11.8140    87.5050    10.2390    11.9720    12.8870     2.3750 
  220.0000   -12.1990    86.4550    12.1230    14.1620    16.2260     2.3510 
  220.1250   -12.9060    82.1080    15.1070    17.4870    23.0870     2.3210 
  220.2500   -13.6670    75.6740    18.8220    21.6040    35.4370     2.2910 
  220.3750   -14.2070    70.3530    23.1260    26.2970    44.9460     2.2650 
