~V
VERS. 2.00: Ver 2.00
~W
STRT.M 60.0000:
STOP.M 291.0000:
STEP.M 0.1250:
NULL. -999.2500:
UWI. F12014:
~C
DEPT.M :
SP.MV :
GR.API :
RI. :
RML.OHMM :
RXO.OHMM :
DEN.GM/CC :
~A
# ...
   98.6250   -16.4600    86.0970     5.8040     7.0290     6.7870     2.1420 
   98.7500   -17.6120    84.8680     6.0250     7.2460     6.8070     2.1450 
   98.8750   -18.5650    83.0320     6.1940     7.4220     6.7480     2.1510 
   99.0000   -19.1570    81.4080     6.3790     7.6560     6.6680     2.1440 
   99.1250   -19.2820    80.8410     6.4890     7.7980     6.6050     2.1280 
   99.2500   -19.2480    81.1680     6.4280     7.7190     6.5740     2.1240 
   99.3750   -19.2600    80.8610     6.2520     7.4770     6.5640     2.1390 
   99.5000   -19.2180    80.2580     6.0200     7.1430     6.4940     2.1660 
   99.6250   -19.1830    80.6550     5.8090     6.8330     6.3440     2.1800 
   99.7500   -19.1030    81.2720     5.7130     6.6870     6.2460     2.1750 
   99.8750   -19.1910    80.8640     5.7560     6.7330     6.2930     2.1600 
  100.0000   -19.6180    77.6580     5.9810     6.9870     6.4250     2.1440 
  100.1250   -20.0990    74.9840     6.2200     7.2450     6.5500     2.1320 
  100.2500   -20.2320    72.9900     6.4030     7.4350     6.6170     2.1340 
  100.3750   -20.0990    72.9240     6.5130     7.5380     6.6090     2.1490 
  100.5000   -19.6870    74.2070     6.4850     7.4990     6.5600     2.1710 
  100.6250   -18.6260    77.4120     6.3170     7.2980     6.5470     2.1880 
  100.7500   -17.0850    81.5710     5.9410     6.8390     6.5020     2.2000 
  100.8750   -15.4220    85.7140     5.4220     6.2140     6.2170     2.2180 
  101.0000   -13.9910    89.9460     4.8850     5.5710     5.6580     2.2400 
  101.1250   -12.9500    93.0230     4.4210     5.0250     5.1270     2.2680 
  101.2500   -12.5270    95.9690     4.1070     4.6540     4.9660     2.2870 
  101.3750   -12.7060    97.9390     3.9650     4.4810     5.1310     2.2980 
  101.5000   -13.2090    99.7930     4.0880     4.6070     5.3470     2.2970 
  101.6250   -14.0180    98.9650     4.4840     5.0450     5.5280     2.2870 
  101.7500   -14.9600    95.3080     5.0750     5.7080     5.9800     2.2640 
  101.8750   -16.0170    90.0290     5.7830     6.5050     6.7270     2.2230 
  102.0000   -16.8600    84.1430     6.5960     7.4040     7.2680     2.1700 
  102.1250   -17.1920    78.2800     7.3340     8.2220     7.3490     2.1200 
  102.2500   -16.7420    72.9110     7.7510     8.7350     7.2230     2.0910 
  102.3750   -15.8800    70.3490     7.8150     8.8490     7.1480     2.0850 
  102.5000   -15.2730    69.2030     7.4750     8.4670     7.0620     2.0990 
  102.6250   -15.1550    69.3600     6.9030     7.7400     6.9090     2.1260 
  102.7500   -15.3380    72.2420     6.2590     6.8710     6.6900     2.1630 
  102.8750   -15.4980    78.3360     5.7320     6.1740     6.3940     2.2090 
  103.0000   -15.3270    84.9410     5.6170     6.0300     6.1130     2.2650 
  103.1250   -14.7580    87.4480     6.1950     6.7880     6.6820     2.3410 
  103.2500   -14.2930    86.5340     7.5270     8.4390     9.7400     2.4390 
  103.3750   -14.3840    82.4690    10.4930    11.9950    15.7810     2.5330 
  103.5000   -15.1090    78.8540    15.7340    18.4640    23.7420     2.5920 
  103.6250   -16.2460    74.1390    20.5990    24.0450    31.5960     2.6000 
  103.7500   -17.6530    71.7850    22.1090    25.5320    36.6450     2.5390 
  103.8750   -18.9620    71.0180    20.2780    22.9220    35.1960     2.4160 
  104.0000   -19.8280    71.9930    15.9340    17.3210    25.9650     2.2730 
  104.1250   -20.2130    71.4140    12.4390    13.2260    16.2730     2.1750 
  104.2500   -20.0610    70.1100    10.7870    11.5460    11.3860     2.1340 
  104.3750   -19.4270    70.4330    10.0010    10.9780    11.0350     2.1230 
  104.5000   -18.5730    72.8000     9.7790    11.0010    10.4420     2.1170 
  104.6250   -17.3600    73.3080     9.6900    10.9500     9.7760     2.1140 
  104.7500   -16.1160    71.4630     9.3040    10.4070     8.6130     2.1100 
  104.8750   -15.4450    68.8660     8.5990     9.4880     7.4810     2.1050 
  105.0000   -15.3800    68.0170     7.8740     8.6110     6.5450     2.1030 
  105.1250   -15.4750    67.7230     7.4310     8.1180     6.1150     2.1010 
  105.2500   -15.5670    67.3040     7.2760     7.9380     5.9540     2.0960 
  105.3750   -15.5210    67.9260     7.2460     7.8770     5.9950     2.0870 
  105.5000   -15.4600    67.3890     7.2780     7.8910     6.1120     2.0840 
  105.6250   -15.3760    66.0070     7.3150     7.9340     6.3220     2.0850 
  105.7500   -15.3490    64.1530     7.3270     7.9630     6.7860     2.0890 
  105.8750   -15.7120    64.6950     7.2930     7.9610     7.4900     2.0910 
  106.0000   -16.3330    66.2650     7.2200     7.9140     8.2520     2.0950 
  106.1250   -17.3290    65.6930     7.1360     7.8430     8.7780     2.0990 
  106.2500   -18.5960    64.4850     7.0510     7.7890     8.8540     2.0950 
  106.3750   -19.5800    62.7450     6.9860     7.7660     8.5880     2.0870 
  106.5000   -20.1410    63.0110     6.9070     7.7390     8.1140     2.0850 
  106.6250   -20.4570    64.5650     6.8150     7.7010     7.5180     2.0900 
  106.7500   -20.4800    66.9550     6.7020     7.6320     6.8380     2.0910 
  106.8750   -20.2660    69.1140     6.5740     7.5470     6.3270     2.0910 
  107.0000   -19.7090    70.2140     6.4770     7.4960     6.2290     2.0920 
  107.1250   -19.2440    72.4720     6.4140     7.4780     6.3960     2.0990 
  107.2500   -19.0490    74.2800     6.3900     7.5000     6.5530     2.1050 
  107.3750   -19.2900    76.8120     6.3790     7.5140     6.5480     2.1230 
  107.5000   -19.6670    77.6570     6.3200     7.4500     6.3670     2.1520 
  107.6250   -20.2890    78.1550     6.1940     7.2930     6.1590     2.1870 
  107.7500   -21.2240    78.7260     6.0170     7.0800     6.0980     2.2010 
  107.8750   -22.1740    80.6080     5.8690     6.9130     6.1250     2.1940 
  108.0000   -22.5630    82.5520     5.7930     6.8540     6.1040     2.1750 
  108.1250   -22.1810    82.2130     5.8240     6.9340     6.0710     2.1600 
  108.2500   -21.1020    79.9930     5.9820     7.1760     6.1860     2.1490 
  108.3750   -19.9920    77.9910     6.2090     7.4870     6.4380     2.1400 
  108.5000   -19.4460    76.4570     6.4350     7.7610     6.6600     2.1300 
  108.6250   -19.2210    74.6550     6.5840     7.9160     6.7150     2.1210 
  108.7500   -19.1750    73.3360     6.6140     7.9040     6.5820     2.1150 
  108.8750   -19.3810    71.6370     6.5530     7.7880     6.4020     2.1110 
  109.0000   -20.1590    70.6520     6.4360     7.6260     6.3220     2.1110 
  109.1250   -21.0830    69.2740     6.3050     7.4690     6.3320     2.1150 
  109.2500   -21.6820    70.8050     6.2050     7.3540     6.2990     2.1270 
  109.3750   -21.4870    74.3360     6.1770     7.3460     6.1670     2.1360 
  109.5000   -20.5940    79.0390     6.2520     7.4620     6.0390     2.1440 
  109.6250   -19.2290    80.7160     6.3970     7.6790     6.0560     2.1480 
  109.7500   -17.9850    80.0060     6.5560     7.9140     6.2440     2.1540 
  109.8750   -17.1990    78.9760     6.6180     8.0060     6.4990     2.1580 
  110.0000   -16.8940    78.6520     6.4900     7.8350     6.6770     2.1670 
  110.1250   -16.8710    79.1000     6.1850     7.4180     6.6450     2.1780 
  110.2500   -17.0660    80.0700     5.8150     6.9230     6.3380     2.1870 
  110.3750   -17.7940    82.3620     5.4970     6.5160     5.9270     2.1830 
  110.5000   -18.6450    86.1710     5.3420     6.3450     5.7200     2.1740 
  110.6250   -19.2820    88.6240     5.3680     6.4230     5.7980     2.1630 
  110.7500   -19.6710    89.4100     5.5430     6.6780     5.9630     2.1490 
  110.8750   -20.0450    86.9830     5.7830     6.9870     6.0430     2.1300 
  111.0000   -20.5140    83.6710     5.9960     7.2300     6.0630     2.1180 
  111.1250   -21.0060    78.3160     6.1430     7.3770     6.0710     2.1140 
  111.2500   -21.3420    73.2190     6.2460     7.4680     6.0620     2.1180 
  111.3750   -21.4260    69.0550     6.3280     7.5380     6.0910     2.1180 
