~V
VERS. 2.00: Ver 2.00
~W
STRT.M 66.0000:
STOP.M 299.0000:
STEP.M 0.1250:
NULL. -999.2500:
UWI. F12016:
~C
DEPT.M :
SP.MV :
GR.API :
RI. :
RML.OHMM :
RXO.OHMM :
DEN.GM/CC :
~A
# ...
   91.7500    -8.3060   106.2010     4.5770     5.4080     6.5740     2.2440 
   91.8750    -8.8180   107.6840     4.5980     5.4500     6.7420     2.2440 
   92.0000    -8.9480   102.4530     4.5850     5.4420     6.5040     2.2410 
   92.1250    -8.6510    96.2300     4.5330     5.3720     6.0100     2.2390 
   92.2500    -8.2390    94.6160     4.4400     5.2580     6.1080     2.2360 
   92.3750    -7.8000    97.3580     4.3270     5.1230     6.1310     2.2330 
   92.5000    -7.4030   101.1320     4.2080     4.9660     5.6400     2.2310 
   92.6250    -7.1650   102.5280     4.1540     4.8850     5.5900     2.2300 
   92.7500    -7.1190   103.0210     4.1720     4.9000     6.0380     2.2290 
   92.8750    -7.2560   103.9450     4.2820     5.0420     6.4310     2.2250 
   93.0000    -7.5900   101.6510     4.5270     5.3690     6.6590     2.2170 
   93.1250    -8.0360    97.9480     4.8090     5.7510     6.7770     2.2070 
   93.2500    -8.4830    96.2940     5.0260     6.0510     8.2450     2.1980 
   93.3750    -8.9410    96.2850     5.1170     6.1730     9.7150     2.1930 
   93.5000    -9.5510    94.9550     5.0580     6.0820     8.4490     2.1950 
   93.6250   -10.0760    94.5060     4.8720     5.8210     6.6490     2.2040 
   93.7500   -10.4290    96.6940     4.6140     5.4670     6.3170     2.2160 
   93.8750   -10.7270    98.6200     4.3320     5.0970     6.9070     2.2260 
   94.0000   -10.8900    98.9680     4.1650     4.8800     7.0130     2.2310 
   94.1250   -10.7840    99.7020     4.1600     4.8690     6.0610     2.2290 
   94.2500   -10.4250   100.0180     4.3200     5.0650     5.8530     2.2210 
   94.3750   -10.0080   100.1600     4.6510     5.4900     6.4980     2.2100 
   94.5000    -9.8020    98.4740     5.1520     6.1270     6.7630     2.1940 
   94.6250   -10.0510    92.1610     5.7700     6.8770     6.8460     2.1740 
   94.7500   -10.6270    81.2830     6.3610     7.5560     7.1510     2.1520 
   94.8750   -11.2140    72.7800     6.7750     7.9600     7.8890     2.1330 
   95.0000   -11.6870    69.9950     6.9430     8.0480     8.5780     2.1180 
   95.1250   -11.7900    69.8860     6.8480     7.8290     8.3120     2.1100 
   95.2500   -11.3590    70.8880     6.5240     7.3640     7.6310     2.1100 
   95.3750   -10.7890    71.9920     6.0650     6.7860     7.4650     2.1230 
   95.5000   -10.3670    75.3260     5.5550     6.1780     7.2410     2.1480 
   95.6250   -10.0430    81.7980     5.1390     5.7200     6.6110     2.1800 
   95.7500    -9.8680    90.1960     4.9180     5.5130     6.3410     2.2070 
   95.8750    -9.9750    95.9320     4.8820     5.5510     6.4240     2.2200 
   96.0000   -10.3930    96.1470     4.9920     5.7820     6.6790     2.2170 
   96.1250   -10.9610    93.7570     5.1740     6.0920     7.0340     2.2030 
   96.2500   -11.5850    90.7230     5.3260     6.3280     7.0790     2.1830 
   96.3750   -12.1540    87.8180     5.3760     6.3680     7.0760     2.1630 
   96.5000   -12.6250    85.0420     5.3600     6.2840     7.2140     2.1480 
   96.6250   -13.0530    81.9100     5.4630     6.3040     7.1060     2.1450 
   96.7500   -13.3680    78.6490     5.9970     6.8230     6.8590     2.1640 
   96.8750   -13.5400    75.7280     7.1750     8.1630     8.1660     2.2100 
   97.0000   -13.5930    75.0610     9.3110    10.6240    15.4040     2.2860 
   97.1250   -13.4320    75.1810    13.1560    14.8420    26.5000     2.3780 
   97.2500   -12.8570    73.3300    18.5430    20.8380    35.1180     2.4640 
   97.3750   -11.9460    71.3820    24.6250    27.6030    44.0180     2.5320 
   97.5000   -11.0520    70.6590    29.6110    33.1570    55.0710     2.5720 
   97.6250   -10.4600    70.0940    31.4230    34.9480    60.4450     2.5890 
   97.7500   -10.4430    68.9540    28.3570    31.1760    63.7290     2.5780 
   97.8750   -10.9480    68.6370    22.6570    24.5580    79.2910     2.5350 
   98.0000   -11.7280    68.7310    16.0250    17.1110    77.7910     2.4550 
   98.1250   -12.5250    68.1450    10.9600    11.7750    40.2570     2.3520 
   98.2500   -12.9820    66.1410     8.4510     9.2360    11.8650     2.2480 
   98.3750   -12.9080    63.9710     7.1690     8.0150     7.3800     2.1660 
   98.5000   -12.3720    62.5860     6.7590     7.7270     7.4010     2.1160 
   98.6250   -11.8930    63.6150     6.6460     7.7160     7.4500     2.0920 
   98.7500   -11.6180    65.8890     6.6300     7.7220     7.4980     2.0860 
   98.8750   -11.5100    68.6550     6.5730     7.6080     7.4770     2.0870 
   99.0000   -11.6670    69.0030     6.4800     7.4350     7.3650     2.0900 
   99.1250   -11.9570    66.6310     6.4020     7.2810     7.4020     2.0900 
   99.2500   -12.3280    63.8570     6.3800     7.2150     7.5170     2.0890 
   99.3750   -12.8350    64.9890     6.3890     7.2140     7.4130     2.0890 
   99.5000   -13.3060    68.6030     6.4190     7.2350     7.2710     2.0930 
   99.6250   -13.6860    69.4480     6.4280     7.2480     7.1240     2.1030 
   99.7500   -13.9620    67.1200     6.4260     7.2590     6.9620     2.1180 
   99.8750   -14.0850    65.8350     6.4170     7.2700     7.0500     2.1340 
  100.0000   -14.0940    69.1670     6.3960     7.2700     7.3260     2.1460 
  100.1250   -14.2540    74.2200     6.3750     7.2750     7.5560     2.1520 
  100.2500   -14.3980    76.3590     6.3720     7.3030     7.6540     2.1520 
  100.3750   -14.2440    75.2730     6.3840     7.3410     7.6290     2.1470 
  100.5000   -13.6030    71.4280     6.3940     7.3730     7.6970     2.1420 
  100.6250   -12.7140    68.3350     6.3990     7.3930     7.8240     2.1370 
  100.7500   -11.9090    67.3380     6.3810     7.3780     7.6810     2.1300 
  100.8750   -11.5070    67.7780     6.3420     7.3370     7.4550     2.1200 
  101.0000   -11.6850    67.7500     6.2990     7.2990     7.4690     2.1070 
  101.1250   -12.1740    67.0390     6.2590     7.2600     7.5350     2.0930 
  101.2500   -12.7960    66.0920     6.2210     7.2300     7.4200     2.0830 
  101.3750   -13.3270    64.6390     6.1950     7.2080     7.3030     2.0760 
  101.5000   -13.4000    63.5390     6.1790     7.1900     7.3380     2.0730 
  101.6250   -13.0480    63.4760     6.1790     7.1800     7.3960     2.0720 
  101.7500   -12.6960    63.7220     6.1990     7.1900     7.3760     2.0740 
  101.8750   -12.5120    64.7560     6.2360     7.2300     7.3660     2.0760 
  102.0000   -12.4050    67.1840     6.2820     7.2830     7.4540     2.0790 
  102.1250   -12.4170    70.4340     6.3460     7.3570     7.5220     2.0820 
  102.2500   -12.6270    70.7170     6.4380     7.4750     7.4890     2.0860 
  102.3750   -12.9080    68.2280     6.5750     7.6440     7.4950     2.0900 
  102.5000   -13.1320    66.5260     6.7370     7.8460     7.7100     2.0930 
  102.6250   -13.3450    67.9070     6.8790     8.0230     7.8170     2.0950 
  102.7500   -13.4770    71.9640     6.9510     8.1000     7.6230     2.0960 
  102.8750   -13.6060    74.8430     6.9050     8.0140     7.6280     2.0950 
  103.0000   -13.8210    73.8840     6.7500     7.7690     7.7780     2.0940 
  103.1250   -14.0530    70.7710     6.5210     7.4330     7.6020     2.0920 
  103.2500   -14.3400    69.6220     6.3120     7.1430     7.2570     2.0910 
  103.3750   -14.6700    71.1060     6.1730     6.9740     7.0500     2.0910 
  103.5000   -14.9140    72.3390     6.1340     6.9560     6.9500     2.0940 
  103.6250   -14.7920    71.8790     6.1610     7.0250     6.9140     2.0960 
  103.7500   -14.2640    70.8580     6.1970     7.1150     6.9470     2.0980 
  103.8750   -13.5910    71.6320     6.2210     7.1890     6.8890     2.0980 
  104.0000   -13.1600    73.1970     6.2040     7.2170     6.5820     2.0980 
  104.1250   -13.2750    72.8750     6.1550     7.2040     6.2710     2.0980 
  104.2500   -13.7720    69.6160     6.0590     7.1240     6.3600     2.0990 
  104.3750   -14.3870    67.1780     5.9240     6.9690     6.7230     2.1020 
  104.5000   -14.9160    69.3160     5.7650     6.7520     7.0420     2.1050 
