~V
VERS. 2.00: Ver 2.00
~W
STRT.M 66.0000:
STOP.M 299.0000:
STEP.M 0.1250:
NULL. -999.2500:
UWI. F12016:
~C
DEPT.M :
SP.MV :
GR.API :
RI. :
RML.OHMM :
RXO.OHMM :
DEN.GM/CC :
~A
# ...
  272.0000   -13.1140    71.7990    16.8310    19.0650    24.1300     2.2780 
  272.1250   -12.7350    69.6330    19.0290    21.6310    35.4490     2.2700 
  272.2500   -12.0590    67.0520    21.1970    24.0070    44.6820     2.2590 
  272.3750   -11.3690    66.0450    22.5720    25.2760    41.8340     2.2460 
  272.5000   -11.0720    66.5370    22.7670    25.1440    32.6220     2.2330 
  272.6250   -11.3180    66.2690    22.1140    24.1180    26.7730     2.2210 
  272.7500   -11.9590    65.7950    21.3770    23.1600    25.9630     2.2100 
  272.8750   -12.6810    65.5770    21.5790    23.4450    28.0110     2.2010 
  273.0000   -13.3560    66.0210    23.3470    25.5440    29.6910     2.1940 
  273.1250   -13.6410    65.2010    26.5060    29.3350    34.5160     2.1890 
  273.2500   -13.3250    61.5070    30.8010    34.5490    46.0820     2.1870 
  273.3750   -12.8540    57.9710    34.7850    39.2350    55.1800     2.1870 
  273.5000   -12.4950    58.2770    35.6160    40.1380    57.8300     2.1900 
  273.6250   -12.1560    60.7990    32.6720    36.5150    56.8430     2.1990 
  273.7500   -11.9440    60.7540    27.6620    30.4540    46.2900     2.2180 
  273.8750   -11.8950    59.9300    22.8340    24.9340    28.7080     2.2420 
  274.0000   -11.9500    60.8240    21.0190    22.8550    20.9950     2.2650 
  274.1250   -12.0060    61.4710    22.7740    25.1040    31.6340     2.2810 
  274.2500   -12.1390    59.3270    27.6140    31.1850    55.0200     2.2850 
  274.3750   -12.2680    56.1810    34.5610    39.5840    74.6650     2.2780 
  274.5000   -12.3980    54.3840    40.2790    46.0320    79.4950     2.2620 
  274.6250   -12.6070    54.6180    41.9710    47.2440    69.3460     2.2420 
  274.7500   -12.8630    57.4190    39.3870    43.4960    52.5710     2.2220 
  274.8750   -13.1760    59.7320    34.6590    37.6000    41.9830     2.2040 
  275.0000   -13.5240    59.9560    30.8320    33.4390    37.1120     2.1930 
  275.1250   -13.6340    60.0050    29.1840    31.8930    34.7900     2.1890 
  275.2500   -13.2460    62.2470    28.7890    31.7540    35.4830     2.1950 
  275.3750   -12.4470    63.3080    28.7620    32.0310    37.5200     2.2120 
  275.5000   -11.5720    61.0630    27.8470    31.1240    37.4420     2.2350 
  275.6250   -10.9960    59.1890    25.7280    28.6460    34.4530     2.2580 
  275.7500   -11.0200    60.1510    22.1880    24.5180    30.3390     2.2720 
  275.8750   -11.4370    63.4650    18.2400    19.8940    23.6830     2.2790 
  276.0000   -11.9860    67.8990    15.1690    16.4600    16.8840     2.2800 
  276.1250   -12.4910    71.0080    13.0920    14.1970    14.2580     2.2790 
  276.2500   -12.5510    71.5060    12.6890    13.8460    14.4900     2.2740 
  276.3750   -12.2130    70.2840    13.5450    14.9430    15.8920     2.2640 
  276.5000   -11.8180    68.6060    15.2340    17.0760    21.5230     2.2510 
  276.6250   -11.5620    67.1140    17.3400    19.6250    30.3100     2.2350 
  276.7500   -11.2620    64.9060    19.1850    21.8560    33.6770     2.2210 
  276.8750   -10.9890    62.2780    20.1720    23.0000    30.1700     2.2120 
  277.0000   -10.9060    60.2620    20.2650    23.0490    26.0230     2.2140 
  277.1250   -10.8770    60.3910    19.6940    22.3350    22.9180     2.2250 
  277.2500   -10.8230    61.9830    18.7710    21.2280    21.5590     2.2400 
  277.3750   -10.7720    62.2760    18.0120    20.3470    23.3500     2.2490 
  277.5000   -10.6720    60.2720    17.4870    19.7960    24.5110     2.2510 
  277.6250   -10.5450    57.2690    17.2440    19.6130    23.0350     2.2480 
  277.7500   -10.5010    55.0810    17.3910    19.9260    21.8680     2.2490 
  277.8750   -10.4940    55.2180    17.9630    20.7670    22.2420     2.2570 
  278.0000   -10.5110    56.5420    18.7420    21.8150    23.7290     2.2720 
  278.1250   -10.7250    57.4300    19.5100    22.7970    26.6680     2.2860 
  278.2500   -11.0060    58.1420    19.8240    23.0650    29.7590     2.2890 
  278.3750   -11.0130    58.7780    19.4930    22.4800    28.5350     2.2770 
  278.5000   -10.6040    60.1860    18.4860    21.1300    24.0700     2.2530 
  278.6250    -9.8460    60.4740    17.2480    19.5550    21.2670     2.2290 
  278.7500    -9.0450    58.4430    16.0510    18.1380    18.5980     2.2140 
  278.8750    -8.6390    56.5840    15.0810    17.0300    16.9480     2.2120 
  279.0000    -8.6720    58.0900    14.4360    16.2880    17.6460     2.2180 
  279.1250    -8.9720    61.6890    13.9670    15.7440    17.2630     2.2270 
  279.2500    -9.4580    64.4590    13.6410    15.3790    16.4950     2.2380 
  279.3750    -9.7140    64.9340    13.4710    15.1980    16.3780     2.2520 
  279.5000    -9.4070    63.1450    13.4680    15.2310    16.1270     2.2680 
  279.6250    -9.0390    60.3780    13.6790    15.5260    16.5440     2.2840 
  279.7500    -8.8580    58.6070    14.2010    16.1660    16.1530     2.2940 
  279.8750    -8.5100    58.6510    15.0130    17.1190    15.0610     2.2940 
  280.0000    -8.0530    60.9190    15.8880    18.1110    16.6450     2.2850 
  280.1250    -7.8700    63.9770    16.7690    19.1290    19.7330     2.2720 
  280.2500    -7.7530    65.0020    17.5980    20.1460    21.4310     2.2620 
  280.3750    -7.7410    63.3480    18.3930    21.1370    21.0980     2.2570 
  280.5000    -7.7680    61.7200    19.5730    22.5510    21.2920     2.2570 
  280.6250    -7.7340    60.5190    21.1920    24.4250    25.8560     2.2590 
  280.7500    -7.8410    58.5390    23.8420    27.6070    32.5810     2.2670 
  280.8750    -7.8830    56.3730    27.1470    31.6730    37.9370     2.2860 
  281.0000    -7.4930    55.4090    30.1810    35.4580    45.4800     2.3190 
  281.1250    -7.4290    55.1370    32.0850    37.9000    52.7400     2.3640 
  281.2500    -7.8800    56.2940    32.1220    37.9880    52.2630     2.4100 
  281.3750    -8.4530    57.8160    30.2810    35.7700    44.4230     2.4480 
  281.5000    -8.8430    57.1050    27.6920    32.6970    34.9090     2.4710 
  281.6250    -8.8020    53.1970    25.2400    29.8610    30.2200     2.4820 
  281.7500    -8.1020    51.1000    24.0450    28.6000    30.5170     2.4890 
  281.8750    -7.3610    52.3900    24.0680    28.8000    37.8140     2.5000 
  282.0000    -7.1640    54.8760    25.1680    30.1790    44.4790     2.5170 
  282.1250    -7.3130    56.5750    27.3410    32.7290    37.6330     2.5410 
  282.2500    -7.5220    57.1700    30.4340    36.2360    30.9730     2.5680 
  282.3750    -7.8590    56.7780    34.0320    40.3310    39.9200     2.5900 
  282.5000    -7.9040    55.1810    37.0730    43.5680    62.4430     2.6040 
  282.6250    -7.4390    54.7440    38.1940    44.4800    85.2070     2.6100 
  282.7500    -6.9630    55.8760    38.8150    44.8580    87.8890     2.6130 
  282.8750    -6.6460    56.8760    38.2520    43.8320    62.5650     2.6150 
  283.0000    -6.2400    57.5850    36.1860    41.5540    40.0980     2.6190 
  283.1250    -6.0080    59.3150    33.6850    39.3930    40.5340     2.6230 
  283.2500    -6.0890    62.6580    31.6060    38.0800    35.4900     2.6240 
  283.3750    -6.1610    66.4530    27.2570    33.0140    29.7030     2.6240 
  283.5000    -6.1540    67.9750    21.4600    25.9420    41.2930     2.6260 
  283.6250    -6.1170    65.7330    14.6700    17.0970    42.5590     2.6310 
  283.7500    -6.0280    60.8040     7.6680     8.4850    22.5570     2.6270 
  283.8750    -5.9980    56.3550     4.8750     5.4180     7.6280     2.6020 
  284.0000    -6.0390    54.5450     3.9630     4.4830     6.0980     2.5500 
  284.1250    -5.9130    53.6840     3.9600     4.6890     7.2540     2.4830 
  284.2500    -5.6990    51.9550     4.6220     5.7150     8.0980     2.4180 
  284.3750    -5.6690    50.1470     5.4630     6.8320     8.6910     2.3630 
  284.5000    -5.6690    50.1330     6.0680     7.4940     8.1730     2.3220 
  284.6250    -5.6690    51.4830     6.1170     7.3240     6.7150     2.2930 
  284.7500    -5.6690    52.6150     5.8310     6.7660     5.8460     2.2760 
