~V
VERS. 2.00: Ver 2.00
~W
STRT.M 66.0000:
STOP.M 299.0000:
STEP.M 0.1250:
NULL. -999.2500:
UWI. F12016:
~C
DEPT.M :
SP.MV :
GR.API :
RI. :
RML.OHMM :
RXO.OHMM :
DEN.GM/CC :
~A
# ...
  220.5000   -14.2050    67.9560    27.5450    31.0710    47.2470     2.2450 
  220.6250   -13.8000    67.5100    31.1680    34.8730    49.4250     2.2310 
  220.7500   -13.3640    66.9980    33.7160    37.4110    52.5260     2.2250 
  220.8750   -13.0300    66.0890    34.7560    38.2390    54.2510     2.2260 
  221.0000   -12.6990    65.2290    34.1760    37.4000    52.6660     2.2340 
  221.1250   -12.4940    65.1670    31.6970    34.5710    48.0090     2.2460 
  221.2500   -12.4490    66.6290    27.8480    30.1620    43.0100     2.2600 
  221.3750   -12.4590    70.1890    23.2050    25.0000    37.2690     2.2770 
  221.5000   -12.5300    74.9120    18.7370    20.0180    28.8220     2.2970 
  221.6250   -12.6080    80.2300    15.5860    16.6240    22.8050     2.3180 
  221.7500   -12.6790    84.8180    13.8250    14.8380    20.2610     2.3330 
  221.8750   -12.8080    86.8170    13.9170    15.0800    15.9710     2.3370 
  222.0000   -13.1010    86.6450    16.2890    17.5020    17.6890     2.3260 
  222.1250   -13.4930    85.1250    20.3460    21.8700    30.4770     2.3030 
  222.2500   -13.9930    81.9370    25.9750    28.0760    44.0980     2.2730 
  222.3750   -14.4860    76.9230    31.9920    34.5900    50.8480     2.2470 
  222.5000   -14.6030    72.6460    37.1470    40.0970    52.2720     2.2290 
  222.6250   -14.2380    70.4130    40.3830    43.1540    52.6210     2.2190 
  222.7500   -13.5900    69.7520    41.6570    44.0570    54.3250     2.2140 
  222.8750   -13.0400    70.0930    41.5770    43.7470    54.7460     2.2120 
  223.0000   -12.9440    70.7330    41.0100    43.1190    52.8680     2.2110 
  223.1250   -13.3790    71.2420    40.5040    42.6950    51.8490     2.2130 
  223.2500   -14.0590    71.2370    40.4400    42.8780    50.9320     2.2170 
  223.3750   -14.7250    71.6630    40.8050    43.5200    49.5350     2.2250 
  223.5000   -15.1060    71.0340    41.3350    44.2830    52.5130     2.2310 
  223.6250   -14.9760    68.9510    41.8090    44.8770    60.9700     2.2330 
  223.7500   -14.5260    67.1690    42.0730    45.0750    62.9520     2.2310 
  223.8750   -14.1000    67.3080    42.3530    45.2100    55.5430     2.2270 
  224.0000   -13.7730    67.5950    42.8450    45.5560    52.5010     2.2250 
  224.1250   -13.5400    66.3980    43.8430    46.5230    58.8260     2.2220 
  224.2500   -13.5170    66.4970    46.0990    48.9290    65.0080     2.2190 
  224.3750   -13.6660    68.0480    49.1590    52.1660    62.4430     2.2140 
  224.5000   -13.8990    68.9140    52.7730    55.8850    60.6440     2.2090 
  224.6250   -14.1870    68.2840    56.6620    59.9180    69.0850     2.2050 
  224.7500   -14.4640    68.6380    61.4630    64.9380    76.3370     2.2040 
  224.8750   -14.7060    69.5150    67.3170    71.1340    77.5210     2.2040 
  225.0000   -14.9480    69.2860    73.5700    77.8070    89.8910     2.2010 
  225.1250   -15.2580    66.0950    79.2590    83.8050   108.6500     2.1940 
  225.2500   -15.6330    62.6740    83.2410    87.8280   114.5930     2.1840 
  225.3750   -16.0100    61.8870    85.7460    90.2200   108.5700     2.1740 
  225.5000   -16.2310    63.1700    86.8800    91.0520    97.3030     2.1680 
  225.6250   -16.0440    62.2980    86.4630    90.2890    91.3780     2.1650 
  225.7500   -15.4050    59.8220    85.1170    88.8310    99.3130     2.1650 
  225.8750   -14.6530    59.3320    84.3370    87.9610   107.8760     2.1680 
  226.0000   -14.1620    60.5470    84.2950    87.7530   100.9530     2.1730 
  226.1250   -14.1920    61.0790    84.7890    88.0930    96.3050     2.1770 
  226.2500   -14.7290    59.4760    86.3070    89.6210   104.3200     2.1760 
  226.3750   -15.3950    57.9060    88.6020    91.8990   117.7000     2.1710 
  226.5000   -15.9970    58.2600    90.1240    93.2720   133.7500     2.1640 
  226.6250   -16.2900    60.5920    90.3800    93.1590   136.9100     2.1600 
  226.7500   -16.0830    63.5210    88.0090    90.1280   118.0800     2.1610 
  226.8750   -15.6010    65.0220    83.9670    85.5420    92.4250     2.1670 
  227.0000   -15.2380    64.5950    80.4170    81.6250    81.3380     2.1750 
  227.1250   -14.9160    62.9860    78.4360    79.4650    83.2570     2.1790 
  227.2500   -14.7040    61.5090    78.7170    79.8210    89.7420     2.1790 
  227.3750   -14.7020    60.6820    81.4240    82.7080   100.1220     2.1750 
  227.5000   -14.9020    60.4130    86.2050    87.5680   109.8110     2.1680 
  227.6250   -15.1220    60.1310    91.2240    92.5440   116.5890     2.1590 
  227.7500   -15.3540    59.2460    96.3020    97.6100   116.7900     2.1490 
  227.8750   -15.5080    58.3880   101.6790   103.0410   113.9710     2.1400 
  228.0000   -15.6300    59.3800   104.6740   105.4180   121.0470     2.1350 
  228.1250   -15.8500    62.1550   101.8080   101.6670   136.9500     2.1330 
  228.2500   -16.1050    62.4830    92.6610    91.6310   149.1150     2.1360 
  228.3750   -16.4060    59.5410    80.3320    78.7310   132.6390     2.1440 
  228.5000   -16.7210    56.5460    70.3510    68.7780    85.9630     2.1550 
  228.6250   -16.8060    57.3610    65.5190    64.1530    65.6580     2.1650 
  228.7500   -16.4040    60.9660    66.2410    65.1400    96.0300     2.1680 
  228.8750   -15.6590    63.7630    70.6750    69.6590   134.2190     2.1670 
  229.0000   -14.8220    65.8170    75.2660    73.9560   135.4870     2.1660 
  229.1250   -14.2380    67.3960    76.9710    75.0500   110.7240     2.1660 
  229.2500   -14.2800    68.0940    73.9020    71.3560    89.1150     2.1640 
  229.3750   -14.7530    67.4140    68.0630    65.3630    65.5980     2.1590 
  229.5000   -15.3470    66.5960    64.6300    62.2430    59.3530     2.1530 
  229.6250   -15.8790    65.8590    65.2990    63.2960    73.0360     2.1490 
  229.7500   -15.9400    64.5990    68.3630    66.4100    79.9090     2.1470 
  229.8750   -15.4920    61.6080    71.1870    69.0070   108.1910     2.1450 
  230.0000   -14.9340    55.8980    72.7920    70.1100   141.9600     2.1410 
  230.1250   -14.5110    51.3830    73.6750    70.2990   119.2190     2.1370 
  230.2500   -14.1810    51.9780    75.5460    71.6470    86.1970     2.1370 
  230.3750   -13.9690    56.2620    80.1800    75.9820    96.8650     2.1380 
  230.5000   -13.9240    59.3990    87.7400    83.2460   125.9440     2.1390 
  230.6250   -13.9780    59.4430    94.2910    88.8030   141.3550     2.1380 
  230.7500   -14.1340    57.3530    91.9930    85.8180   151.0930     2.1420 
  230.8750   -14.3200    56.1710    81.3430    74.8350   160.1610     2.1540 
  231.0000   -14.4150    57.6680    64.3470    58.4710   122.4710     2.1750 
  231.1250   -14.5540    60.1760    49.6440    45.2070    63.0530     2.1970 
  231.2500   -14.8100    62.1420    41.7130    38.3370    42.1880     2.2120 
  231.3750   -15.1640    64.1650    39.7920    37.2310    41.5460     2.2170 
  231.5000   -15.6500    66.9200    44.1370    41.8630    45.8650     2.2100 
  231.6250   -16.1770    69.3210    54.7350    52.4400    68.2120     2.1940 
  231.7500   -16.3860    69.8090    70.8510    68.9680    95.3670     2.1720 
  231.8750   -16.0620    68.9770    95.2280    94.1750   126.5110     2.1500 
  232.0000   -15.3820    65.9700   123.8870   124.1750   199.4890     2.1320 
  232.1250   -14.7020    61.9960   152.9360   154.8440   304.9480     2.1200 
  232.2500   -14.4640    57.1450   176.1470   179.2870   331.8220     2.1150 
  232.3750   -14.7690    52.5950   187.8250   192.1770   249.4440     2.1120 
  232.5000   -15.4130    50.8600   188.0320   193.3610   183.2020     2.1110 
  232.6250   -16.1050    51.8300   180.2140   186.0830   171.7230     2.1110 
  232.7500   -16.5880    52.5810   167.1160   173.1580   169.5820     2.1150 
  232.8750   -16.6060    51.3740   152.1410   157.7520   163.4980     2.1220 
  233.0000   -16.1530    51.7780   137.4250   142.3150   154.6980     2.1310 
  233.1250   -15.6870    55.7790   123.6330   127.6770   142.1800     2.1420 
  233.2500   -15.3650    60.6310   113.3330   116.6770   122.7830     2.1530 
