~V
VERS. 2.00: Ver 2.00
~W
STRT.M 13.0000:
STOP.M 216.0000:
STEP.M 0.1250:
NULL. -999.2500:
UWI. FD10578:
~C
DEPT.M :
TVD. :
DX. :
DY. :
GR.API :
RML.OHMM :
RI. :
RXO.OHMM :
DEN.GM/CC :
SP.MV :
~A
# ...
   49.5000    49.4560     0.3700     1.1450    70.7480    11.4880     8.3620     8.4930     2.1430    -7.2550 
   49.6250    49.5810     0.3720     1.1510    65.5200    12.1180     8.8400     9.3480     2.1460    -7.3730 
   49.7500    49.7060     0.3750     1.1580    66.4770    12.4530     9.1510     9.7430     2.1480    -7.5050 
   49.8750    49.8300     0.3780     1.1640    70.5160    12.4440     9.2120     9.6800     2.1450    -7.6170 
   50.0000    49.9550     0.3800     1.1710    73.7660    12.2060     9.0740     9.4900     2.1360    -7.7380 
   50.1250    50.0800     0.3830     1.1780    74.8310    11.9720     8.8910     9.4940     2.1240    -7.8190 
   50.2500    50.2040     0.3850     1.1840    74.2090    11.9230     8.8070     9.6340     2.1150    -7.9620 
   50.3750    50.3290     0.3880     1.1910    74.3280    12.0960     8.8660     9.8110     2.1150    -8.0590 
   50.5000    50.4540     0.3900     1.1970    75.7680    12.4150     9.0440    10.1790     2.1240    -8.1420 
   50.6250    50.5790     0.3930     1.2040    75.5450    12.7260     9.2580    10.5420     2.1370    -8.2300 
   50.7500    50.7030     0.3950     1.2100    74.2490    12.8900     9.3960    10.8570     2.1470    -8.2920 
   50.8750    50.8280     0.3980     1.2170    74.8860    12.8570     9.4060    10.9480     2.1480    -8.3670 
   51.0000    50.9530     0.4000     1.2230    77.8100    12.6640     9.2930    10.6790     2.1400    -8.4060 
   51.1250    51.0770     0.4030     1.2300    77.6670    12.4040     9.1140    10.2210     2.1280    -8.4740 
   51.2500    51.2020     0.4050     1.2370    75.6530    12.1950     8.9600     9.9290     2.1230    -8.4240 
   51.3750    51.3270     0.4080     1.2430    74.7590    12.0890     8.8750     9.9890     2.1300    -8.3340 
   51.5000    51.4520     0.4100     1.2500    73.6350    12.0930     8.8750    10.2810     2.1500    -8.2830 
   51.6250    51.5760     0.4130     1.2560    70.3600    12.1690     8.9470    10.3810     2.1730    -8.2570 
   51.7500    51.7010     0.4160     1.2630    68.8150    12.2380     9.0300    10.3090     2.1860    -8.2570 
   51.8750    51.8260     0.4180     1.2690    71.5200    12.2480     9.0770    10.1500     2.1790    -8.2370 
   52.0000    51.9510     0.4210     1.2760    74.8010    12.1750     9.0550     9.7990     2.1570    -8.1860 
   52.1250    52.0750     0.4230     1.2820    75.2520    12.0120     8.9520     9.2940     2.1360    -8.1180 
   52.2500    52.2000     0.4260     1.2890    73.9900    11.8010     8.8020     8.9130     2.1300    -8.0410 
   52.3750    52.3250     0.4280     1.2960    72.8060    11.5630     8.6270     8.6730     2.1430    -7.9710 
   52.5000    52.4490     0.4310     1.3020    73.4520    11.3090     8.4420     8.6030     2.1650    -7.8610 
   52.6250    52.5740     0.4330     1.3090    73.5350    11.0460     8.2560     8.6810     2.1820    -7.6830 
   52.7500    52.6990     0.4360     1.3150    72.4860    10.8010     8.0810     8.7410     2.1840    -7.4750 
   52.8750    52.8240     0.4380     1.3220    71.6920    10.6160     7.9380     8.6250     2.1710    -7.2460 
   53.0000    52.9480     0.4410     1.3280    72.5470    10.5490     7.8650     8.2960     2.1490    -7.0880 
   53.1250    53.0730     0.4430     1.3350    73.4750    10.6840     7.9240     8.1590     2.1290    -6.9320 
   53.2500    53.1980     0.4460     1.3410    72.5880    10.9970     8.1130     8.3860     2.1230    -6.8640 
   53.3750    53.3220     0.4490     1.3480    71.1540    11.4290     8.4140     8.7780     2.1340    -6.8610 
   53.5000    53.4470     0.4510     1.3550    69.8550    11.8790     8.7680     9.2010     2.1570    -6.8420 
   53.6250    53.5720     0.4540     1.3610    69.9320    12.2040     9.0700     9.6720     2.1790    -6.8920 
   53.7500    53.6970     0.4560     1.3680    69.8900    12.3460     9.2440    10.1200     2.1890    -6.9520 
   53.8750    53.8210     0.4590     1.3740    67.8850    12.3140     9.2730    10.1550     2.1810    -7.0770 
   54.0000    53.9460     0.4610     1.3810    65.2080    12.1770     9.1980     9.7570     2.1590    -7.1670 
   54.1250    54.0710     0.4640     1.3870    66.3460    12.0430     9.0940     9.3250     2.1370    -7.2880 
   54.2500    54.1960     0.4660     1.3940    70.5940    11.9910     9.0350     9.3160     2.1310    -7.3730 
   54.3750    54.3200     0.4690     1.4000    73.5880    12.0350     9.0430     9.7360     2.1470    -7.4260 
   54.5000    54.4450     0.4710     1.4070    73.3370    12.1370     9.1010    10.2110     2.1780    -7.5010 
   54.6250    54.5700     0.4740     1.4130    71.4140    12.2110     9.1660    10.5480     2.2040    -7.5210 
   54.7500    54.6940     0.4760     1.4200    70.5430    12.1950     9.1970    10.6580     2.2080    -7.5710 
   54.8750    54.8190     0.4790     1.4270    70.2340    12.0750     9.1810    10.3390     2.1880    -7.5820 
   55.0000    54.9440     0.4810     1.4330    69.9410    11.8820     9.1300     9.7580     2.1550    -7.5980 
   55.1250    55.0690     0.4840     1.4400    70.9010    11.6770     9.0730     9.3130     2.1240    -7.6420 
   55.2500    55.1930     0.4870     1.4460    73.2180    11.5180     9.0420     9.2650     2.1070    -7.6900 
   55.3750    55.3180     0.4890     1.4530    74.1930    11.4330     9.0500     9.5980     2.1060    -7.7510 
   55.5000    55.4430     0.4920     1.4590    72.1620    11.4300     9.1020    10.0870     2.1170    -7.8000 
   55.6250    55.5670     0.4940     1.4660    69.1830    11.5090     9.1960    10.3500     2.1320    -7.8700 
   55.7500    55.6920     0.4970     1.4720    67.6140    11.6200     9.3040    10.3200     2.1390    -7.9400 
   55.8750    55.8170     0.4990     1.4790    66.1410    11.6970     9.3860    10.2060     2.1370    -7.9910 
   56.0000    55.9420     0.5020     1.4860    65.0570    11.6420     9.3740    10.0410     2.1290    -8.0720 
   56.1250    56.0660     0.5040     1.4920    67.0450    11.3230     9.1560     9.9970     2.1300    -8.0630 
   56.2500    56.1910     0.5070     1.4990    69.6660    10.7710     8.7390     9.8450     2.1520    -8.0280 
   56.3750    56.3160     0.5090     1.5050    71.6470    10.0870     8.1960     9.3410     2.1900    -7.9470 
   56.5000    56.4400     0.5120     1.5120    75.7470     9.4460     7.6560     8.3050     2.2270    -7.8440 
   56.6250    56.5650     0.5140     1.5180    82.2810     9.0840     7.2930     7.3920     2.2410    -7.8000 
   56.7500    56.6900     0.5170     1.5250    83.8670     9.0780     7.1750     7.4610     2.2290    -7.7510 
   56.8750    56.8150     0.5190     1.5310    78.8710     9.4140     7.3210     8.2210     2.2010    -7.8350 
   57.0000    56.9390     0.5220     1.5380    72.9850     9.9830     7.6820     9.0970     2.1730    -7.9490 
   57.1250    57.0640     0.5250     1.5450    69.4590    10.5970     8.1510     9.5580     2.1490    -8.1380 
   57.2500    57.1890     0.5270     1.5510    66.7210    11.0800     8.5670     9.7860     2.1200    -8.3750 
   57.3750    57.3140     0.5300     1.5580    65.3270    11.3760     8.8500     9.7570     2.0860    -8.6790 
   57.5000    57.4380     0.5320     1.5640    64.5750    11.5210     8.9970     9.4890     2.0620    -9.0390 
   57.6250    57.5630     0.5350     1.5710    63.1650    11.6000     9.0590     9.2330     2.0790    -9.3380 
   57.7500    57.6880     0.5370     1.5770    60.8380    11.6800     9.1080     9.3870     2.1330    -9.6630 
   57.8750    57.8120     0.5400     1.5840    59.1400    11.7500     9.1530     9.6980     2.2010    -9.8700 
   58.0000    57.9370     0.5420     1.5900    58.1980    11.7660     9.1690    10.1290     2.2450   -10.0150 
   58.1250    58.0620     0.5450     1.5970    57.4000    11.6960     9.1230    10.5230     2.2360   -10.1640 
   58.2500    58.1870     0.5470     1.6040    57.4200    11.5900     9.0360    10.4540     2.1920   -10.2830 
   58.3750    58.3110     0.5500     1.6100    58.2960    11.5130     8.9510     9.9030     2.1410   -10.3620 
   58.5000    58.4360     0.5520     1.6170    59.6470    11.5240     8.9130     9.1170     2.1070   -10.4010 
