~V
VERS. 2.00: Ver 2.00
~W
STRT.M 11.0000:
STOP.M 231.0000:
STEP.M 0.1250:
NULL. -999.2500:
UWI. FD10589:
~C
DEPT.M :
TVD. :
DX. :
DY. :
GR.API :
RML.OHMM :
RI. :
RXO.OHMM :
DEN.GM/CC :
SP.MV :
R2M. :
R025. :
~A
# ...
  224.5000   200.1770    27.3150   -80.2050    49.9100     4.7230     3.6370     4.9790     2.3030   -15.7620     5.9020     4.1940 
  224.6250   200.2750    27.3370   -80.2780    49.9100     4.7260     3.6330     4.9960     2.3360   -15.7440     5.9280     4.2540 
  224.7500   200.3740    27.3600   -80.3520    49.9100     4.7340     3.6310     5.0140     2.3470   -15.7450     5.9680     4.2960 
  224.8750   200.4720    27.3820   -80.4260    49.9100     4.7400     3.6300     4.9420     2.3330   -15.7190     6.0170     4.3500 
  225.0000   200.5710    27.4040   -80.4990    49.9100     4.7410     3.6300     4.8530     2.3040   -15.7020     6.0360     4.4030 
  225.1250   200.6690    27.4260   -80.5730    49.9100     4.7410     3.6300     4.8080     2.2770   -15.7000     6.0180     4.4150 
  225.2500   200.7680    27.4480   -80.6470    49.9100     4.7410     3.6300     4.8610     2.2690   -15.6920     5.9970     4.3780 
  225.3750   200.8670    27.4700   -80.7200    49.9100     4.7410     3.6300     5.0240     2.2720   -15.7630     5.9580     4.3780 
  225.5000   200.9650    27.4930   -80.7940    49.9100     4.7410     3.6300     5.2290     2.2690   -15.7850     5.9370     4.3770 
  225.6250   201.0640    27.5150   -80.8680    49.9100     4.7410     3.6300     5.3350     2.2580   -15.7860     5.9360     4.3780 
  225.7500   201.1620    27.5370   -80.9410    49.9100     4.7410     3.6300     5.4040     2.2450   -15.8060     5.9410     4.3780 
  225.8750   201.2610    27.5590   -81.0150    49.9100     4.7410     3.6300     5.4430     2.2390   -15.8350     5.9320     4.3770 
  226.0000   201.3590    27.5810   -81.0890    49.9100     4.7410     3.6300     5.4620     2.2410   -15.8910     5.9220     4.3770 
  226.1250   201.4580    27.6030   -81.1620    49.9100     4.7410     3.6300     5.4700     2.2480   -15.9650     5.9320     4.3770 
  226.2500   201.5560    27.6250   -81.2360    49.9100     4.7410     3.6300     5.4510     2.2530   -16.0400     5.9540     4.3780 
  226.3750   201.6550    27.6480   -81.3100    49.9100     4.7410     3.6300     5.4010     2.2500   -16.0960     5.9770     4.3780 
  226.5000   201.7530    27.6700   -81.3830    49.9100     4.7410     3.6300     5.4060     2.2320   -16.1600     5.9980     4.3790 
  226.6250   201.8520    27.6920   -81.4570    49.9100     4.7410     3.6300     5.5370     2.1980   -16.2420     6.0080     4.3780 
  226.7500   201.9500    27.7140   -81.5310    49.9100     4.7410     3.6300     5.6840     2.1470   -16.2960     6.0090     4.3770 
  226.8750   202.0490    27.7360   -81.6040    49.9100     4.7410     3.6300     5.8230     2.1000   -16.3630     6.0260     4.3760 
  227.0000   202.1470    27.7580   -81.6780    49.9100     4.7410     3.6300     5.9880     2.0710   -16.4820     6.0770     4.3750 
  227.1250   202.2460    27.7800   -81.7520    49.9100     4.7410     3.6300     6.1490     2.0660   -16.5490     6.1510     4.3750 
  227.2500   202.3440    27.8030   -81.8250    49.9100     4.7410     3.6300     6.1930     2.0800   -16.6060     6.2300     4.3740 
  227.3750   202.4430    27.8250   -81.8990    49.9100     4.7410     3.6300     6.1830     2.0930   -16.6610     6.2920     4.3740 
  227.5000   202.5420    27.8470   -81.9730    49.9100     4.7410     3.6300     6.1820     2.0860   -16.6670     6.2920     4.3740 
  227.6250   202.6400    27.8690   -82.0460    49.9100     4.7410     3.6300     6.2220     2.0570   -16.6720     6.2590     4.3740 
  227.7500   202.7390    27.8910   -82.1200    49.9100     4.7410     3.6300     6.2180     2.0250  -999.2500  -999.2500  -999.2500 
  227.8750   202.8370    27.9130   -82.1940    49.9100     4.7410     3.6300     6.1200     2.0100  -999.2500  -999.2500  -999.2500 
  228.0000   202.9360    27.9360   -82.2670    49.9100     4.7410     3.6300     6.0190     2.0090  -999.2500  -999.2500  -999.2500 
  228.1250   203.0340    27.9580   -82.3410    49.9100     4.7410     3.6300     6.0110     2.0050  -999.2500  -999.2500  -999.2500 
  228.2500   203.1330    27.9800   -82.4150    49.9100     4.7410     3.6300     5.9580     1.9910  -999.2500  -999.2500  -999.2500 
  228.3750   203.2310    28.0020   -82.4880    49.9100     4.7410     3.6300     5.8180     1.9680  -999.2500  -999.2500  -999.2500 
  228.5000   203.3300    28.0240   -82.5620    49.9100     4.7410     3.6300     5.6950     1.9350  -999.2500  -999.2500  -999.2500 
  228.6250   203.4280    28.0460   -82.6360    49.9100     4.7410     3.6300     5.6640     1.8920  -999.2500  -999.2500  -999.2500 
  228.7500   203.5270    28.0680   -82.7090    49.9100     4.7410     3.6300     5.6740     1.8430  -999.2500  -999.2500  -999.2500 
  228.8750   203.6250    28.0910   -82.7830    49.9100     4.7410     3.6300     5.5180     1.8020  -999.2500  -999.2500  -999.2500 
  229.0000   203.7240    28.1130   -82.8570    49.9100     4.7410     3.6300     5.3420     1.7760  -999.2500  -999.2500  -999.2500 
  229.1250   203.8220    28.1350   -82.9300    49.9100     4.7410     3.6300     5.2670     1.7670  -999.2500  -999.2500  -999.2500 
  229.2500   203.9210    28.1570   -83.0040    49.9100     4.7410     3.6300     5.2650     1.7660  -999.2500  -999.2500  -999.2500 
  229.3750   204.0190    28.1790   -83.0780    49.9100     4.7410     3.6300     5.2640     1.7660  -999.2500  -999.2500  -999.2500 
  229.5000   204.1180    28.2010   -83.1510    49.9100     4.7410     3.6300     5.2640     1.7680  -999.2500  -999.2500  -999.2500 
  229.6250   204.2170    28.2230   -83.2250    49.9100     4.7410     3.6300     5.2670     1.7710  -999.2500  -999.2500  -999.2500 
  229.7500   204.3150    28.2460   -83.2990    49.9100     4.7410     3.6300     5.2660     1.7750  -999.2500  -999.2500  -999.2500 
  229.8750   204.4140    28.2680   -83.3720    49.9100     4.7410     3.6300     5.2670     1.7780  -999.2500  -999.2500  -999.2500 
  230.0000   204.5120    28.2900   -83.4460  -999.2500  -999.2500  -999.2500  -999.2500     1.7790  -999.2500  -999.2500  -999.2500 
  230.1250   204.6370    28.2900   -83.4460  -999.2500  -999.2500  -999.2500  -999.2500     1.7760  -999.2500  -999.2500  -999.2500 
  230.2500   204.7620    28.2900   -83.4460  -999.2500  -999.2500  -999.2500  -999.2500     1.7720  -999.2500  -999.2500  -999.2500 
  230.3750   204.8870    28.2900   -83.4460  -999.2500  -999.2500  -999.2500  -999.2500     1.7590  -999.2500  -999.2500  -999.2500 
  230.5000   205.0120    28.2900   -83.4460  -999.2500  -999.2500  -999.2500  -999.2500     1.7480  -999.2500  -999.2500  -999.2500 
  230.6250   205.1370    28.2900   -83.4460  -999.2500  -999.2500  -999.2500  -999.2500     1.7340  -999.2500  -999.2500  -999.2500 
  230.7500   205.2620    28.2900   -83.4460  -999.2500  -999.2500  -999.2500  -999.2500     1.7170  -999.2500  -999.2500  -999.2500 
  230.8750   205.3870    28.2900   -83.4460  -999.2500  -999.2500  -999.2500  -999.2500     1.7050  -999.2500  -999.2500  -999.2500 
  231.0000   205.5120    28.2900   -83.4460  -999.2500  -999.2500  -999.2500  -999.2500     1.7120  -999.2500  -999.2500  -999.2500 
