~V
VERS. 2.00: Ver 2.00
~W
STRT.M 13.0000:
STOP.M 216.0000:
STEP.M 0.1250:
NULL. -999.2500:
UWI. FD10578:
~C
DEPT.M :
TVD. :
DX. :
DY. :
GR.API :
RML.OHMM :
RI. :
RXO.OHMM :
DEN.GM/CC :
SP.MV :
~A
# ...
  104.2500   102.9180     9.1290     6.5120    99.4630     7.9330     6.8550     6.5250     2.3410   -10.2300 
  104.3750   103.0360     9.1660     6.5290   100.9090     8.0370     6.8770     6.7940     2.3380   -10.2040 
  104.5000   103.1550     9.2020     6.5460   100.4650     8.1900     6.9420     7.2470     2.3370   -10.1820 
  104.6250   103.2730     9.2390     6.5630   101.1000     8.2980     6.9760     7.5310     2.3390   -10.1020 
  104.7500   103.3910     9.2750     6.5810   101.5590     8.3170     6.9330     7.3640     2.3440   -10.0410 
  104.8750   103.5090     9.3110     6.5980   100.1910     8.2600     6.8200     7.0340     2.3520   -10.0060 
  105.0000   103.6270     9.3480     6.6150    97.9620     8.1890     6.6870     7.0090     2.3560    -9.9530 
  105.1250   103.7450     9.3840     6.6320    95.0120     8.2340     6.6260     7.1550     2.3480    -9.8610 
  105.2500   103.8630     9.4210     6.6490    93.2540     8.5130     6.7240     7.2870     2.3250    -9.6670 
  105.3750   103.9820     9.4570     6.6670    91.5380     9.1650     7.0850     7.5970     2.2900    -9.5330 
  105.5000   104.1000     9.4940     6.6840    87.7090    10.3490     7.8270     8.6480     2.2530    -9.3730 
  105.6250   104.2180     9.5300     6.7010    83.1170    12.3740     9.2040    10.4820     2.2260    -9.1930 
  105.7500   104.3360     9.5660     6.7180    80.3430    15.2790    11.3060    13.7540     2.2100    -9.0040 
  105.8750   104.4540     9.6030     6.7360    78.0820    19.1160    14.2640    18.6270     2.2020    -8.7750 
  106.0000   104.5720     9.6390     6.7530    72.8280    23.8250    18.1050    23.6770     2.1960    -8.5640 
  106.1250   104.6900     9.6760     6.7700    67.1580    29.3010    22.7830    28.6620     2.1890    -8.3800 
  106.2500   104.8090     9.7120     6.7870    65.5160    35.0890    27.8550    33.1870     2.1790    -8.2920 
  106.3750   104.9270     9.7480     6.8040    67.5440    40.6850    32.9050    35.9560     2.1640    -8.1510 
  106.5000   105.0450     9.7850     6.8220    69.8500    45.2430    37.2670    38.9330     2.1480    -8.0550 
  106.6250   105.1630     9.8210     6.8390    68.9930    47.1220    39.5220    43.2320     2.1370    -8.0190 
  106.7500   105.2810     9.8580     6.8560    65.7390    45.9230    39.0160    47.1820     2.1350    -8.0110 
  106.8750   105.3990     9.8940     6.8730    65.0280    42.1310    35.9530    43.2470     2.1420    -8.0350 
  107.0000   105.5170     9.9310     6.8900    70.3920    37.2660    31.6800    31.0790     2.1540    -8.0190 
  107.1250   105.6350     9.9670     6.9080    77.0710    33.4990    28.1570    21.7690     2.1650    -8.0280 
  107.2500   105.7540    10.0030     6.9250    78.2660    31.9920    26.4020    19.3370     2.1690    -8.0190 
  107.3750   105.8720    10.0400     6.9420    73.9700    33.1080    26.7380    21.9920     2.1650    -8.0300 
  107.5000   105.9900    10.0760     6.9590    69.4200    36.6960    29.2040    30.2540     2.1550    -8.0460 
  107.6250   106.1080    10.1130     6.9770    68.1120    42.2820    33.7720    44.0470     2.1410    -7.9710 
  107.7500   106.2260    10.1490     6.9940    67.1820    48.2860    39.1700    49.1780     2.1310    -7.9140 
  107.8750   106.3440    10.1860     7.0110    66.2200    53.5220    44.1340    43.9560     2.1250    -7.8700 
  108.0000   106.4620    10.2220     7.0280    65.4330    57.3860    47.8240    36.4840     2.1250    -7.8790 
  108.1250   106.5810    10.2580     7.0450    62.9520    60.0580    50.3160    37.4960     2.1270    -7.8850 
  108.2500   106.6990    10.2950     7.0630    59.2090    62.5410    52.6430    44.8530     2.1280    -7.8660 
  108.3750   106.8170    10.3310     7.0800    57.2550    65.2100    55.2870    51.2230     2.1250    -7.8990 
  108.5000   106.9350    10.3680     7.0970    59.6750    67.7610    58.1190    56.3990     2.1200    -7.8700 
  108.6250   107.0530    10.4040     7.1140    61.9290    69.1010    60.2150    60.7020     2.1140    -7.9650 
  108.7500   107.1710    10.4400     7.1310    59.6930    68.5720    60.8050    59.9270     2.1120    -8.0550 
  108.8750   107.2890    10.4770     7.1490    57.0210    65.9890    59.6130    54.6310     2.1130    -8.1250 
  109.0000   107.4080    10.5130     7.1660    58.3080    61.7060    56.8330    49.1290     2.1180    -8.2040 
  109.1250   107.5260    10.5500     7.1830    62.7480    56.4020    52.8450    44.0640     2.1250    -8.3270 
  109.2500   107.6440    10.5860     7.2000    65.4650    51.0740    48.5790    37.4190     2.1320    -8.4630 
  109.3750   107.7620    10.6230     7.2180    65.8130    46.1060    44.5580    33.2150     2.1370    -8.5470 
  109.5000   107.8800    10.6590     7.2350    67.3220    41.3720    40.7340    30.4520     2.1400    -8.7140 
  109.6250   107.9980    10.6950     7.2520    70.6080    36.2950    36.3830    28.2770     2.1480    -8.8260 
  109.7500   108.1160    10.7320     7.2690    73.9150    30.6470    31.0970    27.3510     2.1630    -8.9600 
  109.8750   108.2340    10.7680     7.2860    76.7470    24.7580    25.2340    25.8670     2.1880    -9.0740 
  110.0000   108.3530    10.8050     7.3040    79.8830    19.3320    19.7150    19.6980     2.2170    -9.2060 
  110.1250   108.4710    10.8410     7.3210    83.6560    15.3050    15.6340    12.3410     2.2390    -9.3580 
  110.2500   108.5890    10.8780     7.3380    86.7240    12.7820    13.0340     9.0580     2.2480    -9.4610 
  110.3750   108.7070    10.9140     7.3550    87.4320    11.6630    11.7410     8.6950     2.2430    -9.5840 
  110.5000   108.8250    10.9500     7.3730    86.1950    11.6730    11.5060     9.7120     2.2290    -9.6450 
  110.6250   108.9430    10.9870     7.3900    84.2160    12.4970    12.1730    11.8560     2.2150    -9.7090 
  110.7500   109.0610    11.0230     7.4070    81.4410    13.5340    13.2250    13.1750     2.2090    -9.7900 
  110.8750   109.1800    11.0600     7.4240    78.2450    14.4320    14.2340    13.2030     2.2100    -9.8320 
  111.0000   109.2980    11.0960     7.4410    76.4500    15.0650    14.9160    12.3170     2.2130    -9.8560 
  111.1250   109.4160    11.1320     7.4590    76.4180    15.6520    15.3710    12.0780     2.2120    -9.8280 
  111.2500   109.5340    11.1690     7.4760    74.8330    16.6640    16.0790    12.6150     2.2020    -9.8340 
  111.3750   109.6520    11.2050     7.4930    72.0350    18.5100    17.4520    14.8890     2.1870    -9.8010 
  111.5000   109.7700    11.2420     7.5100    71.6360    21.4570    19.8050    19.1840     2.1700    -9.7420 
  111.6250   109.8880    11.2780     7.5270    73.4110    25.6730    23.4320    29.8560     2.1610    -9.7180 
  111.7500   110.0070    11.3150     7.5450    71.8970    30.5220    27.8380    35.3910     2.1600    -9.5970 
  111.8750   110.1250    11.3510     7.5620    67.9600    35.2350    32.2710    39.3350     2.1650    -9.5220 
  112.0000   110.2430    11.3870     7.5790    65.7350    38.9620    35.7810    39.0330     2.1690    -9.4340 
  112.1250   110.3610    11.4240     7.5960    67.0020    40.9470    37.4920    40.3320     2.1650    -9.3330 
  112.2500   110.4790    11.4600     7.6140    68.0320    41.7200    37.9790    40.2240     2.1610    -9.2190 
  112.3750   110.5970    11.4970     7.6310    67.9170    42.0370    38.0460    38.2810     2.1660    -9.1640 
  112.5000   110.7150    11.5330     7.6480    68.5980    42.6930    38.4550    30.6100     2.1880    -9.1180 
  112.6250   110.8330    11.5700     7.6650    67.4560    44.3330    39.8510    29.3960     2.2380    -9.0170 
  112.7500   110.9520    11.6060     7.6820    61.6170    46.6850    42.0970    31.5320     2.3050    -8.9990 
  112.8750   111.0700    11.6420     7.7000    55.0250    48.9870    44.6310    40.7710     2.3830    -8.9950 
  113.0000   111.1880    11.6790     7.7170    52.0110    50.0260    46.3590    47.1560     2.4600    -9.0390 
  113.1250   111.3060    11.7150     7.7340    52.7830    48.1010    45.3880    44.4360     2.5190    -9.0650 
  113.2500   111.4240    11.7520     7.7510    53.2700    43.3710    41.3860    39.7930     2.5530    -9.1220 
