~V
VERS. 2.00: Ver 2.00
~W
STRT.M 11.0000:
STOP.M 231.0000:
STEP.M 0.1250:
NULL. -999.2500:
UWI. FD10589:
~C
DEPT.M :
TVD. :
DX. :
DY. :
GR.API :
RML.OHMM :
RI. :
RXO.OHMM :
DEN.GM/CC :
SP.MV :
R2M. :
R025. :
~A
# ...
  209.2500   188.1580    24.6340   -71.2100    80.8220     6.7030     5.4160     5.9070     2.2950   -22.2230     6.9210     6.5350 
  209.3750   188.2560    24.6530   -71.2850    79.2750     6.6600     5.3740     5.5660     2.3110   -21.8180     6.8770     6.4580 
  209.5000   188.3540    24.6720   -71.3600    79.4660     6.6720     5.3970     5.3520     2.3200   -21.4870     6.8650     6.3960 
  209.6250   188.4520    24.6900   -71.4350    81.0250     6.7590     5.4910     5.1990     2.3170   -21.3480     6.8830     6.4020 
  209.7500   188.5510    24.7090   -71.5100    83.2440     6.9320     5.6510     5.1420     2.3030   -21.4380     6.9570     6.4830 
  209.8750   188.6490    24.7270   -71.5850    85.8380     7.1420     5.8340     5.2120     2.2830   -21.6280     7.0980     6.5800 
  210.0000   188.7470    24.7460   -71.6600    85.8400     7.3420     6.0040     5.4550     2.2620   -21.9740     7.2810     6.7380 
  210.1250   188.8460    24.7680   -71.7330    81.3510     7.4910     6.1380     5.6550     2.2460   -22.4940     7.4710     6.9540 
  210.2500   188.9440    24.7900   -71.8070    77.9980     7.5680     6.2300     5.9450     2.2470   -23.1450     7.6640     7.1570 
  210.3750   189.0430    24.8120   -71.8810    79.6230     7.6110     6.3080     6.2400     2.2610   -23.8390     7.8610     7.3460 
  210.5000   189.1410    24.8350   -71.9540    83.1740     7.6740     6.4040     6.4890     2.2780   -24.4740     8.0530     7.5060 
  210.6250   189.2400    24.8570   -72.0280    84.6390     7.8140     6.5520     6.5890     2.2900   -24.9950     8.2440     7.6300 
  210.7500   189.3380    24.8790   -72.1020    84.2280     8.1000     6.7980     6.5170     2.2910   -25.4590     8.4100     7.8540 
  210.8750   189.4370    24.9010   -72.1750    84.3780     8.5210     7.1450     6.5690     2.2910   -25.9100     8.5320     8.2110 
  211.0000   189.5350    24.9230   -72.2490    84.5120     9.0370     7.5840     6.9880     2.3010   -26.3110     8.6350     8.5910 
  211.1250   189.6340    24.9450   -72.3230    85.2970     9.5540     8.0680     7.4850     2.3260   -26.5990     8.7770     8.9560 
  211.2500   189.7330    24.9670   -72.3960    87.7620     9.8980     8.4770     7.2010     2.3580   -26.7560     9.0300     9.3400 
  211.3750   189.8310    24.9900   -72.4700    90.8970     9.9610     8.6890     7.2590     2.3770   -26.8640     9.4280     9.6080 
  211.5000   189.9300    25.0120   -72.5440    92.8700     9.7110     8.6300     7.5700     2.3710   -26.9220     9.9490     9.6690 
  211.6250   190.0280    25.0340   -72.6170    93.1450     9.2100     8.2990     8.3330     2.3410   -26.8480    10.4710     9.5430 
  211.7500   190.1270    25.0560   -72.6910    92.7780     8.5840     7.7560     8.8010     2.3070   -26.5630    10.7640     9.1900 
  211.8750   190.2250    25.0780   -72.7650    91.8800     7.9860     7.1620     8.1050     2.2850   -26.2010    10.7100     8.6810 
  212.0000   190.3240    25.1000   -72.8380    90.1640     7.4860     6.6160     6.9350     2.2770   -25.7930    10.2620     8.1670 
  212.1250   190.4220    25.1230   -72.9120    87.8950     7.1030     6.1760     6.1290     2.2810   -25.3210     9.5060     7.7140 
  212.2500   190.5210    25.1450   -72.9860    86.5630     6.8330     5.8730     5.7310     2.2920   -24.8170     8.6640     7.3100 
  212.3750   190.6190    25.1670   -73.0590    85.2990     6.6100     5.6520     5.5080     2.2990   -24.3410     7.9740     6.9840 
  212.5000   190.7180    25.1890   -73.1330    83.4670     6.3860     5.4660     5.3650     2.2970   -23.9610     7.5400     6.6910 
  212.6250   190.8160    25.2110   -73.2070    81.1090     6.1380     5.2780     5.2550     2.2850   -23.7630     7.3540     6.3250 
  212.7500   190.9150    25.2330   -73.2800    76.5520     5.8750     5.0760     5.1370     2.2700   -23.7490     7.3170     5.9680 
  212.8750   191.0130    25.2550   -73.3540    70.1550     5.6330     4.8750     4.9390     2.2590   -23.7900     7.2840     5.7220 
  213.0000   191.1120    25.2780   -73.4280    64.3890     5.4340     4.6960     4.7510     2.2580   -23.8770     7.2150     5.5090 
  213.1250   191.2110    25.3000   -73.5010    61.6360     5.2790     4.5490     4.6500     2.2680   -24.0120     7.1050     5.3130 
  213.2500   191.3090    25.3220   -73.5750    61.4880     5.1630     4.4410     4.5460     2.2820   -24.1560     6.9640     5.2050 
  213.3750   191.4080    25.3440   -73.6490    59.7900     5.0770     4.3620     4.4220     2.2970   -24.2800     6.8350     5.1210 
  213.5000   191.5060    25.3660   -73.7220    55.9560     5.0340     4.3140     4.3880     2.3140   -24.3320     6.7570     5.0260 
  213.6250   191.6050    25.3880   -73.7960    51.8780     5.0470     4.3090     4.5340     2.3330   -24.3160     6.7380     4.9610 
  213.7500   191.7030    25.4100   -73.8700    49.7120     5.1230     4.3610     4.7800     2.3470   -24.3630     6.7970     4.9220 
  213.8750   191.8020    25.4330   -73.9430    48.7220     5.2240     4.4500     4.7050     2.3540   -24.5050     6.9060     4.9280 
  214.0000   191.9000    25.4550   -74.0170    48.6080     5.3170     4.5510     4.6210     2.3590   -24.7110     7.0220     5.0440 
  214.1250   191.9990    25.4770   -74.0910    49.8370     5.3710     4.6340     4.6020     2.3580   -24.9860     7.1480     5.1500 
  214.2500   192.0970    25.4990   -74.1640    50.8520     5.3750     4.6680     5.0820     2.3340   -25.3580     7.3270     5.0770 
  214.3750   192.1960    25.5210   -74.2380    49.8420     5.3620     4.6620     5.7910     2.2810   -25.8370     7.5210     5.0140 
  214.5000   192.2940    25.5430   -74.3120    47.7160     5.3590     4.6360     5.5390     2.2080   -26.4310     7.6690     5.0530 
  214.6250   192.3930    25.5660   -74.3850    45.9520     5.3770     4.6140     4.2710     2.1300   -27.0120     7.7190     5.1090 
  214.7500   192.4910    25.5880   -74.4590    46.0050     5.4140     4.6130     3.5960     2.0640   -27.3940     7.6100     5.1730 
  214.8750   192.5900    25.6100   -74.5330    47.3460     5.4520     4.6330     3.6880     2.0280   -27.5660     7.3860     5.2980 
  215.0000   192.6880    25.6320   -74.6060    49.2210     5.4820     4.6620     4.0850     2.0360   -27.5100     7.1390     5.3860 
  215.1250   192.7870    25.6540   -74.6800    50.1850     5.5030     4.6900     4.4630     2.0900   -27.1810     6.9430     5.3940 
  215.2500   192.8860    25.6760   -74.7540    50.7810     5.5210     4.7120     4.9510     2.1750   -26.4970     6.8290     5.4110 
  215.3750   192.9840    25.6980   -74.8270    57.2430     5.5420     4.7350     5.1660     2.2570   -25.5390     6.8000     5.4220 
  215.5000   193.0830    25.7210   -74.9010    72.2950     5.5750     4.7660     5.2540     2.3140   -24.3790     6.8360     5.4200 
  215.6250   193.1810    25.7430   -74.9750    88.2620     5.6280     4.8050     5.2800     2.3380   -23.1330     6.8820     5.4340 
  215.7500   193.2800    25.7650   -75.0480    92.7250     5.7060     4.8460     5.4260     2.3350   -21.8700     6.8960     5.4550 
  215.8750   193.3780    25.7870   -75.1220    85.7840     5.7870     4.8800     5.6270     2.3280   -20.6000     6.8720     5.4980 
  216.0000   193.4770    25.8090   -75.1960    73.2370     5.8500     4.8990     5.8540     2.3240   -19.3890     6.7990     5.5920 
  216.1250   193.5750    25.8310   -75.2690    60.1750     5.8840     4.9010     6.0090     2.3270   -18.3710     6.6970     5.6740 
  216.2500   193.6740    25.8530   -75.3430    50.2210     5.8890     4.8910     5.8400     2.3390   -17.6780     6.6140     5.6930 
  216.3750   193.7720    25.8760   -75.4170    45.0980     5.8940     4.8840     5.5940     2.3600   -17.1470     6.5640     5.7240 
  216.5000   193.8710    25.8980   -75.4900    43.5560     5.9210     4.8900     5.4930     2.3820   -16.6890     6.5410     5.7510 
  216.6250   193.9690    25.9200   -75.5640    43.6700     5.9880     4.9200     5.3830     2.3950   -16.2950     6.5610     5.7400 
  216.7500   194.0680    25.9420   -75.6380    44.4530     6.1000     4.9850     5.3140     2.3860   -16.0660     6.6180     5.8040 
