~V
VERS. 2.00: Ver 2.00
~W
STRT.M 11.0000:
STOP.M 231.0000:
STEP.M 0.1250:
NULL. -999.2500:
UWI. FD10589:
~C
DEPT.M :
TVD. :
DX. :
DY. :
GR.API :
RML.OHMM :
RI. :
RXO.OHMM :
DEN.GM/CC :
SP.MV :
R2M. :
R025. :
~A
# ...
  194.0000   176.1680    22.3660   -62.0660    66.6870    44.7620    42.1850    27.2600     2.3720   -29.8510   194.2720    38.1940 
  194.1250   176.2670    22.3850   -62.1410    61.7490    44.0930    41.0290    30.1460     2.4020   -29.6020   188.6820    36.2550 
  194.2500   176.3650    22.4040   -62.2160    60.2720    45.0120    41.3410    33.1190     2.4230   -29.3560   185.0420    34.3690 
  194.3750   176.4630    22.4220   -62.2910    60.0800    45.5710    41.6490    30.8340     2.4430   -29.0950   183.7870    32.6030 
  194.5000   176.5610    22.4410   -62.3660    59.6500    43.2470    39.7110    28.0490     2.4740   -28.7920   184.9900    30.8530 
  194.6250   176.6600    22.4590   -62.4410    59.1250    36.5510    33.8960    31.4800     2.5060   -28.4590   189.0590    28.6850 
  194.7500   176.7580    22.4780   -62.5160    60.8300    26.8910    25.2050    40.3040     2.4970   -28.1170   196.8180    25.1230 
  194.8750   176.8560    22.4970   -62.5910    66.0620    18.1140    17.2050    40.6890     2.4380   -27.7970   204.7690    20.2490 
  195.0000   176.9550    22.5150   -62.6660    72.3180    11.8590    11.4100    26.4540     2.3610   -27.4990   206.3820    15.0500 
  195.1250   177.0530    22.5340   -62.7410    75.3790     8.1450     7.8290     9.7070     2.3070   -27.2010   194.9620    10.8070 
  195.2500   177.1510    22.5520   -62.8160    73.8230     6.4450     6.0160     7.1450     2.2940   -26.8910   165.8840     8.3810 
  195.3750   177.2490    22.5710   -62.8910    70.4280     5.7290     5.5910     6.0290     2.2990   -26.5690   127.3580     7.1810 
  195.5000   177.3480    22.5900   -62.9660    67.6090     5.5800     5.6810     5.5480     2.3070   -26.2600    88.6410     6.6340 
  195.6250   177.4460    22.6080   -63.0400    66.3210     5.7070     5.6000     5.4380     2.3090   -26.0030    57.6400     6.3270 
  195.7500   177.5440    22.6270   -63.1150    67.4680     5.8910     5.6920     5.3850     2.3040   -25.8380    39.0990     6.0420 
  195.8750   177.6420    22.6450   -63.1900    68.4640     6.0090     5.7920     5.2910     2.2950   -25.6950    28.7590     5.7730 
  196.0000   177.7410    22.6640   -63.2650    69.3870     6.0470     5.8520     5.3460     2.2900   -25.5780    23.0430     5.5950 
  196.1250   177.8390    22.6830   -63.3400    69.9790     6.0180     5.8570     5.4370     2.2990   -25.5080    19.5730     5.5410 
  196.2500   177.9370    22.7010   -63.4150    68.9270     5.9350     5.7960     5.6120     2.3200   -25.4970    17.3150     5.4890 
  196.3750   178.0360    22.7200   -63.4900    65.8980     5.8370     5.6950     5.8160     2.3370   -25.5100    15.6100     5.3830 
  196.5000   178.1340    22.7380   -63.5650    61.0610     5.7570     5.5750     5.9750     2.3460   -25.5190    14.3030     5.3020 
  196.6250   178.2320    22.7570   -63.6400    55.8780     5.7210     5.4590     5.9140     2.3490   -25.5310    13.3200     5.2510 
  196.7500   178.3300    22.7750   -63.7150    53.1320     5.7520     5.3700     5.7060     2.3530   -25.5440    12.6370     5.1810 
  196.8750   178.4290    22.7940   -63.7900    53.1840     5.8320     5.3220     5.3950     2.3550   -25.5550    12.1250     5.1640 
  197.0000   178.5270    22.8130   -63.8650    54.0130     5.9430     5.3170     5.2300     2.3590   -25.5510    11.7300     5.2190 
  197.1250   178.6250    22.8310   -63.9400    52.0870     6.0640     5.3520     5.3300     2.3690   -25.5420    11.4310     5.2790 
  197.2500   178.7230    22.8500   -64.0150    49.0630     6.1900     5.4120     5.7510     2.3940   -25.5110    11.1960     5.3640 
  197.3750   178.8220    22.8680   -64.0900    47.7050     6.3170     5.4690     6.2630     2.4210   -25.4620    10.9680     5.4690 
  197.5000   178.9200    22.8870   -64.1650    48.9950     6.4430     5.5060     6.5440     2.4380   -25.4360    10.7450     5.5410 
  197.6250   179.0180    22.9060   -64.2400    51.1250     6.5610     5.5140     6.6230     2.4390   -25.4060    10.5270     5.6150 
  197.7500   179.1170    22.9240   -64.3150    51.8280     6.6590     5.4940     6.4460     2.4270   -25.3400    10.2920     5.7250 
  197.8750   179.2150    22.9430   -64.3900    51.5730     6.7330     5.4560     6.3230     2.4180   -25.2650    10.0470     5.7880 
  198.0000   179.3130    22.9610   -64.4640    51.0020     6.7890     5.4090     6.2940     2.4150   -25.1900     9.8020     5.8030 
  198.1250   179.4110    22.9800   -64.5390    50.9640     6.8300     5.3590     6.3210     2.4180   -25.0940     9.5610     5.8450 
  198.2500   179.5100    22.9990   -64.6140    51.5300     6.8700     5.3200     6.3840     2.4230   -24.9820     9.3470     5.8850 
  198.3750   179.6080    23.0170   -64.6890    51.7450     6.9400     5.3150     6.3660     2.4260   -24.8950     9.1730     5.9230 
  198.5000   179.7060    23.0360   -64.7640    52.1880     7.0790     5.3730     6.2850     2.4310   -24.8170     9.0170     6.0230 
  198.6250   179.8040    23.0540   -64.8390    53.1810     7.3090     5.5160     6.1280     2.4340   -24.7450     8.8520     6.1570 
  198.7500   179.9030    23.0730   -64.9140    54.1050     7.6340     5.7590     5.9390     2.4300   -24.6970     8.6690     6.3220 
  198.8750   180.0010    23.0910   -64.9890    54.2720     7.9860     6.0580     5.9790     2.4300   -24.7040     8.4750     6.5780 
  199.0000   180.0990    23.1100   -65.0640    52.9390     8.2820     6.3550     6.2580     2.4490   -24.7670     8.3370     6.8530 
  199.1250   180.1980    23.1290   -65.1390    50.0280     8.4250     6.5710     6.6520     2.4940   -24.8350     8.3710     7.0250 
  199.2500   180.2960    23.1470   -65.2140    46.9190     8.3100     6.5960     7.0870     2.5510   -24.8760     8.6510     7.0840 
  199.3750   180.3940    23.1660   -65.2890    44.6900     7.9890     6.4320     8.2070     2.5830   -24.9140     9.0320     7.0470 
  199.5000   180.4920    23.1840   -65.3640    44.4920     7.5500     6.1240    10.6530     2.5680   -24.9840     9.3660     6.8760 
  199.6250   180.5910    23.2030   -65.4390    48.5700     7.1150     5.7560    12.0860     2.5090   -25.0840     9.4970     6.6380 
  199.7500   180.6890    23.2220   -65.5140    55.6820     6.8180     5.4320     9.8590     2.4330   -25.1930     9.2970     6.4150 
  199.8750   180.7870    23.2400   -65.5890    59.8930     6.6750     5.2010     7.5380     2.3700   -25.2760     8.8890     6.2100 
  200.0000   180.8850    23.2590   -65.6640    58.8230     6.6480     5.0680     6.5370     2.3270   -25.3350     8.3920     6.0770 
  200.1250   180.9840    23.2770   -65.7390    55.7910     6.6750     5.0130     6.1540     2.3080   -25.4240     7.9110     6.0240 
  200.2500   181.0820    23.2960   -65.8140    55.0300     6.6910     5.0060     6.0470     2.3180   -25.5860     7.5480     5.9320 
  200.3750   181.1800    23.3150   -65.8890    55.6690     6.6700     5.0030     6.1080     2.3450   -25.8020     7.3160     5.8070 
  200.5000   181.2790    23.3330   -65.9630    56.1280     6.6230     4.9890     6.1040     2.3740   -26.0640     7.1760     5.7270 
  200.6250   181.3770    23.3520   -66.0380    55.3720     6.5780     4.9660     5.9580     2.3900   -26.3750     7.0720     5.6470 
  200.7500   181.4750    23.3700   -66.1130    53.8680     6.5480     4.9420     5.9340     2.3840   -26.6740     6.9840     5.5540 
  200.8750   181.5730    23.3890   -66.1880    53.7960     6.5180     4.9210     6.0520     2.3690   -26.9550     6.9020     5.5300 
  201.0000   181.6720    23.4080   -66.2630    54.7580     6.4750     4.8980     6.1650     2.3600   -27.2530     6.8450     5.5250 
  201.1250   181.7700    23.4260   -66.3380    55.2200     6.4170     4.8650     6.2640     2.3670   -27.5830     6.8260     5.4790 
  201.2500   181.8680    23.4450   -66.4130    53.9870     6.3590     4.8160     6.3110     2.3840   -27.8550     6.8180     5.4790 
  201.3750   181.9660    23.4630   -66.4880    53.1650     6.3190     4.7630     6.2820     2.3950   -28.0490     6.8030     5.4720 
  201.5000   182.0650    23.4820   -66.5630    54.8160     6.3050     4.7120     6.2490     2.3950   -28.1920     6.7950     5.3790 
