~V
VERS. 2.00: Ver 2.00
~W
STRT.M 11.0000:
STOP.M 231.0000:
STEP.M 0.1250:
NULL. -999.2500:
UWI. FD10589:
~C
DEPT.M :
TVD. :
DX. :
DY. :
GR.API :
RML.OHMM :
RI. :
RXO.OHMM :
DEN.GM/CC :
SP.MV :
R2M. :
R025. :
~A
# ...
   41.5000    41.4340     0.5920    -1.5520    63.1490    14.7580    10.4650    10.5450     2.1000   -21.2590    11.1940    10.7650 
   41.6250    41.5590     0.5970    -1.5630    63.6430    14.0050    10.0790    10.7270     2.0870   -21.1650    11.5370    10.6640 
   41.7500    41.6830     0.6010    -1.5740    63.1070    12.8790     9.3880    10.6360     2.0810   -21.0670    11.8900    10.3710 
   41.8750    41.8070     0.6050    -1.5850    66.2010    11.6890     8.5910     9.6350     2.0850   -20.9420    12.3300     9.8510 
   42.0000    41.9320     0.6090    -1.5960    72.9050    10.7100     7.8710     8.0810     2.1040   -20.7750    12.8540     9.1600 
   42.1250    42.0560     0.6140    -1.6070    79.3620    10.1320     7.3700     7.4050     2.1300   -20.5540    13.3760     8.4460 
   42.2500    42.1810     0.6180    -1.6180    83.2540    10.0510     7.1780     7.4250     2.1430   -20.3440    13.7300     7.9110 
   42.3750    42.3050     0.6220    -1.6290    84.9380    10.2310     7.1820     7.7240     2.1400   -20.1660    13.8460     7.6040 
   42.5000    42.4290     0.6260    -1.6400    84.1340    10.4150     7.2450     8.0440     2.1310   -20.0050    13.7370     7.5070 
   42.6250    42.5540     0.6310    -1.6520    81.2700    10.3460     7.2140     8.0990     2.1280   -19.8440    13.4870     7.5230 
   42.7500    42.6780     0.6350    -1.6630    78.6620     9.8600     6.9660     7.8670     2.1340   -19.6780    13.1860     7.4680 
   42.8750    42.8020     0.6390    -1.6740    78.2360     9.1780     6.5890     7.5140     2.1460   -19.5300    12.8880     7.3230 
   43.0000    42.9270     0.6430    -1.6850    80.4850     8.5880     6.2370     7.0810     2.1610   -19.4090    12.5700     7.1060 
   43.1250    43.0510     0.6480    -1.6960    83.4020     8.3580     6.0640     6.6770     2.1730   -19.3610    12.1780     6.8370 
   43.2500    43.1750     0.6520    -1.7070    84.0300     8.7330     6.2310     6.7370     2.1730   -19.4390    11.6990     6.6500 
   43.3750    43.3000     0.6560    -1.7180    82.2170     9.6020     6.7100     7.3030     2.1570   -19.5400    11.1920     6.6570 
   43.5000    43.4240     0.6610    -1.7290    79.5560    10.7680     7.4190     8.6930     2.1320   -19.5690    10.7150     6.9080 
   43.6250    43.5480     0.6650    -1.7400    76.3720    11.8870     8.1740     9.8880     2.1090   -19.5490    10.3690     7.4140 
   43.7500    43.6730     0.6690    -1.7510    73.3470    12.4030     8.6250    10.2260     2.1000   -19.5330    10.2490     8.0490 
   43.8750    43.7970     0.6730    -1.7620    72.0160    12.1200     8.5850    10.1000     2.0970   -19.5330    10.2850     8.5310 
   44.0000    43.9210     0.6780    -1.7730    75.0010    11.1680     8.0830     9.7630     2.0980   -19.5650    10.3870     8.7570 
   44.1250    44.0460     0.6820    -1.7840    81.8030     9.9930     7.3700     9.0410     2.1080   -19.5970    10.4340     8.7460 
   44.2500    44.1700     0.6860    -1.7950    87.6130     9.2850     6.8490     8.1790     2.1350   -19.6010    10.2960     8.5590 
   44.3750    44.2950     0.6900    -1.8060    88.9880     9.4790     6.8040     7.6290     2.1760   -19.5960     9.9890     8.3800 
   44.5000    44.4190     0.6950    -1.8170    86.2390    10.8060     7.4160     8.1080     2.2290   -19.5960     9.5940     8.3550 
   44.6250    44.5430     0.6990    -1.8280    80.8880    13.2500     8.7690    10.6220     2.2970   -19.6320     9.2800     8.5940 
   44.7500    44.6680     0.7030    -1.8400    74.9260    16.3550    10.7920    16.8900     2.3640   -19.7260     9.3780     9.3560 
   44.8750    44.7920     0.7070    -1.8510    71.3160    18.8440    12.7530    24.5820     2.4050   -19.8880    10.0370    10.6850 
   45.0000    44.9160     0.7120    -1.8620    70.7780    19.6180    13.8180    26.4100     2.4050   -20.1090    11.2120    12.2840 
   45.1250    45.0410     0.7160    -1.8730    70.8010    18.4640    13.5780    19.8530     2.3590   -20.3940    12.5960    13.5180 
   45.2500    45.1650     0.7200    -1.8840    68.9390    16.3070    12.4100    13.0290     2.2760   -20.7090    13.5750    13.7350 
   45.3750    45.2890     0.7240    -1.8950    65.3360    14.4920    11.2420    10.6600     2.1940   -21.0550    13.7780    13.3090 
   45.5000    45.4140     0.7290    -1.9060    61.4480    13.4440    10.4500    10.4540     2.1360   -21.4330    13.2040    12.7630 
   45.6250    45.5380     0.7330    -1.9170    59.1780    13.1170    10.1010    10.9070     2.1070   -21.8140    12.1750    12.3440 
   45.7500    45.6620     0.7370    -1.9280    59.8210    13.2740    10.1230    11.2930     2.1020   -22.1500    11.2210    12.0760 
   45.8750    45.7870     0.7420    -1.9390    61.1700    13.5310    10.2670    11.5060     2.1090   -22.4060    10.6900    11.9240 
   46.0000    45.9110     0.7460    -1.9500    61.2010    13.7120    10.3940    11.4460     2.1140   -22.5800    10.5850    11.8370 
   46.1250    46.0360     0.7500    -1.9610    59.0820    13.7650    10.4510    11.2320     2.1080   -22.6740    10.7050    11.7670 
   46.2500    46.1600     0.7540    -1.9720    55.7400    13.7130    10.4590    11.1330     2.0940   -22.7380    10.8040    11.6670 
   46.3750    46.2840     0.7590    -1.9830    52.7480    13.6420    10.4730    10.9310     2.0830   -22.7920    10.7740    11.5420 
   46.5000    46.4090     0.7630    -1.9940    51.9410    13.5970    10.5100    10.6520     2.0760   -22.8650    10.6390    11.4420 
   46.6250    46.5330     0.7670    -2.0050    54.6040    13.5810    10.5640    10.6120     2.0710   -22.9530    10.4850    11.3970 
   46.7500    46.6570     0.7710    -2.0160    59.3140    13.5640    10.6110    11.0580     2.0670   -23.0460    10.4130    11.3550 
   46.8750    46.7820     0.7760    -2.0280    61.6100    13.5200    10.6350    11.5960     2.0680   -23.1450    10.4950    11.3020 
   47.0000    46.9060     0.7800    -2.0390    60.0840    13.4300    10.6200    11.9200     2.0730   -23.2120    10.8260    11.2400 
   47.1250    47.0300     0.7840    -2.0500    57.4690    13.2740    10.5400    12.0590     2.0800   -23.2150    11.4580    11.0800 
   47.2500    47.1550     0.7880    -2.0610    56.5670    13.0140    10.3520    11.8800     2.0890   -23.1180    12.3620    10.8440 
   47.3750    47.2790     0.7930    -2.0720    57.1470    12.6620    10.0680    11.9440     2.0970   -22.9730    13.3020    10.6770 
   47.5000    47.4030     0.7970    -2.0830    58.4790    12.2270     9.7120    11.9320     2.1030   -22.8230    14.0490    10.5830 
   47.6250    47.5280     0.8010    -2.0940    60.7910    11.7390     9.3210    11.6470     2.1030   -22.6940    14.4470    10.5040 
   47.7500    47.6520     0.8060    -2.1050    63.3530    11.2920     8.9670    11.0370     2.0940   -22.6010    14.4360    10.3880 
   47.8750    47.7770     0.8100    -2.1160    63.8960    11.0780     8.7620    10.9820     2.0830   -22.4950    14.1770    10.2990 
   48.0000    47.9010     0.8140    -2.1270    62.5660    11.3700     8.8710    11.0350     2.0710   -22.3720    13.8060    10.3540 
   48.1250    48.0250     0.8180    -2.1380    60.9110    12.4380     9.4810    11.2770     2.0660   -22.2780    13.4560    10.6090 
   48.2500    48.1500     0.8230    -2.1490    60.4790    14.5270    10.8320    11.8750     2.1000   -22.2400    13.3350    11.0910 
   48.3750    48.2740     0.8270    -2.1600    59.9640    17.1630    12.7290    14.6660     2.1850   -22.2440    13.7370    11.7980 
   48.5000    48.3980     0.8310    -2.1710    58.6350    19.5520    14.7260    24.9080     2.3090   -22.2390    15.0620    12.6490 
   48.6250    48.5230     0.8350    -2.1820    58.0370    20.6290    16.0340    35.2520     2.4100   -22.2100    17.5530    13.4290 
   48.7500    48.6470     0.8400    -2.1930    57.8480    19.4670    15.7190    39.6300     2.3860   -22.1880    20.9740    13.9790 
   48.8750    48.7710     0.8440    -2.2050    57.5190    17.0590    14.2690    23.4720     2.2780   -22.2120    24.0800    14.2820 
   49.0000    48.8960     0.8480    -2.2160    58.1240    14.5500    12.4820    14.9920     2.1740   -22.3370    25.6590    14.1930 
