~V
VERS. 2.00: Ver 2.00
~W
STRT.M 11.0000:
STOP.M 231.0000:
STEP.M 0.1250:
NULL. -999.2500:
UWI. FD10589:
~C
DEPT.M :
TVD. :
DX. :
DY. :
GR.API :
RML.OHMM :
RI. :
RXO.OHMM :
DEN.GM/CC :
SP.MV :
R2M. :
R025. :
~A
# ...
  125.3750   120.7000    11.2470   -23.4280    54.6690    30.5070    29.7690    22.5960     2.5280   -18.0280    50.8600    26.0340 
  125.5000   120.8050    11.2700   -23.4920    55.3570    32.1190    31.3150    22.5700     2.5850   -17.9630    50.0140    26.5680 
  125.6250   120.9100    11.2930   -23.5560    52.7520    34.5240    33.5790    23.8710     2.6430   -17.8540    49.9740    27.2120 
  125.7500   121.0150    11.3160   -23.6190    49.8880    37.7370    36.6260    26.6760     2.6770   -17.7680    51.0420    28.0640 
  125.8750   121.1200    11.3400   -23.6830    49.4560    41.0890    39.9010    29.6470     2.6860   -17.6850    52.9650    29.1210 
  126.0000   121.2250    11.3630   -23.7460    50.5870    43.6950    42.5860    31.6390     2.6810   -17.6160    55.5130    30.1620 
  126.1250   121.3300    11.3860   -23.8100    51.7200    44.6140    43.7360    31.9460     2.6680   -17.5470    58.4740    30.9650 
  126.2500   121.4350    11.4090   -23.8730    51.9080    43.0290    42.4480    29.5900     2.6500   -17.4650    61.6020    31.4790 
  126.3750   121.5400    11.4320   -23.9370    51.8390    39.8510    39.4970    24.8860     2.6240   -17.4100    64.3670    31.5790 
  126.5000   121.6450    11.4560   -24.0010    52.6630    36.1220    35.8590    20.4160     2.5950   -17.3910    66.1560    31.0990 
  126.6250   121.7500    11.4790   -24.0640    53.4510    32.7830    32.4610    17.8720     2.5660   -17.3750    66.4850    30.1320 
  126.7500   121.8550    11.5020   -24.1280    52.8780    30.5360    30.0100    16.6940     2.5390   -17.3800    64.9730    28.9740 
  126.8750   121.9600    11.5250   -24.1910    52.1100    29.3160    28.5190    15.8930     2.5120   -17.4080    62.3370    27.9930 
  127.0000   122.0650    11.5480   -24.2550    52.6910    28.9640    27.9100    15.4920     2.4870   -17.4140    59.2420    27.3780 
  127.1250   122.1700    11.5720   -24.3180    53.6890    29.2370    28.0210    16.2680     2.4680   -17.4110    56.2580    27.1030 
  127.2500   122.2750    11.5950   -24.3820    52.0780    29.9800    28.7450    19.1840     2.4730   -17.4450    53.9540    27.0090 
  127.3750   122.3800    11.6180   -24.4450    48.4960    31.0170    29.8590    21.9650     2.5060   -17.4650    52.5360    27.0000 
  127.5000   122.4850    11.6410   -24.5090    45.6480    32.2850    31.2750    23.2130     2.5590   -17.4620    52.0820    27.0580 
  127.6250   122.5900    11.6640   -24.5730    44.7030    33.6550    32.8570    24.0190     2.6100   -17.4340    52.5950    27.1910 
  127.7500   122.6950    11.6880   -24.6360    45.3450    34.8130    34.3050    26.5060     2.6380   -17.4000    54.1530    27.4870 
  127.8750   122.8000    11.7110   -24.7000    47.2060    35.4090    35.2390    29.5540     2.6470   -17.3970    56.3610    27.7640 
  128.0000   122.9050    11.7340   -24.7630    50.3740    35.1200    35.2880    31.0840     2.6390   -17.4160    58.9770    27.7750 
  128.1250   123.0100    11.7570   -24.8270    54.1740    33.8000    34.2280    30.5460     2.6220   -17.4260    61.7510    27.4930 
  128.2500   123.1140    11.7800   -24.8900    56.5790    31.4910    32.0100    28.6970     2.6100   -17.3420    64.1770    26.9660 
  128.3750   123.2190    11.8040   -24.9540    56.5790    28.7770    29.2320    24.4000     2.6140   -17.2670    65.8740    26.0780 
  128.5000   123.3240    11.8270   -25.0170    53.6790    26.0780    26.3490    20.9280     2.6250   -17.3110    66.6210    24.7970 
  128.6250   123.4290    11.8500   -25.0810    49.6420    23.6880    23.7160    18.8130     2.6230   -17.4500    66.2200    23.3660 
  128.7500   123.5340    11.8730   -25.1450    48.7160    21.8090    21.5980    17.6160     2.5900   -17.6160    64.2910    22.0160 
  128.8750   123.6390    11.8960   -25.2080    50.3260    20.3540    19.9460    16.8960     2.5390   -17.7850    61.1490    20.8280 
  129.0000   123.7440    11.9190   -25.2720    52.6750    19.2840    18.7340    16.7420     2.4830   -17.9540    57.0740    19.8970 
  129.1250   123.8490    11.9430   -25.3350    54.5260    18.6030    17.9610    17.0530     2.4340   -18.0890    52.5260    19.2520 
  129.2500   123.9540    11.9660   -25.3990    55.0130    18.4610    17.7450    17.5280     2.4070   -18.1960    48.1730    18.8280 
  129.3750   124.0590    11.9890   -25.4620    53.9720    18.8840    18.0740    17.4940     2.4090   -18.2900    44.4250    18.6050 
  129.5000   124.1640    12.0120   -25.5260    51.3440    19.9180    18.9860    17.8050     2.4330   -18.3160    41.5040    18.6620 
  129.6250   124.2690    12.0350   -25.5890    48.8610    21.4970    20.4470    19.7510     2.4630   -18.3080    39.6200    18.9550 
  129.7500   124.3740    12.0590   -25.6530    48.3520    23.4020    22.3150    23.0480     2.4750   -18.3180    39.0910    19.5170 
  129.8750   124.4790    12.0820   -25.7170    48.9060    25.1890    24.1740    25.7010     2.4760   -18.3040    39.5890    20.3700 
  130.0000   124.5840    12.1050   -25.7800    47.3600    26.5350    25.6810    27.7020     2.4810   -18.2670    40.8040    21.3550 
  130.1250   124.6890    12.1280   -25.8440    43.1790    27.2940    26.6190    28.9280     2.5010   -18.2640    42.3030    22.1680 
  130.2500   124.7940    12.1510   -25.9070    40.4880    27.4580    26.8980    26.6360     2.5350   -18.3120    43.6430    22.6310 
  130.3750   124.8990    12.1750   -25.9710    40.9620    27.2520    26.7250    22.9420     2.5720   -18.3460    44.6990    22.8410 
  130.5000   125.0040    12.1980   -26.0340    42.4210    26.6940    26.1320    20.3660     2.6000   -18.3830    45.4910    22.8470 
  130.6250   125.1090    12.2210   -26.0980    42.9010    25.7340    25.0940    20.2990     2.6060   -18.4210    46.0380    22.6920 
  130.7500   125.2140    12.2440   -26.1610    42.0720    24.3200    23.5930    22.7070     2.5710   -18.4100    46.3520    22.2850 
  130.8750   125.3190    12.2670   -26.2250    42.3090    22.6900    21.9050    24.0810     2.5030   -18.3500    46.4120    21.5970 
  131.0000   125.4240    12.2910   -26.2890    45.9020    21.0740    20.2840    22.6050     2.4230   -18.2860    45.9740    20.7070 
  131.1250   125.5290    12.3140   -26.3520    52.9830    19.6590    18.9200    20.5580     2.3560   -18.2490    44.7970    19.6860 
  131.2500   125.6340    12.3370   -26.4160    59.0530    18.5540    17.9100    19.3090     2.3250   -18.1980    42.7180    18.5970 
  131.3750   125.7390    12.3600   -26.4790    59.9150    17.6450    17.1020    18.7790     2.3300   -18.1390    40.0950    17.7180 
  131.5000   125.8440    12.3830   -26.5430    58.2810    16.8370    16.3670    18.4590     2.3640   -18.1020    37.3180    17.1410 
  131.6250   125.9490    12.4070   -26.6060    57.6690    16.0900    15.6360    18.4240     2.4080   -18.0770    34.8170    16.6070 
  131.7500   126.0540    12.4300   -26.6700    58.4440    15.4560    14.9510    17.3980     2.4320   -18.0380    32.9070    15.8850 
  131.8750   126.1590    12.4530   -26.7340    56.7700    14.9940    14.4070    13.6120     2.4230   -18.0090    31.4170    15.1710 
  132.0000   126.2640    12.4760   -26.7970    52.3110    14.7490    14.0790    10.6160     2.3910   -17.9710    30.1980    14.6200 
  132.1250   126.3690    12.4990   -26.8610    49.1250    14.7160    13.9910    10.9370     2.3640   -17.9050    29.1420    14.2820 
  132.2500   126.4740    12.5230   -26.9240    50.5500    14.8620    14.1290    11.2310     2.3710   -17.8940    28.2830    14.1830 
  132.3750   126.5790    12.5460   -26.9880    53.7260    15.1010    14.3760    11.6870     2.4050   -17.9380    27.7260    14.1870 
  132.5000   126.6840    12.5690   -27.0510    56.8570    15.4180    14.6700    12.2310     2.4410   -17.9450    27.5220    14.2390 
  132.6250   126.7880    12.5920   -27.1150    59.6260    15.7980    14.9630    13.0500     2.4560   -17.9030    27.5230    14.3890 
  132.7500   126.8930    12.6150   -27.1780    60.4990    16.1600    15.1900    13.8810     2.4420   -17.8970    27.4750    14.5900 
  132.8750   126.9980    12.6390   -27.2420    58.4610    16.3960    15.3120    14.2250     2.4110   -17.9360    27.2800    14.7520 
