~V
VERS. 2.00: Ver 2.00
~W
STRT.M 20.0000:
STOP.M 217.0000:
STEP.M 0.1250:
NULL. -999.2500:
UWI. FD10571:
~C
DEPT.M :
TVD. :
DX. :
DY. :
DEN.GM/CC :
GR.API :
RML.OHMM :
RI. :
RXO.OHMM :
SP.MV :
~A
# ...
  202.5000   184.4930   -58.2930   -33.1420     2.4320    38.9790     5.0660     4.3280     5.4050   -11.3750 
  202.6250   184.5890   -58.3620   -33.1830     2.4180    41.3130     5.1130     4.3850     5.5140   -11.0370 
  202.7500   184.6850   -58.4300   -33.2250     2.3990    42.9930     5.1600     4.4260     5.1410   -10.7410 
  202.8750   184.7810   -58.4980   -33.2660     2.3870    43.8040     5.1950     4.4340     4.8480   -10.6270 
  203.0000   184.8770   -58.5670   -33.3080     2.3890    44.2250     5.2060     4.4130     4.6780   -10.7060 
  203.1250   184.9730   -58.6350   -33.3490     2.4050    43.0730     5.1800     4.3730     4.6460   -10.9280 
  203.2500   185.0690   -58.7040   -33.3910     2.4210    40.8160     5.1300     4.3310     4.6970   -11.2360 
  203.3750   185.1650   -58.7720   -33.4320     2.4280    38.7820     5.0810     4.2960     4.7740   -11.5440 
  203.5000   185.2610   -58.8400   -33.4740     2.4220    37.7750     5.0600     4.2700     4.7920   -11.8090 
  203.6250   185.3570   -58.9090   -33.5150     2.4040    39.0810     5.0750     4.2590     4.8340   -12.0460 
  203.7500   185.4530   -58.9770   -33.5570     2.3860    41.3880     5.1140     4.2660     4.8470   -12.3210 
  203.8750   185.5490   -59.0460   -33.5980     2.3760    43.0790     5.1770     4.3010     4.8130   -12.6240 
  204.0000   185.6450   -59.1140   -33.6400     2.3770    43.3250     5.2910     4.3890     4.8260   -12.9480 
  204.1250   185.7410   -59.1820   -33.6810     2.3910    43.5430     5.5170     4.5840     5.0280   -13.4160 
  204.2500   185.8370   -59.2510   -33.7230     2.4110    45.7900     5.8570     4.8920     5.6670   -14.0010 
  204.3750   185.9330   -59.3190   -33.7640     2.4290    51.1460     6.2680     5.2840     7.0630   -14.6460 
  204.5000   186.0290   -59.3880   -33.8060     2.4350    59.4100     6.6500     5.6800     8.8710   -15.2900 
  204.6250   186.1250   -59.4560   -33.8470     2.4180    66.1320     6.8370     5.9210     8.9980   -15.7690 
  204.7500   186.2210   -59.5240   -33.8890     2.3870    68.0420     6.7720     5.9240     7.2790   -15.9800 
  204.8750   186.3170   -59.5930   -33.9300     2.3540    65.4630     6.4840     5.6980     5.6810   -16.0000 
  205.0000   186.4130   -59.6610   -33.9720     2.3300    60.4230     6.0740     5.3430     5.0880   -15.8740 
  205.1250   186.5100   -59.7300   -34.0130     2.3260    54.2850     5.6960     4.9950     4.9920   -15.4890 
  205.2500   186.6060   -59.7980   -34.0550     2.3360    48.9600     5.4480     4.7480     5.0420   -14.9020 
  205.3750   186.7020   -59.8660   -34.0960     2.3550    46.0270     5.3550     4.6290     5.1500   -14.1860 
  205.5000   186.7980   -59.9350   -34.1380     2.3780    45.3020     5.3890     4.6220     5.2280   -13.4320 
  205.6250   186.8940   -60.0030   -34.1790     2.3960    44.8520     5.4950     4.6970     5.2360   -12.8770 
  205.7500   186.9900   -60.0720   -34.2210     2.4060    44.3200     5.6090     4.7950     5.2380   -12.6380 
  205.8750   187.0860   -60.1400   -34.2620     2.4080    45.0710     5.7060     4.8830     5.2300   -12.5650 
  206.0000   187.1820   -60.2080   -34.3040     2.4070    46.6500     5.7760     4.9460     5.2160   -12.5710 
  206.1250   187.2780   -60.2770   -34.3450     2.4080    46.0460     5.8000     4.9690     5.2130   -12.6350 
  206.2500   187.3740   -60.3450   -34.3870     2.4110    44.3610     5.7730     4.9590     5.1950   -12.7130 
  206.3750   187.4700   -60.4140   -34.4280     2.4110    44.0160     5.6960     4.9210     5.1410   -12.8290 
  206.5000   187.5660   -60.4820   -34.4700     2.4020    45.2490     5.5950     4.8600     5.0290   -13.0050 
  206.6250   187.6620   -60.5500   -34.5110     2.3830    45.9740     5.5160     4.7870     4.9890   -13.2560 
  206.7500   187.7580   -60.6190   -34.5530     2.3610    46.2410     5.4910     4.7250     4.9450   -13.5100 
  206.8750   187.8540   -60.6870   -34.5940     2.3410    46.3400     5.5350     4.6970     4.9300   -13.7750 
  207.0000   187.9500   -60.7560   -34.6360     2.3270    46.3400     5.6510     4.7260     4.9670   -14.1370 
  207.1250   188.0460   -60.8240   -34.6770     2.3160    46.3400     5.8520     4.8350     5.0350   -14.7270 
  207.2500   188.1420   -60.8920   -34.7190     2.3070    46.3400     6.1150     5.0080     5.2380   -15.4750 
  207.3750   188.2380   -60.9610   -34.7600     2.3000    46.3400     6.4030     5.2220     5.5390   -16.2970 
  207.5000   188.3340   -61.0290   -34.8020     2.2960    46.3400     6.6650     5.4360     5.7320   -17.1340 
  207.6250   188.4300   -61.0980   -34.8430     2.2970    46.3400     6.8390     5.5910     5.5880   -17.8630 
  207.7500   188.5260   -61.1660   -34.8850     2.3010    46.3400     6.9340     5.6780     5.5010   -18.5290 
  207.8750   188.6220   -61.2340   -34.9260     2.3090    46.3400     6.9770     5.7100     5.5550   -19.2260 
  208.0000   188.7180   -61.3030   -34.9680     2.3220    46.3400     7.0000     5.7180     5.7090   -19.8670 
  208.1250   188.8140   -61.3710   -35.0090     2.3420    46.3400     7.0200     5.7320     5.8740   -20.2670 
  208.2500   188.9100   -61.4400   -35.0510     2.3610    46.3400     7.0430     5.7630     5.8000   -20.4580 
  208.3750   189.0060   -61.5080   -35.0920     2.3720    46.3400     7.0820     5.8100     5.5550   -20.4450 
  208.5000   189.1020   -61.5760   -35.1340     2.3720    46.3400     7.1540     5.8670     5.5470   -20.2800 
  208.6250   189.1980   -61.6450   -35.1750     2.3630    46.3400     7.2710     5.9390     6.1580   -20.1180 
  208.7500   189.2940   -61.7130   -35.2170     2.3560    46.3400     7.4050     6.0230     6.9920   -20.0200 
  208.8750   189.3910   -61.7820   -35.2580     2.3560    46.3400     7.5200     6.1100     7.2040   -19.8420 
  209.0000   189.4870   -61.8500   -35.3000     2.3650    46.3400     7.5780     6.1780     6.6190   -19.4900 
  209.1250   189.5830   -61.9180   -35.3410     2.3840    46.3400     7.5450     6.1910     6.0320   -19.0160 
  209.2500   189.6790   -61.9870   -35.3830     2.4080    46.3400     7.4370     6.1390     5.9790   -18.4930 
  209.3750   189.7750   -62.0550   -35.4240     2.4330    46.3400     7.2690     6.0200     6.1110   -17.9810 
  209.5000   189.8710   -62.1240   -35.4660     2.4540    46.3400     7.0550     5.8460     5.9290   -17.4750 
  209.6250   189.9670   -62.1920   -35.5070     2.4640    46.3400     6.8020     5.6360     5.4020   -16.8680 
  209.7500   190.0630   -62.2600   -35.5490     2.4640    46.3400     6.5320     5.4200     5.0610   -16.1730 
  209.8750   190.1590   -62.3290   -35.5900     2.4590    46.3400     6.2710     5.2190     4.8950   -15.5090 
  210.0000   190.2550   -62.3970   -35.6320     2.4580    46.3400     6.0550     5.0540     4.8880   -14.9700 
  210.1250   190.3520   -62.4620   -35.6770     2.4670    46.3400     5.9260     4.9400     4.9460   -14.5320 
  210.2500   190.4490   -62.5260   -35.7230     2.4840    46.3400     5.8640     4.8630     5.0540   -14.2010 
  210.3750   190.5460   -62.5910   -35.7680     2.5020    46.3400     5.8400     4.8110     5.2090   -13.9600 
  210.5000   190.6430   -62.6550   -35.8130     2.5120    46.3400     5.8190     4.7740     5.2790   -13.7740 
  210.6250   190.7390   -62.7200   -35.8590     2.5070    46.3400     5.7890     4.7520     5.2220   -13.6610 
  210.7500   190.8360   -62.7840   -35.9040     2.4890    46.3400     5.7640     4.7370     5.1860   -13.5530 
  210.8750   190.9330   -62.8490   -35.9490     2.4670    46.3400     5.7590     4.7230     5.1720   -13.4020 
  211.0000   191.0300   -62.9130   -35.9940     2.4460    46.3400     5.7680     4.7030     5.1330   -13.2110 
  211.1250   191.1270   -62.9780   -36.0400     2.4330    46.3400     5.7690     4.6730     5.0870   -13.0150 
  211.2500   191.2240   -63.0420   -36.0850     2.4220    46.3400     5.7420     4.6410     5.0920   -12.7660 
  211.3750   191.3210   -63.1070   -36.1300     2.4070    46.3400     5.6810     4.6090     5.1450   -12.5330 
  211.5000   191.4180   -63.1710   -36.1760     2.3800    46.3400     5.5970     4.5790     5.1820   -12.4140 
