~V
VERS. 2.00: Ver 2.00
~W
STRT.M 20.0000:
STOP.M 217.0000:
STEP.M 0.1250:
NULL. -999.2500:
UWI. FD10571:
~C
DEPT.M :
TVD. :
DX. :
DY. :
DEN.GM/CC :
GR.API :
RML.OHMM :
RI. :
RXO.OHMM :
SP.MV :
~A
# ...
  175.1250   163.2580   -43.5470   -24.1820     2.2970    69.7990    55.4000    52.0980    40.5780   -20.1540 
  175.2500   163.3590   -43.6090   -24.2200     2.2630    71.1350    56.4430    53.2460    46.6460   -20.2480 
  175.3750   163.4600   -43.6720   -24.2580     2.2420    69.6110    56.5670    53.4560    50.2220   -20.2670 
  175.5000   163.5610   -43.7340   -24.2960     2.2380    66.3180    56.0150    52.9410    50.3650   -20.2090 
  175.6250   163.6630   -43.7970   -24.3340     2.2410    64.7480    55.2040    52.1030    46.2170   -20.0560 
  175.7500   163.7640   -43.8590   -24.3720     2.2440    64.1510    54.5620    51.3760    38.8350   -19.8670 
  175.8750   163.8650   -43.9210   -24.4110     2.2480    63.0900    54.2430    50.8850    32.5350   -19.7320 
  176.0000   163.9660   -43.9840   -24.4490     2.2550    61.9210    54.2270    50.5930    31.3740   -19.6610 
  176.1250   164.0680   -44.0460   -24.4870     2.2700    63.5440    54.4070    50.4160    34.2260   -19.5430 
  176.2500   164.1690   -44.1090   -24.5250     2.2870    65.4500    54.6170    50.2660    36.9300   -19.3900 
  176.3750   164.2700   -44.1710   -24.5630     2.3020    63.4800    54.8110    50.1360    39.6850   -19.2580 
  176.5000   164.3710   -44.2340   -24.6020     2.3120    59.4210    55.0430    50.0860    43.1100   -19.1410 
  176.6250   164.4730   -44.2960   -24.6400     2.3190    58.8500    55.4900    50.2900    45.5340   -19.0660 
  176.7500   164.5740   -44.3580   -24.6780     2.3230    61.6120    56.2690    50.8630    43.7340   -19.0880 
  176.8750   164.6750   -44.4210   -24.7160     2.3250    63.8010    57.4400    51.8990    38.1390   -19.1780 
  177.0000   164.7760   -44.4830   -24.7540     2.3300    64.1590    58.9900    53.4240    34.4710   -19.1980 
  177.1250   164.8780   -44.5460   -24.7920     2.3560    63.8020    60.8960    55.4390    37.6510   -19.2100 
  177.2500   164.9790   -44.6080   -24.8310     2.4160    62.9980    63.0680    57.7780    43.8930   -19.2580 
  177.3750   165.0800   -44.6700   -24.8690     2.5150    60.6150    65.5750    60.4490    49.3550   -19.2690 
  177.5000   165.1820   -44.7330   -24.9070     2.6350    56.8220    68.5450    63.5880    52.0610   -19.2480 
  177.6250   165.2830   -44.7950   -24.9450     2.7370    54.8510    72.0940    67.3200    52.6610   -19.2300 
  177.7500   165.3840   -44.8580   -24.9830     2.7920    55.4840    75.6980    71.2660    57.1530   -19.1660 
  177.8750   165.4850   -44.9200   -25.0210     2.7920    55.9690    78.0470    74.6440    62.8370   -19.0110 
  178.0000   165.5870   -44.9820   -25.0600     2.7460    54.9170    76.8420    75.4010    63.0020   -18.9270 
  178.1250   165.6880   -45.0450   -25.0980     2.6710    55.2850    68.7790    68.8020    57.3500   -18.8380 
  178.2500   165.7890   -45.1070   -25.1360     2.5930    59.7300    55.3210    55.0390    52.0140   -18.7350 
  178.3750   165.8900   -45.1700   -25.1740     2.5280    65.9380    39.8050    38.6310    48.2570   -18.6750 
  178.5000   165.9920   -45.2320   -25.2120     2.4850    72.7130    26.0930    24.8280    43.6920   -18.5930 
  178.6250   166.0930   -45.2950   -25.2500     2.4710    78.6880    17.0030    16.3590    27.1570   -18.3770 
  178.7500   166.1940   -45.3570   -25.2890     2.4700    80.6420    11.6070    11.5650    12.9590   -18.1590 
  178.8750   166.2950   -45.4190   -25.3270     2.4670    77.5060     8.8690     9.1570     7.7690   -18.0300 
  179.0000   166.3970   -45.4820   -25.3650     2.4540    73.2170     7.8580     8.1860     7.4750   -17.9590 
  179.1250   166.4980   -45.5440   -25.4030     2.4350    73.4330     7.9350     8.2320     8.4020   -18.0250 
  179.2500   166.5990   -45.6070   -25.4410     2.4220    75.8000     8.3740     8.8150     8.5630   -18.0840 
  179.3750   166.7000   -45.6690   -25.4800     2.4220    78.6600     8.8710     9.6310     8.4640   -18.1270 
  179.5000   166.8020   -45.7310   -25.5180     2.4370    82.4610     9.2340    10.3570     8.4830   -18.2510 
  179.6250   166.9030   -45.7940   -25.5560     2.4590    86.0790     9.3570    10.7370     8.5520   -18.4910 
  179.7500   167.0040   -45.8560   -25.5940     2.4760    88.1200     9.3410    10.8440     8.6330   -18.7640 
  179.8750   167.1050   -45.9190   -25.6320     2.4800    90.0990     9.2830    10.7960     8.6340   -19.0090 
  180.0000   167.2070   -45.9810   -25.6700     2.4690    94.5070     9.2580    10.6940     8.4930   -19.1980 
  180.1250   167.3030   -46.0500   -25.7120     2.4460    99.1220     9.3090    10.6020     8.2620   -19.3720 
  180.2500   167.3990   -46.1180   -25.7530     2.4220   100.7510     9.4260    10.5180     8.1880   -19.5860 
  180.3750   167.4950   -46.1860   -25.7950     2.4060   100.7960     9.5970    10.4260     8.3540   -19.8740 
  180.5000   167.5910   -46.2550   -25.8360     2.4000   100.2830     9.8230    10.3360     8.9880   -20.2300 
  180.6250   167.6870   -46.3230   -25.8780     2.4020   100.0300    10.1660    10.3410     9.5960   -20.6290 
  180.7500   167.7830   -46.3920   -25.9190     2.4030    98.8880    10.7030    10.5460     9.8580   -21.0770 
  180.8750   167.8790   -46.4600   -25.9610     2.3980    97.5630    11.5430    11.0540    10.0750   -21.6060 
  181.0000   167.9750   -46.5280   -26.0020     2.3860    96.1230    12.7720    11.9380    10.8430   -22.2090 
  181.1250   168.0710   -46.5970   -26.0440     2.3720    93.3680    14.4450    13.2750    12.4430   -22.7540 
  181.2500   168.1670   -46.6650   -26.0850     2.3640    90.0420    16.3500    14.9020    14.0740   -23.2060 
  181.3750   168.2630   -46.7340   -26.1270     2.3660    86.7360    18.2620    16.6320    15.8600   -23.5560 
  181.5000   168.3590   -46.8020   -26.1680     2.3780    86.2260    19.9610    18.2380    18.2840   -23.8460 
  181.6250   168.4550   -46.8700   -26.2100     2.3940    88.6370    21.2780    19.5030    20.5950   -24.1840 
  181.7500   168.5510   -46.9390   -26.2510     2.4060    88.2790    22.3530    20.5060    21.8490   -24.4940 
  181.8750   168.6470   -47.0070   -26.2930     2.4090    84.1270    23.3730    21.4040    22.1200   -24.7240 
  182.0000   168.7430   -47.0760   -26.3340     2.4010    79.9500    24.5200    22.3630    21.4510   -24.8710 
  182.1250   168.8390   -47.1440   -26.3760     2.3830    78.7730    25.9240    23.5120    21.2760   -24.9090 
  182.2500   168.9350   -47.2120   -26.4170     2.3640    78.0100    27.5260    24.8290    22.4660   -24.9390 
  182.3750   169.0310   -47.2810   -26.4590     2.3500    78.0660    29.2740    26.2900    24.0450   -25.0120 
  182.5000   169.1270   -47.3490   -26.5000     2.3470    80.1360    31.1660    27.9010    25.6430   -25.0560 
  182.6250   169.2230   -47.4180   -26.5420     2.3560    80.3020    33.3390    29.7850    27.4570   -25.0640 
  182.7500   169.3190   -47.4860   -26.5840     2.3700    76.6270    35.8800    32.0400    29.8080   -25.1380 
  182.8750   169.4160   -47.5540   -26.6250     2.3760    73.1670    38.8220    34.7360    30.8720   -25.2980 
  183.0000   169.5120   -47.6230   -26.6670     2.3700    71.1510    42.0530    37.8150    29.7750   -25.4620 
  183.1250   169.6080   -47.6910   -26.7080     2.3510    69.7060    45.2700    41.0620    27.5230   -25.6420 
  183.2500   169.7040   -47.7600   -26.7500     2.3320    68.9770    48.1050    44.0990    27.1790   -25.8680 
  183.3750   169.8000   -47.8280   -26.7910     2.3260    68.9150    50.3250    46.6250    28.9740   -26.0940 
  183.5000   169.8960   -47.8960   -26.8330     2.3390    67.7390    51.8940    48.5050    32.5420   -26.3020 
  183.6250   169.9920   -47.9650   -26.8740     2.3660    65.8910    52.9590    49.7920    36.1910   -26.4090 
  183.7500   170.0880   -48.0330   -26.9160     2.3890    66.1510    53.9310    50.9170    39.0890   -26.4230 
  183.8750   170.1840   -48.1020   -26.9570     2.3970    66.7550    55.1130    52.2370    38.1000   -26.4050 
  184.0000   170.2800   -48.1700   -26.9990     2.3830    64.9390    57.1400    54.0190    33.4810   -26.3880 
  184.1250   170.3760   -48.2380   -27.0400     2.3530    63.0560    60.5590    56.4000    29.3530   -26.3840 
