~V
VERS. 2.00: Ver 2.00
~W
STRT.M 11.0000:
STOP.M 231.0000:
STEP.M 0.1250:
NULL. -999.2500:
UWI. FD10589:
~C
DEPT.M :
TVD. :
DX. :
DY. :
GR.API :
RML.OHMM :
RI. :
RXO.OHMM :
DEN.GM/CC :
SP.MV :
R2M. :
R025. :
~A
# ...
  140.6250   133.5070    14.0770   -31.1830    57.4110    17.8570    14.6640    12.7790     2.4520   -17.7250    23.3790    15.7650 
  140.7500   133.6120    14.1000   -31.2460    57.5830    18.1380    14.7700    12.9920     2.4490   -17.6940    23.1220    15.7900 
  140.8750   133.7170    14.1230   -31.3100    55.6770    18.2600    14.8310    13.8750     2.4290   -17.6570    22.9610    15.7370 
  141.0000   133.8220    14.1460   -31.3730    52.6270    18.1170    14.7690    14.3840     2.3970   -17.5740    22.9360    15.6790 
  141.1250   133.9270    14.1700   -31.4370    49.8750    17.7390    14.5810    14.0550     2.3700   -17.4790    23.0700    15.6430 
  141.2500   134.0320    14.1930   -31.5000    49.2710    17.2840    14.3360    13.6580     2.3690   -17.4390    23.3620    15.4800 
  141.3750   134.1370    14.2160   -31.5640    51.1160    16.9800    14.1560    13.2920     2.3890   -17.4420    23.6650    15.2280 
  141.5000   134.2420    14.2390   -31.6280    54.5620    16.9400    14.1200    13.0560     2.4130   -17.4720    23.9080    14.9710 
  141.6250   134.3460    14.2620   -31.6910    56.1910    17.1040    14.2160    13.3040     2.4240   -17.4960    24.1290    14.7400 
  141.7500   134.4510    14.2860   -31.7550    54.9650    17.1400    14.2350    13.2420     2.4060   -17.4930    24.3810    14.5050 
  141.8750   134.5560    14.3090   -31.8180    53.5170    16.6520    13.8690    12.9250     2.3670   -17.4930    24.6530    14.1560 
  142.0000   134.6610    14.3320   -31.8820    54.0480    15.4320    12.9170    12.3960     2.3260   -17.5290    24.8950    13.6210 
  142.1250   134.7660    14.3550   -31.9450    55.6400    13.5830    11.4260    11.9870     2.3040   -17.6050    24.9920    12.8590 
  142.2500   134.8710    14.3780   -32.0090    55.6020    11.5000     9.6990    10.7900     2.3100   -17.6760    24.7600    11.7170 
  142.3750   134.9760    14.4010   -32.0720    52.8280     9.6780     8.1440     8.5930     2.3320   -17.7230    24.1300    10.2780 
  142.5000   135.0810    14.4250   -32.1360    48.3580     8.3380     6.9430     6.7540     2.3580   -17.7290    22.9560     8.9010 
  142.6250   135.1860    14.4480   -32.2000    43.2780     7.5220     6.1350     6.1810     2.3800   -17.7260    21.1430     7.8920 
  142.7500   135.2910    14.4710   -32.2630    40.0970     7.2080     5.7160     6.3500     2.3870   -17.7190    18.7910     7.1920 
  142.8750   135.3960    14.4940   -32.3270    39.7910     7.1630     5.5340     6.3790     2.3760   -17.6850    16.3860     6.6340 
  143.0000   135.5010    14.5170   -32.3900    40.4030     7.2310     5.4900     6.2990     2.3570   -17.6240    14.2850     6.2700 
  143.1250   135.6060    14.5410   -32.4540    40.0670     7.2910     5.5000     6.2660     2.3470   -17.5110    12.7290     6.0530 
  143.2500   135.7110    14.5640   -32.5170    40.3350     7.2900     5.5160     6.3070     2.3590   -17.3430    11.8050     5.8840 
  143.3750   135.8160    14.5870   -32.5810    42.2650     7.2610     5.5240     6.2920     2.3800   -17.2050    11.2050     5.7560 
  143.5000   135.9210    14.6100   -32.6440    43.7790     7.2350     5.5260     6.2070     2.3970   -17.1270    10.7630     5.6430 
  143.6250   136.0260    14.6330   -32.7080    43.8020     7.2290     5.5180     6.1800     2.3990   -17.0580    10.4040     5.5340 
  143.7500   136.1310    14.6570   -32.7720    43.9140     7.2370     5.4870     6.2600     2.3760   -17.0200    10.0850     5.5010 
  143.8750   136.2360    14.6800   -32.8350    43.1120     7.2300     5.4330     6.2780     2.3380   -17.0270     9.7930     5.4860 
  144.0000   136.3410    14.7030   -32.8990    40.9580     7.1900     5.3570     6.2490     2.3010   -17.0520     9.5510     5.4210 
  144.1250   136.4460    14.7260   -32.9620    39.8620     7.1160     5.2650     6.1890     2.2860   -17.0870     9.3490     5.3640 
  144.2500   136.5510    14.7490   -33.0260    42.9100     7.0240     5.1650     6.0580     2.3030   -17.1310     9.1600     5.3270 
  144.3750   136.6560    14.7730   -33.0890    47.4410     6.9490     5.0780     5.9340     2.3340   -17.1660     8.9720     5.2450 
  144.5000   136.7610    14.7960   -33.1530    50.9860     6.9280     5.0320     5.8200     2.3620   -17.1920     8.7710     5.1930 
  144.6250   136.8660    14.8190   -33.2160    54.1210     6.9970     5.0580     5.7690     2.3790   -17.2260     8.5340     5.2400 
  144.7500   136.9710    14.8420   -33.2800    58.2800     7.1850     5.1790     5.7830     2.3820   -17.2260     8.2670     5.3160 
  144.8750   137.0760    14.8650   -33.3440    62.8660     7.4440     5.3590     6.0390     2.3760   -17.1920     8.0090     5.4270 
  145.0000   137.1810    14.8890   -33.4070    66.0100     7.7060     5.5540     6.5640     2.3660   -17.1450     7.8010     5.6060 
  145.1250   137.2860    14.9120   -33.4710    67.0160     7.8920     5.7110     7.2100     2.3600   -17.1030     7.7150     5.7680 
  145.2500   137.3910    14.9350   -33.5340    66.8390     7.9370     5.7810     7.4470     2.3680   -17.0750     7.8160     5.8680 
  145.3750   137.4960    14.9580   -33.5980    67.1240     7.8860     5.7710     7.2810     2.3870   -17.0810     8.0220     5.9800 
  145.5000   137.6010    14.9810   -33.6610    68.2850     7.7990     5.7060     6.9530     2.4070   -17.1230     8.2510     6.0510 
  145.6250   137.7060    15.0050   -33.7250    70.8140     7.7290     5.6210     6.7630     2.4190   -17.1810     8.4230     6.0420 
  145.7500   137.8110    15.0280   -33.7880    73.5980     7.6910     5.5490     6.8780     2.4170   -17.2300     8.4430     6.0360 
  145.8750   137.9160    15.0510   -33.8520    75.2980     7.6510     5.4900     6.9200     2.4040   -17.2780     8.3480     6.0270 
  146.0000   138.0200    15.0740   -33.9160    75.3380     7.5770     5.4270     6.8580     2.3860   -17.3720     8.2050     5.9880 
  146.1250   138.1250    15.0970   -33.9790    74.9900     7.4630     5.3430     6.7200     2.3720   -17.5220     8.0490     5.9970 
  146.2500   138.2300    15.1210   -34.0430    76.9360     7.3480     5.2420     6.6330     2.3660   -17.7180     7.8760     6.0390 
  146.3750   138.3350    15.1440   -34.1060    80.7980     7.2980     5.1650     6.5170     2.3670   -17.9060     7.6820     6.0060 
  146.5000   138.4400    15.1670   -34.1700    84.2980     7.3540     5.1530     6.4400     2.3710   -18.0750     7.4440     5.9580 
  146.6250   138.5450    15.1900   -34.2330    84.6800     7.5180     5.2350     6.6060     2.3740   -18.2530     7.1720     5.9740 
  146.7500   138.6500    15.2130   -34.2970    82.1170     7.7600     5.4190     6.9800     2.3700   -18.4690     6.9490     6.0150 
  146.8750   138.7550    15.2370   -34.3610    80.8380     8.0060     5.6440     7.0110     2.3610   -18.6950     6.8230     6.0800 
  147.0000   138.8600    15.2600   -34.4240    80.2150     8.2020     5.8490     6.9980     2.3520   -18.8840     6.7890     6.2110 
  147.1250   138.9650    15.2830   -34.4880    79.4700     8.3190     5.9860     6.9770     2.3520   -19.0270     6.8280     6.3750 
  147.2500   139.0700    15.3060   -34.5510    78.3990     8.3470     6.0340     7.2130     2.3600   -19.1410     6.8960     6.5260 
  147.3750   139.1750    15.3290   -34.6150    78.0530     8.3460     6.0500     7.4250     2.3700   -19.2730     6.9360     6.6500 
  147.5000   139.2800    15.3530   -34.6780    78.0120     8.3860     6.0910     7.5020     2.3750   -19.4330     6.9500     6.7260 
  147.6250   139.3850    15.3760   -34.7420    78.2480     8.5510     6.2160     7.5310     2.3760   -19.5990     6.9550     6.8230 
  147.7500   139.4900    15.3990   -34.8050    78.9790     8.9300     6.4800     7.4560     2.3760   -19.7850     6.9380     7.0420 
  147.8750   139.5950    15.4220   -34.8690    79.0530     9.4640     6.8470     7.6560     2.3790   -19.9920     6.9130     7.3270 
  148.0000   139.7000    15.4450   -34.9330    78.6880    10.0450     7.2550     8.0370     2.3870   -20.1990     6.9200     7.6430 
  148.1250   139.8050    15.4690   -34.9960    79.0620    10.5240     7.6100     8.7300     2.3950   -20.4220     6.9900     7.9770 
