~V
VERS. 2.00: Ver 2.00
~W
STRT.M 20.0000:
STOP.M 217.0000:
STEP.M 0.1250:
NULL. -999.2500:
UWI. FD10571:
~C
DEPT.M :
TVD. :
DX. :
DY. :
DEN.GM/CC :
GR.API :
RML.OHMM :
RI. :
RXO.OHMM :
SP.MV :
~A
# ...
  111.2500   108.7320   -15.6380    -6.9870     2.2100    72.8410    43.6100    40.4350    39.4420    -5.9150 
  111.3750   108.8480   -15.6800    -7.0080     2.1970    72.0330    43.0120    39.3880    35.4170    -5.9810 
  111.5000   108.9640   -15.7230    -7.0280     2.1850    69.2900    43.5540    39.4300    34.3510    -5.9570 
  111.6250   109.0790   -15.7650    -7.0490     2.1680    66.5890    45.5190    40.9170    38.9470    -5.8490 
  111.7500   109.1950   -15.8070    -7.0700     2.1520    64.7130    48.3460    43.4040    48.1480    -5.7620 
  111.8750   109.3100   -15.8500    -7.0910     2.1400    63.8030    51.4180    46.3500    53.7550    -5.6690 
  112.0000   109.4260   -15.8920    -7.1120     2.1350    63.5760    54.0410    49.0550    53.0850    -5.6020 
  112.1250   109.5410   -15.9350    -7.1330     2.1380    64.1340    55.4180    50.7130    48.3800    -5.5530 
  112.2500   109.6570   -15.9770    -7.1530     2.1470    65.7070    55.3930    51.1020    44.3470    -5.5770 
  112.3750   109.7720   -16.0200    -7.1740     2.1560    66.7840    53.8950    50.0710    45.4630    -5.6160 
  112.5000   109.8880   -16.0620    -7.1950     2.1660    66.2220    51.0380    47.6380    49.1660    -5.6940 
  112.6250   110.0030   -16.1050    -7.2160     2.1740    65.2630    47.0660    43.9740    48.3980    -5.7780 
  112.7500   110.1190   -16.1470    -7.2370     2.1810    66.6930    42.7490    39.8930    41.9280    -5.7870 
  112.8750   110.2340   -16.1890    -7.2580     2.1840    71.1550    38.6270    35.9660    31.7860    -5.7530 
  113.0000   110.3500   -16.2320    -7.2780     2.1850    74.4230    35.0850    32.5860    24.0600    -5.6580 
  113.1250   110.4650   -16.2740    -7.2990     2.1850    73.0160    32.4260    30.0250    24.5580    -5.5000 
  113.2500   110.5810   -16.3170    -7.3200     2.1870    71.0020    30.5040    28.1250    24.8500    -5.3350 
  113.3750   110.6960   -16.3590    -7.3410     2.1900    70.9290    29.2150    26.7960    23.0360    -5.2380 
  113.5000   110.8120   -16.4020    -7.3620     2.1910    70.4530    28.4280    25.9570    20.8010    -5.0960 
  113.6250   110.9270   -16.4440    -7.3830     2.1890    67.9750    28.0520    25.5640    20.4140    -4.9020 
  113.7500   111.0430   -16.4870    -7.4040     2.1900    66.0240    27.9060    25.4520    22.0730    -4.7370 
  113.8750   111.1580   -16.5290    -7.4240     2.1960    66.1900    27.9250    25.5680    24.1320    -4.5120 
  114.0000   111.2740   -16.5710    -7.4450     2.2050    68.1540    28.0630    25.8770    25.0610    -4.3060 
  114.1250   111.3890   -16.6140    -7.4660     2.2080    69.9570    28.3230    26.3300    23.9850    -4.2610 
  114.2500   111.5050   -16.6560    -7.4870     2.2020    69.5320    28.7230    26.8780    22.4750    -4.2380 
  114.3750   111.6200   -16.6990    -7.5080     2.1890    65.5820    29.2890    27.5690    22.6060    -4.0500 
  114.5000   111.7360   -16.7410    -7.5290     2.1760    61.0360    29.9020    28.3980    24.4230    -3.8360 
  114.6250   111.8510   -16.7840    -7.5490     2.1780    62.2530    30.0300    28.9470    25.7280    -3.7470 
  114.7500   111.9670   -16.8260    -7.5700     2.2030    66.3940    29.1290    28.5470    27.7640    -3.7930 
  114.8750   112.0820   -16.8690    -7.5910     2.2540    67.4470    26.9150    26.7290    28.4890    -4.0210 
  115.0000   112.1980   -16.9110    -7.6120     2.3270    64.6900    23.5900    23.6130    23.5830    -4.3770 
  115.1250   112.3130   -16.9530    -7.6330     2.3980    65.8450    19.8220    19.9390    17.5160    -4.8360 
  115.2500   112.4290   -16.9960    -7.6540     2.4450    72.9660    16.4400    16.6580    13.0590    -5.4200 
  115.3750   112.5440   -17.0380    -7.6740     2.4610    82.2000    13.8180    14.1280    11.3270    -6.2230 
  115.5000   112.6600   -17.0810    -7.6950     2.4540    89.7660    12.0240    12.3710    11.0530    -7.1750 
  115.6250   112.7750   -17.1230    -7.7160     2.4500    93.0840    11.0330    11.3700    10.1510    -8.1050 
  115.7500   112.8910   -17.1660    -7.7370     2.4640    92.5910    10.5260    10.8760    10.1690    -8.9580 
  115.8750   113.0060   -17.2080    -7.7580     2.4920    89.9470    10.3360    10.7570    10.2580    -9.6930 
  116.0000   113.1220   -17.2510    -7.7790     2.5160    89.2360    10.3390    10.8830     9.5870   -10.2430 
  116.1250   113.2370   -17.2930    -7.7990     2.5120    93.0590    10.4820    11.1800     9.2420   -10.5510 
  116.2500   113.3530   -17.3350    -7.8200     2.4770    96.1800    10.7000    11.5620    10.0260   -10.6980 
  116.3750   113.4680   -17.3780    -7.8410     2.4220    94.1470    10.9360    11.9490    10.3620   -10.7500 
  116.5000   113.5840   -17.4200    -7.8620     2.3710    87.3420    11.1170    12.2410     9.8970   -10.7550 
  116.6250   113.6990   -17.4630    -7.8830     2.3490    82.7160    11.1320    12.3020     9.9150   -10.7390 
  116.7500   113.8150   -17.5050    -7.9040     2.3550    83.5760    10.9430    12.0900    10.7480   -10.6950 
  116.8750   113.9300   -17.5480    -7.9240     2.3730    87.4530    10.5360    11.5780    10.6940   -10.6660 
  117.0000   114.0460   -17.5900    -7.9450     2.3840    91.6520     9.9440    10.8030     9.8370   -10.6410 
  117.1250   114.1610   -17.6330    -7.9660     2.3820    93.6260     9.2840     9.9050     8.9500   -10.6650 
  117.2500   114.2770   -17.6750    -7.9870     2.3780    94.3680     8.7890     9.1440     8.5060   -10.7520 
  117.3750   114.3920   -17.7170    -8.0080     2.3900    94.4020     8.7280     8.7600     8.2500   -10.8340 
  117.5000   114.5080   -17.7600    -8.0290     2.4240    93.9550     9.4190     8.9930     7.8460   -10.8910 
  117.6250   114.6230   -17.8020    -8.0500     2.4790    90.7060    11.4350    10.3170     9.0860   -10.9800 
  117.7500   114.7390   -17.8450    -8.0700     2.5370    82.2370    14.9150    12.9590    15.0560   -11.1040 
  117.8750   114.8540   -17.8870    -8.0910     2.5880    72.0930    19.9400    17.2230    24.7610   -11.2290 
  118.0000   114.9700   -17.9300    -8.1120     2.6190    65.6430    26.1940    23.1270    37.1170   -11.3960 
  118.1250   115.0850   -17.9720    -8.1330     2.6210    63.3340    32.7440    29.9440    38.9570   -11.5670 
  118.2500   115.2010   -18.0150    -8.1540     2.5960    60.1820    38.3850    35.9250    40.4530   -11.6450 
  118.3750   115.3160   -18.0570    -8.1750     2.5600    58.2940    42.6630    40.1730    38.1390   -11.6700 
  118.5000   115.4320   -18.0990    -8.1950     2.5320    60.4950    45.9640    43.1090    36.0110   -11.6950 
  118.6250   115.5470   -18.1420    -8.2160     2.5350    63.4900    49.2570    45.9210    40.0770   -11.7000 
  118.7500   115.6630   -18.1840    -8.2370     2.5620    63.4680    53.0800    49.2440    45.5520   -11.6840 
  118.8750   115.7780   -18.2270    -8.2580     2.5950    61.2010    57.0570    52.8050    52.0030   -11.6630 
  119.0000   115.8940   -18.2690    -8.2790     2.6160    58.7880    60.2460    55.7870    63.6370   -11.6520 
  119.1250   116.0090   -18.3120    -8.3000     2.6160    57.9100    61.4100    56.9310    67.3530   -11.6290 
  119.2500   116.1250   -18.3540    -8.3200     2.6060    58.5190    60.8100    56.3210    56.1740   -11.6240 
  119.3750   116.2400   -18.3970    -8.3410     2.5940    59.1330    59.3280    54.8010    42.1150   -11.6020 
  119.5000   116.3560   -18.4390    -8.3620     2.5810    58.5170    58.1340    53.5490    39.1650   -11.5310 
  119.6250   116.4710   -18.4810    -8.3830     2.5670    56.2290    58.3340    53.6600    45.3960   -11.4670 
  119.7500   116.5870   -18.5240    -8.4040     2.5540    54.5750    59.8220    55.1040    50.2620   -11.4490 
  119.8750   116.7020   -18.5660    -8.4250     2.5470    54.0430    62.0270    57.3970    57.5570   -11.4640 
  120.0000   116.8180   -18.6090    -8.4450     2.5450    53.5850    64.1050    59.6670    62.8090   -11.4670 
  120.1250   116.9260   -18.6600    -8.4790     2.5450    51.8070    65.1770    60.9110    60.7360   -11.4070 
  120.2500   117.0350   -18.7120    -8.5130     2.5430    51.5410    65.3300    61.1600    52.9460   -11.3280 
