~V
VERS. 2.00: Ver 2.00
~W
STRT.M 13.0000:
STOP.M 216.0000:
STEP.M 0.1250:
NULL. -999.2500:
UWI. FD10578:
~C
DEPT.M :
TVD. :
DX. :
DY. :
GR.API :
RML.OHMM :
RI. :
RXO.OHMM :
DEN.GM/CC :
SP.MV :
~A
# ...
  177.2500   167.1800    40.0640    20.2260    61.8640    45.5630    39.2930    21.8000     2.3810   -23.6680 
  177.3750   167.2850    40.1260    20.2560    61.2940    55.2290    48.6720    23.7630     2.4660   -23.2620 
  177.5000   167.3890    40.1870    20.2850    61.6620    64.5470    59.4470    21.9780     2.5820   -22.7850 
  177.6250   167.4940    40.2490    20.3140    61.1870    67.3410    65.3760    18.5670     2.6990   -22.1960 
  177.7500   167.5980    40.3110    20.3430    59.0810    61.1890    61.0150    17.0640     2.7800   -21.5810 
  177.8750   167.7030    40.3730    20.3730    58.7230    48.1090    47.6170    16.7610     2.8040   -20.8540 
  178.0000   167.8070    40.4350    20.4020    63.4370    33.2950    32.1950    16.5960     2.7680   -20.1660 
  178.1250   167.9120    40.4970    20.4310    70.6180    21.9930    21.0390    13.5840     2.6860   -19.4910 
  178.2500   168.0160    40.5590    20.4600    73.5150    14.7970    14.1830     9.4870     2.6020   -18.8170 
  178.3750   168.1210    40.6210    20.4900    70.5770    10.7270    10.3340     6.9200     2.5410   -18.1880 
  178.5000   168.2250    40.6830    20.5190    65.4970     8.6330     8.2710     6.0500     2.5110   -17.6430 
  178.6250   168.3300    40.7450    20.5480    61.9810     7.7580     7.3270     5.8440     2.5050   -17.2870 
  178.7500   168.4340    40.8070    20.5780    61.3000     7.3730     6.9040     5.7780     2.5030   -17.0370 
  178.8750   168.5390    40.8690    20.6070    63.9920     7.2440     6.7930     5.5500     2.5000   -16.9120 
  179.0000   168.6430    40.9310    20.6360    67.2190     7.2950     6.8950     5.6500     2.4950   -16.9050 
  179.1250   168.7480    40.9930    20.6650    67.4700     7.5720     7.2310     6.3030     2.4910   -17.0300 
  179.2500   168.8520    41.0550    20.6950    67.4770     8.0450     7.7840     7.1990     2.4900   -17.2390 
  179.3750   168.9570    41.1160    20.7240    71.2450     8.6430     8.5240     8.0030     2.4900   -17.4810 
  179.5000   169.0610    41.1780    20.7530    78.4640     9.2390     9.3420     8.2430     2.4900   -17.7230 
  179.6250   169.1660    41.2400    20.7820    87.6980     9.6720    10.0260     8.3680     2.4880   -17.9710 
  179.7500   169.2700    41.3020    20.8120    98.6840     9.9090    10.4400     8.5510     2.4870   -18.1970 
  179.8750   169.3750    41.3640    20.8410   108.6980     9.9890    10.5720     8.6870     2.4850   -18.4100 
  180.0000   169.4790    41.4260    20.8700   113.1280    10.0000    10.5080     8.6240     2.4850   -18.5840 
  180.1250   169.5810    41.4920    20.9020   111.8750    10.0300    10.3630     8.5390     2.4820   -18.7530 
  180.2500   169.6820    41.5580    20.9340   112.1180    10.1150    10.2270     8.7000     2.4740   -18.9220 
  180.3750   169.7830    41.6240    20.9660   116.3450    10.2480    10.1210     8.7540     2.4630   -19.1050 
  180.5000   169.8840    41.6900    20.9980   120.2710    10.4070    10.0370     8.4380     2.4510   -19.3660 
  180.6250   169.9850    41.7560    21.0300   118.9750    10.5550     9.9430     8.2220     2.4480   -19.5920 
  180.7500   170.0870    41.8220    21.0620   114.0250    10.6600     9.8120     8.5290     2.4530   -19.8580 
  180.8750   170.1880    41.8890    21.0940   107.8380    10.7130     9.6390     8.9690     2.4620   -20.1180 
  181.0000   170.2890    41.9550    21.1260   103.3570    10.7420     9.4570     8.9790     2.4670   -20.3940 
  181.1250   170.3900    42.0210    21.1580   103.8900    10.8780     9.3730     8.8270     2.4620   -20.6980 
  181.2500   170.4910    42.0870    21.1900   106.6880    11.2960     9.5130     8.9400     2.4530   -21.0140 
  181.3750   170.5930    42.1530    21.2220   106.5780    12.2090    10.0290     9.2750     2.4490   -21.3700 
  181.5000   170.6940    42.2190    21.2540   101.0390    13.8440    11.0860    10.3030     2.4530   -21.6950 
  181.6250   170.7950    42.2850    21.2850    93.6740    16.5860    13.0250    13.3610     2.4600   -22.0400 
  181.7500   170.8960    42.3510    21.3170    87.3090    20.4240    15.9410    16.9530     2.4620   -22.4160 
  181.8750   170.9970    42.4170    21.3490    81.4540    25.3400    19.9530    20.3960     2.4570   -22.8050 
  182.0000   171.0990    42.4830    21.3810    75.3300    31.1120    24.9820    23.4300     2.4480   -23.1630 
  182.1250   171.2000    42.5490    21.4130    69.2150    37.2400    30.6410    24.8450     2.4400   -23.4680 
  182.2500   171.3010    42.6150    21.4450    64.8430    42.9320    36.0510    24.5420     2.4290   -23.7780 
  182.3750   171.4020    42.6810    21.4770    64.3390    47.5980    40.5370    23.2090     2.4100   -24.0950 
  182.5000   171.5030    42.7470    21.5090    66.6870    50.9160    43.7230    21.8060     2.3800   -24.3850 
  182.6250   171.6040    42.8130    21.5410    67.1320    52.8050    45.4920    21.8410     2.3470   -24.6860 
  182.7500   171.7060    42.8790    21.5730    65.1870    54.0050    46.5310    21.3360     2.3230   -24.8860 
  182.8750   171.8070    42.9460    21.6050    64.1810    55.1690    47.4380    20.1780     2.3120   -25.0990 
  183.0000   171.9080    43.0120    21.6370    65.8570    56.9140    48.8100    20.2800     2.3120   -25.3510 
  183.1250   172.0090    43.0780    21.6690    67.0160    59.8100    51.2770    22.4410     2.3160   -25.5930 
  183.2500   172.1100    43.1440    21.7010    66.4340    63.6260    54.7420    25.6550     2.3170   -25.8390 
  183.3750   172.2120    43.2100    21.7330    65.0510    67.8820    58.8110    28.8250     2.3140   -25.9730 
  183.5000   172.3130    43.2760    21.7640    64.1070    71.9370    62.8340    31.5500     2.3070   -26.1070 
  183.6250   172.4140    43.3420    21.7960    62.7370    75.2520    66.1330    30.4680     2.3020   -26.2500 
  183.7500   172.5150    43.4080    21.8280    61.1060    78.1640    68.8900    26.5510     2.2990   -26.4060 
  183.8750   172.6160    43.4740    21.8600    60.4670    81.3920    71.7840    24.0010     2.2980   -26.5160 
  184.0000   172.7180    43.5400    21.8920    60.4310    85.7350    75.6400    23.9490     2.2960   -26.5470 
  184.1250   172.8190    43.6060    21.9240    59.2880    91.8990    81.2480    26.2400     2.2870   -26.6210 
  184.2500   172.9200    43.6720    21.9560    56.6740    99.2650    88.1480    33.9140     2.2740   -26.6130 
  184.3750   173.0210    43.7380    21.9880    54.7500   106.7940    95.4700    43.4000     2.2570   -26.5840 
  184.5000   173.1220    43.8040    22.0200    54.3530   113.0930   101.9010    45.6630     2.2400   -26.5380 
  184.6250   173.2240    43.8700    22.0520    55.6970   116.4540   105.7430    38.4680     2.2300   -26.4480 
  184.7500   173.3250    43.9360    22.0840    57.3030   116.9550   106.9700    31.0280     2.2290   -26.3930 
  184.8750   173.4260    44.0030    22.1160    57.6460   115.2220   106.0890    28.1160     2.2330   -26.3510 
  185.0000   173.5270    44.0690    22.1480    56.8880   112.3960   104.0400    26.6980     2.2370   -26.2650 
  185.1250   173.6280    44.1350    22.1800    57.4600   109.9830   102.1380    26.3530     2.2380   -26.0900 
  185.2500   173.7290    44.2010    22.2120    59.4120   109.0370   101.5390    29.6390     2.2430   -25.9400 
  185.3750   173.8310    44.2670    22.2440    60.8280   109.8240   102.7210    38.3780     2.2670   -25.8500 
  185.5000   173.9320    44.3330    22.2750    60.7250   111.4090   105.2070    45.1600     2.3140   -25.7730 
  185.6250   174.0330    44.3990    22.3070    60.5450   111.9730   106.9950    42.6860     2.3690   -25.6350 
  185.7500   174.1340    44.4650    22.3390    62.4960   110.6720   105.7320    35.1690     2.4050   -25.4660 
  185.8750   174.2350    44.5310    22.3710    66.6280   106.5880   100.3110    28.4790     2.4060   -25.2960 
  186.0000   174.3370    44.5970    22.4030    69.7650    99.0130    91.5730    24.5180     2.3760   -25.2280 
  186.1250   174.4380    44.6630    22.4350    68.7930    88.8390    81.9450    23.0900     2.3320   -25.1380 
  186.2500   174.5390    44.7290    22.4670    67.2620    79.5250    73.8790    22.9780     2.2940   -25.0000 
