~V
VERS. 2.00: Ver 2.00
~W
STRT.M 11.0000:
STOP.M 231.0000:
STEP.M 0.1250:
NULL. -999.2500:
UWI. FD10589:
~C
DEPT.M :
TVD. :
DX. :
DY. :
GR.API :
RML.OHMM :
RI. :
RXO.OHMM :
DEN.GM/CC :
SP.MV :
R2M. :
R025. :
~A
# ...
   94.8750    93.3060     5.4890   -11.5580    75.1630     8.5240     6.8910     7.2340     2.2520   -14.0100    10.5210     7.8860 
   95.0000    93.4200     5.5120   -11.6030    75.6650     8.1140     6.6120     6.9080     2.2680   -14.0080     9.6920     7.6640 
   95.1250    93.5340     5.5360   -11.6490    80.2500     7.6410     6.2670     6.5190     2.2880   -14.0240     9.0610     7.3400 
   95.2500    93.6480     5.5600   -11.6940    87.1210     7.1930     5.9050     6.2640     2.3060   -14.0620     8.5930     6.9980 
   95.3750    93.7610     5.5830   -11.7400    92.9740     6.8200     5.5730     6.2370     2.3180   -14.0970     8.2530     6.6680 
   95.5000    93.8750     5.6070   -11.7850    95.0920     6.5400     5.3030     6.4640     2.3250   -14.0770     8.0580     6.3810 
   95.6250    93.9890     5.6310   -11.8310    93.8190     6.3610     5.1230     6.5950     2.3230   -13.9920     8.0260     6.1490 
   95.7500    94.1030     5.6540   -11.8760    92.8490     6.3470     5.0900     6.4400     2.3160   -13.9600     8.1440     5.9840 
   95.8750    94.2170     5.6780   -11.9220    93.6240     6.5620     5.2370     6.2960     2.3080   -13.9920     8.3080     5.9390 
   96.0000    94.3310     5.7020   -11.9670    92.6070     7.1030     5.6260     6.5580     2.2960   -14.0240     8.4440     6.0430 
   96.1250    94.4440     5.7260   -12.0130    88.0240     8.0170     6.3020     7.1780     2.2770   -14.0460     8.5270     6.2690 
   96.2500    94.5580     5.7490   -12.0580    83.0780     9.2190     7.2660     8.2200     2.2540   -14.0150     8.6700     6.6710 
   96.3750    94.6720     5.7730   -12.1040    81.4120    10.3120     8.2630     8.9000     2.2370   -13.9690     9.0140     7.2690 
   96.5000    94.7860     5.7970   -12.1490    82.1300    10.8910     8.9630     9.5570     2.2350   -13.9550     9.6210     7.9790 
   96.6250    94.9000     5.8200   -12.1940    83.2480    10.6930     9.0680     9.9380     2.2460   -13.9780    10.4460     8.6040 
   96.7500    95.0140     5.8440   -12.2400    86.0220     9.7320     8.4760     9.8890     2.2660   -14.0090    11.3190     8.7760 
   96.8750    95.1270     5.8680   -12.2850    89.5520     8.5810     7.6230     8.6210     2.2880   -14.0200    11.9630     8.4920 
   97.0000    95.2410     5.8910   -12.3310    92.6970     7.6440     6.8450     7.1790     2.3050   -14.0300    12.1490     7.9970 
   97.1250    95.3550     5.9150   -12.3760    94.8690     7.1350     6.3430     6.4310     2.3110   -14.0440    11.7430     7.5320 
   97.2500    95.4690     5.9390   -12.4220    95.6850     7.1390     6.2220     6.6260     2.3020   -14.0510    10.7310     7.2150 
   97.3750    95.5830     5.9620   -12.4670    95.7340     7.4360     6.3550     7.1510     2.2920   -14.0640     9.4910     7.0400 
   97.5000    95.6970     5.9860   -12.5130    94.3790     7.8180     6.6100     7.3730     2.2910   -14.0690     8.3270     6.9870 
   97.6250    95.8100     6.0100   -12.5580    92.7620     8.0740     6.8210     7.4660     2.2920   -14.0480     7.4350     7.0320 
   97.7500    95.9240     6.0330   -12.6040    91.5930     8.0130     6.8080     7.5280     2.2910   -14.0280     6.8980     7.1380 
   97.8750    96.0380     6.0570   -12.6490    91.8490     7.6860     6.5660     7.4650     2.2920   -14.0510     6.5530     7.2060 
   98.0000    96.1520     6.0810   -12.6950    93.9960     7.2130     6.1730     7.2520     2.3000   -14.1330     6.3010     7.1790 
   98.1250    96.2660     6.1040   -12.7400    95.6350     6.7730     5.7830     7.0700     2.3070   -14.1940     6.1020     7.0830 
   98.2500    96.3800     6.1280   -12.7850    95.6140     6.6530     5.6210     6.7450     2.3030   -14.2470     5.9390     6.9840 
   98.3750    96.4930     6.1520   -12.8310    94.8770     7.0560     5.8260     6.4660     2.2860   -14.3400     5.7910     6.9610 
   98.5000    96.6070     6.1760   -12.8760    93.8400     8.1920     6.5370     6.7370     2.2510   -14.4230     5.6760     7.1220 
   98.6250    96.7210     6.1990   -12.9220    89.8040    10.2080     7.8930     8.0140     2.2020   -14.4730     5.6520     7.5890 
   98.7500    96.8350     6.2230   -12.9670    82.0990    13.1320    10.0830    10.9720     2.1560   -14.4640     5.8590     8.5710 
   98.8750    96.9490     6.2470   -13.0130    75.6770    16.2390    12.7240    13.8750     2.1310   -14.4020     6.3590    10.1730 
   99.0000    97.0630     6.2700   -13.0580    72.7440    18.6250    15.1330    15.0300     2.1280   -14.2820     7.1400    12.3810 
   99.1250    97.1760     6.2940   -13.1040    72.1710    19.5700    16.5190    14.7150     2.1360   -14.1480     8.0890    14.8570 
   99.2500    97.2900     6.3180   -13.1490    72.8570    19.0970    16.5750    14.4200     2.1450   -14.0670     8.9910    16.8960 
   99.3750    97.4040     6.3410   -13.1950    74.2910    18.5280    16.2580    13.6980     2.1510   -14.0560     9.6600    18.1620 
   99.5000    97.5180     6.3650   -13.2400    75.1380    18.9120    16.3960    12.6960     2.1530   -14.0770    10.0290    18.8870 
   99.6250    97.6320     6.3890   -13.2860    75.3820    20.9920    17.6280    12.1800     2.1510   -14.0800    10.1510    19.6290 
   99.7500    97.7460     6.4120   -13.3310    75.7530    25.5970    20.7850    15.7170     2.1490   -14.0830    10.1780    21.0360 
   99.8750    97.8590     6.4360   -13.3760    75.8050    32.4630    25.9830    24.0850     2.1510   -14.1100    10.3290    23.4090 
  100.0000    97.9730     6.4600   -13.4220    74.0120    41.1480    33.1530    27.1620     2.1580   -14.1650    10.7440    26.8620 
  100.1250    98.0870     6.4830   -13.4670    69.5470    50.5190    41.4970    28.9910     2.1670   -14.2440    11.4620    31.1330 
  100.2500    98.2010     6.5070   -13.5130    64.0710    58.6080    49.2690    30.0240     2.1670   -14.2920    12.4480    35.4870 
  100.3750    98.3150     6.5310   -13.5580    59.9420    64.4580    55.2430    30.3370     2.1570   -14.2640    13.5420    39.1670 
  100.5000    98.4290     6.5540   -13.6040    57.1000    68.1390    59.2540    30.4610     2.1380   -14.1860    14.6610    41.9720 
  100.6250    98.5420     6.5780   -13.6490    53.5850    70.0380    61.5500    30.3090     2.1170   -14.1690    15.8170    44.0740 
  100.7500    98.6560     6.6020   -13.6950    50.0070    69.9400    61.9540    29.2040     2.1030   -14.1990    17.2040    45.5730 
  100.8750    98.7700     6.6260   -13.7400    49.6510    68.1730    60.7880    27.7520     2.0960   -14.1900    19.0470    46.5440 
  101.0000    98.8840     6.6490   -13.7860    51.9580    65.2600    58.4420    26.7590     2.0940   -14.1300    21.5590    46.9520 
  101.1250    98.9980     6.6730   -13.8310    54.7400    62.0950    55.6510    26.6230     2.0930   -14.0210    24.8300    46.7850 
  101.2500    99.1120     6.6970   -13.8760    56.3300    59.7070    53.3340    26.5450     2.0910   -13.9490    28.8040    46.0850 
  101.3750    99.2250     6.7200   -13.9220    57.0620    58.4560    51.9680    26.3980     2.0860   -13.9380    33.0340    45.2020 
  101.5000    99.3390     6.7440   -13.9670    57.2570    58.3340    51.6550    26.6430     2.0790   -13.9230    37.1780    44.3870 
  101.6250    99.4530     6.7680   -14.0130    56.7190    58.9780    52.1690    27.7890     2.0720   -13.8860    40.9990    43.7500 
  101.7500    99.5670     6.7910   -14.0580    54.8170    59.5640    52.8760    29.3940     2.0730   -13.8350    44.5560    43.2830 
  101.8750    99.6810     6.8150   -14.1040    52.5310    59.1870    52.9010    30.2390     2.0810   -13.8150    48.3090    42.8130 
  102.0000    99.7950     6.8390   -14.1490    52.3230    57.4090    51.7260    30.7010     2.0920   -13.8310    52.7190    42.1820 
  102.1250    99.9080     6.8620   -14.1950    54.9690    54.4020    49.3400    31.5630     2.1030   -13.8970    58.1420    41.2990 
  102.2500   100.0220     6.8860   -14.2400    57.7220    50.9530    46.2820    31.4450     2.1140   -13.9670    64.6080    40.0710 
  102.3750   100.1360     6.9100   -14.2860    59.7960    48.1030    43.5200    28.9950     2.1240   -13.9820    71.2580    38.6590 
