~V
VERS. 2.00: Ver 2.00
~W
STRT.M 13.0000:
STOP.M 216.0000:
STEP.M 0.1250:
NULL. -999.2500:
UWI. FD10578:
~C
DEPT.M :
TVD. :
DX. :
DY. :
GR.API :
RML.OHMM :
RI. :
RXO.OHMM :
DEN.GM/CC :
SP.MV :
~A
# ...
   67.7500    67.5580     1.7180     2.4330    68.4720    12.9720     9.5340    18.0660     2.4180    -9.1220 
   67.8750    67.6810     1.7360     2.4440    62.2070    13.7040    10.3100    15.8110     2.3570    -9.5790 
   68.0000    67.8040     1.7550     2.4560    55.6920    13.6240    10.4630    12.0560     2.2820   -10.0760 
   68.1250    67.9270     1.7730     2.4680    54.8830    12.9030    10.0500    10.8110     2.2190   -10.5700 
   68.2500    68.0500     1.7910     2.4800    57.3940    12.1390     9.5370    10.4200     2.1800   -11.0080 
   68.3750    68.1730     1.8100     2.4920    58.8860    11.6730     9.1910    10.3620     2.1690   -11.4050 
   68.5000    68.2960     1.8280     2.5040    57.4710    11.6000     9.1050    10.6460     2.1820   -11.7460 
   68.6250    68.4190     1.8460     2.5160    56.3340    11.8100     9.2310    12.7590     2.2140   -12.0320 
   68.7500    68.5420     1.8650     2.5280    57.7150    12.0160     9.3730    17.2150     2.2490   -12.2250 
   68.8750    68.6650     1.8830     2.5400    60.3510    12.0580     9.4080    19.0590     2.2720   -12.3130 
   69.0000    68.7880     1.9010     2.5510    63.1040    11.8940     9.2940    13.6720     2.2760   -12.3790 
   69.1250    68.9110     1.9200     2.5630    64.3880    11.5990     9.0770    10.6720     2.2590   -12.3660 
   69.2500    69.0340     1.9380     2.5750    62.4640    11.3400     8.8750     9.6280     2.2300   -12.4230 
   69.3750    69.1570     1.9560     2.5870    58.4820    11.2090     8.7600     9.5360     2.1970   -12.4930 
   69.5000    69.2800     1.9740     2.5990    57.4380    11.2270     8.7610     9.5100     2.1640   -12.5630 
   69.6250    69.4030     1.9930     2.6110    60.2390    11.3540     8.8650     9.4400     2.1420   -12.6890 
   69.7500    69.5260     2.0110     2.6230    61.7470    11.4850     8.9910     9.6130     2.1380   -12.7480 
   69.8750    69.6490     2.0290     2.6350    61.9990    11.5590     9.0840     9.9820     2.1510   -12.8600 
   70.0000    69.7720     2.0480     2.6470    62.5370    11.5560     9.1150    10.3100     2.1740   -12.9680 
   70.1250    69.8950     2.0660     2.6580    61.3600    11.4880     9.0780    10.4550     2.1910   -13.0800 
   70.2500    70.0180     2.0840     2.6700    57.7230    11.4040     9.0130    10.2880     2.1920   -13.1260 
   70.3750    70.1410     2.1030     2.6820    54.8900    11.3250     8.9430     9.8760     2.1750   -13.1720 
   70.5000    70.2640     2.1210     2.6940    54.7470    11.2520     8.8760     9.4960     2.1500   -13.2400 
   70.6250    70.3870     2.1390     2.7060    55.9170    11.1730     8.8030     9.3280     2.1340   -13.2450 
   70.7500    70.5100     2.1580     2.7180    57.4590    11.0880     8.7240     9.4590     2.1400   -13.3190 
   70.8750    70.6330     2.1760     2.7300    58.6710    11.0260     8.6530     9.4860     2.1630   -13.3540 
   71.0000    70.7560     2.1940     2.7420    58.6560    11.0330     8.6170     9.2980     2.1930   -13.3540 
   71.1250    70.8790     2.2120     2.7540    58.3800    11.1760     8.6650     9.4120     2.2080   -13.3830 
   71.2500    71.0020     2.2310     2.7650    59.9950    11.4410     8.8030     9.8540     2.2030   -13.4330 
   71.3750    71.1250     2.2490     2.7770    62.9540    11.7690     9.0040    10.0650     2.1830   -13.4640 
   71.5000    71.2480     2.2670     2.7890    63.9590    12.0560     9.2100    10.0130     2.1610   -13.5210 
   71.6250    71.3710     2.2860     2.8010    63.1260    12.1750     9.3260    10.0000     2.1520   -13.5830 
   71.7500    71.4940     2.3040     2.8130    62.7900    12.1520     9.3410    10.2050     2.1580   -13.6400 
   71.8750    71.6170     2.3220     2.8250    62.2120    12.1260     9.3310    10.3240     2.1760   -13.7300 
   72.0000    71.7400     2.3410     2.8370    59.6740    12.3120     9.4370    10.2400     2.1970   -13.8110 
   72.1250    71.8630     2.3590     2.8490    56.9070    12.9950     9.8790    10.3710     2.2070   -13.8580 
   72.2500    71.9860     2.3770     2.8610    56.2070    14.1350    10.6910    11.9150     2.2020   -13.8730 
   72.3750    72.1090     2.3960     2.8720    55.1480    15.5200    11.7920    15.0050     2.1850   -13.8950 
   72.5000    72.2320     2.4140     2.8840    52.6380    16.7700    12.9220    17.4230     2.1650   -13.8470 
   72.6250    72.3550     2.4320     2.8960    52.0860    17.3690    13.6390    17.4100     2.1560   -13.8050 
   72.7500    72.4780     2.4510     2.9080    54.2040    17.2630    13.7870    16.3470     2.1600   -13.7370 
   72.8750    72.6010     2.4690     2.9200    57.0190    16.6340    13.4620    14.2950     2.1740   -13.6490 
   73.0000    72.7240     2.4870     2.9320    58.8320    15.7990    12.9120    12.6570     2.1890   -13.6090 
   73.1250    72.8470     2.5050     2.9440    59.4560    15.0470    12.3750    13.7730     2.1940   -13.5130 
   73.2500    72.9700     2.5240     2.9560    60.0760    14.4340    11.9140    15.4060     2.1870   -13.4770 
   73.3750    73.0930     2.5420     2.9680    61.1560    13.9070    11.4870    14.2780     2.1720   -13.4090 
   73.5000    73.2160     2.5600     2.9790    63.0740    13.4260    11.0710    11.5490     2.1550   -13.3810 
   73.6250    73.3390     2.5790     2.9910    62.8580    13.0370    10.7060    10.5950     2.1440   -13.3850 
   73.7500    73.4620     2.5970     3.0030    60.0590    12.7960    10.4550    10.4750     2.1440   -13.3900 
   73.8750    73.5850     2.6150     3.0150    57.5750    12.7320    10.3670    10.5900     2.1530   -13.3870 
   74.0000    73.7080     2.6340     3.0270    58.8890    12.7990    10.4430    10.9840     2.1680   -13.3190 
   74.1250    73.8310     2.6520     3.0390    62.2420    12.9080    10.6160    11.7220     2.1760   -13.3350 
   74.2500    73.9540     2.6700     3.0510    61.5570    13.0140    10.8010    12.1830     2.1690   -13.2840 
   74.3750    74.0770     2.6890     3.0630    57.3100    13.2010    11.0290    12.0140     2.1460   -13.1870 
   74.5000    74.2000     2.7070     3.0750    54.2750    13.6390    11.4160    11.5480     2.1160   -13.0820 
   74.6250    74.3230     2.7250     3.0870    53.8040    14.5790    12.1830    11.6060     2.0930   -12.8620 
   74.7500    74.4460     2.7430     3.0980    55.5850    15.9500    13.3720    12.7730     2.0870   -12.5810 
   74.8750    74.5690     2.7620     3.1100    59.7560    17.4830    14.8830    15.5630     2.0960   -12.2670 
   75.0000    74.6920     2.7800     3.1220    64.6280    18.6740    16.3410    18.4570     2.1140   -11.9480 
   75.1250    74.8150     2.7980     3.1340    65.8550    18.7320    16.9520    20.4680     2.1360   -11.5680 
   75.2500    74.9380     2.8170     3.1460    65.1520    17.6260    16.3590    18.7110     2.1600   -11.1090 
   75.3750    75.0610     2.8350     3.1580    66.2630    15.7080    14.6990    14.6690     2.1890   -10.6500 
   75.5000    75.1840     2.8530     3.1700    68.5520    13.5030    12.5330    10.8830     2.2260   -10.1550 
   75.6250    75.3070     2.8720     3.1820    70.6300    11.4730    10.5250     8.8080     2.2690    -9.6940 
   75.7500    75.4300     2.8900     3.1940    74.0210     9.8440     8.9600     7.7620     2.3080    -9.2540 
   75.8750    75.5530     2.9080     3.2050    78.0030     8.7300     7.8670     6.9320     2.3320    -8.7950 
   76.0000    75.6760     2.9270     3.2170    79.9150     8.1170     7.1920     6.3440     2.3350    -8.3890 
   76.1250    75.7990     2.9450     3.2290    79.7030     7.9010     6.8890     6.5900     2.3100    -7.9780 
   76.2500    75.9220     2.9630     3.2410    79.9720     7.8690     6.7890     6.5740     2.2720    -7.6940 
   76.3750    76.0450     2.9820     3.2530    80.4630     7.9050     6.7980     6.2420     2.2340    -7.4830 
   76.5000    76.1680     3.0000     3.2650    78.9990     7.9440     6.8480     6.2260     2.2120    -7.3160 
   76.6250    76.2910     3.0180     3.2770    76.5260     8.0100     6.9230     6.6330     2.2220    -7.2260 
   76.7500    76.4140     3.0360     3.2890    75.7200     8.2370     7.0890     7.0130     2.2710    -7.1670 
