~V
VERS. 2.00: Ver 2.00
~W
STRT.M 20.0000:
STOP.M 217.0000:
STEP.M 0.1250:
NULL. -999.2500:
UWI. FD10571:
~C
DEPT.M :
TVD. :
DX. :
DY. :
DEN.GM/CC :
GR.API :
RML.OHMM :
RI. :
RXO.OHMM :
SP.MV :
~A
# ...
  184.2500   170.4720   -48.3070   -27.0820     2.3210    62.8740    64.3920    59.0980    29.0900   -26.3840 
  184.3750   170.5680   -48.3750   -27.1230     2.2990    62.6890    67.5280    61.7720    31.5300   -26.3150 
  184.5000   170.6640   -48.4440   -27.1650     2.2960    61.2520    69.4520    63.9520    36.6470   -26.2100 
  184.6250   170.7600   -48.5120   -27.2060     2.3150    60.3700    70.1940    65.0340    41.1680   -26.1080 
  184.7500   170.8560   -48.5800   -27.2480     2.3420    61.1790    70.1360    65.1820    44.2960   -25.9710 
  184.8750   170.9520   -48.6490   -27.2890     2.3650    62.1660    69.5530    64.7640    45.5310   -25.7170 
  185.0000   171.0480   -48.7170   -27.3310     2.3710    62.3390    68.8750    64.2130    40.6420   -25.3130 
  185.1250   171.1440   -48.7860   -27.3720     2.3550    63.2670    68.4140    63.9360    34.1190   -24.8640 
  185.2500   171.2400   -48.8540   -27.4140     2.3270    66.1360    68.0370    63.9690    30.6170   -24.3980 
  185.3750   171.3360   -48.9220   -27.4550     2.3020    68.8460    67.3460    63.9510    31.5030   -23.9420 
  185.5000   171.4320   -48.9910   -27.4970     2.2910    68.1140    65.8970    63.3480    34.1590   -23.5400 
  185.6250   171.5280   -49.0590   -27.5380     2.3010    65.1760    63.3420    61.6540    33.8820   -23.2040 
  185.7500   171.6240   -49.1280   -27.5800     2.3200    64.3140    60.1850    59.1760    30.2520   -22.8780 
  185.8750   171.7200   -49.1960   -27.6210     2.3390    65.9590    57.1190    56.5290    24.6830   -22.6110 
  186.0000   171.8160   -49.2640   -27.6630     2.3470    67.1890    54.8560    54.6060    19.5600   -22.5010 
  186.1250   171.9120   -49.3330   -27.7040     2.3390    64.5670    53.8120    54.1710    16.8350   -22.4970 
  186.2500   172.0080   -49.4010   -27.7460     2.3240    60.7980    53.1360    54.3790    17.4480   -22.4720 
  186.3750   172.1040   -49.4700   -27.7870     2.3100    60.5440    51.6940    53.8330    19.4340   -22.4470 
  186.5000   172.2000   -49.5380   -27.8290     2.3100    64.8910    48.5560    51.2100    22.8670   -22.4080 
  186.6250   172.2970   -49.6060   -27.8700     2.3300    71.7970    43.4610    45.8790    26.4690   -22.2930 
  186.7500   172.3930   -49.6750   -27.9120     2.3610    80.0550    37.8130    39.5670    25.2880   -22.1310 
  186.8750   172.4890   -49.7430   -27.9530     2.3920    87.2480    32.9010    33.9480    19.1390   -21.9690 
  187.0000   172.5850   -49.8120   -27.9950     2.4090    89.8810    29.6370    30.1150    15.3630   -21.8320 
  187.1250   172.6810   -49.8800   -28.0360     2.4010    85.6030    28.7670    28.7620    14.6650   -21.6800 
  187.2500   172.7770   -49.9480   -28.0780     2.3750    80.0880    30.0170    29.5860    15.6620   -21.4940 
  187.3750   172.8730   -50.0170   -28.1190     2.3400    77.0280    33.3820    32.6900    18.2620   -21.3870 
  187.5000   172.9690   -50.0850   -28.1610     2.3060    75.2400    38.8060    38.1060    23.6310   -21.4260 
  187.6250   173.0650   -50.1540   -28.2020     2.2830    70.6160    46.3500    45.8690    34.7170   -21.5990 
  187.7500   173.1610   -50.2220   -28.2440     2.2740    64.5330    55.2510    54.9920    53.4160   -21.8740 
  187.8750   173.2570   -50.2900   -28.2850     2.2740    62.5810    65.0220    64.8230    76.5160   -22.1500 
  188.0000   173.3530   -50.3590   -28.3270     2.2780    64.5540    75.2400    74.8620    75.4390   -22.3870 
  188.1250   173.4490   -50.4270   -28.3680     2.2790    64.1330    85.4070    84.6330    56.2440   -22.6180 
  188.2500   173.5450   -50.4960   -28.4100     2.2790    60.9820    94.5890    93.3410    41.2840   -22.8390 
  188.3750   173.6410   -50.5640   -28.4510     2.2790    57.9700   101.3630    99.5720    37.4570   -22.9640 
  188.5000   173.7370   -50.6320   -28.4930     2.2800    56.1400   104.3250   101.8480    45.4890   -22.9710 
  188.6250   173.8330   -50.7010   -28.5340     2.2790    55.9530   102.5560    99.2310    61.4950   -22.9030 
  188.7500   173.9290   -50.7690   -28.5760     2.2770    58.2380    98.3710    94.1400    71.2700   -22.7640 
  188.8750   174.0250   -50.8380   -28.6170     2.2830    62.0050    94.0660    89.0130    68.5810   -22.5880 
  189.0000   174.1210   -50.9060   -28.6590     2.3090    64.6160    91.5680    85.9450    64.0880   -22.3590 
  189.1250   174.2170   -50.9740   -28.7000     2.3630    63.0460    92.3660    86.5300    55.1850   -22.0330 
  189.2500   174.3130   -51.0430   -28.7420     2.4250    58.6640    95.9010    90.1590    45.7980   -21.7680 
  189.3750   174.4090   -51.1110   -28.7830     2.4720    55.7500   101.0170    96.0100    37.5040   -21.5990 
  189.5000   174.5050   -51.1800   -28.8250     2.4870    56.3030   104.8100   102.1880    33.5020   -21.4260 
  189.6250   174.6010   -51.2480   -28.8660     2.4730    56.4060   100.9010   103.0340    40.8310   -21.1980 
  189.7500   174.6970   -51.3160   -28.9080     2.4540    54.8800    87.1020    93.0350    56.2470   -20.9350 
  189.8750   174.7930   -51.3850   -28.9490     2.4410    56.2730    65.9850    71.9080    69.4410   -20.5910 
  190.0000   174.8890   -51.4530   -28.9910     2.4350    62.2990    43.9220    47.2330    68.1160   -20.1160 
  190.1250   174.9850   -51.5220   -29.0320     2.4250    66.5860    27.5250    28.6950    48.0440   -19.5500 
  190.2500   175.0810   -51.5900   -29.0740     2.4060    65.8330    16.9540    17.2640    23.1280   -18.8560 
  190.3750   175.1780   -51.6580   -29.1150     2.3800    62.0740    10.6570    10.9810    10.9570   -17.9810 
  190.5000   175.2740   -51.7270   -29.1570     2.3560    57.2470     7.1910     7.7340     6.3360   -17.0620 
  190.6250   175.3700   -51.7950   -29.1980     2.3440    52.2330     5.7860     6.2700     5.1760   -16.2810 
  190.7500   175.4660   -51.8640   -29.2400     2.3460    49.6390     5.3070     5.6060     4.9690   -15.6600 
  190.8750   175.5620   -51.9320   -29.2810     2.3600    48.7540     5.2360     5.4300     4.9200   -15.1780 
  191.0000   175.6580   -52.0000   -29.3230     2.3780    47.6720     5.3400     5.5200     4.9280   -14.8770 
  191.1250   175.7540   -52.0690   -29.3640     2.3870    46.7720     5.4730     5.6940     4.9590   -14.7740 
  191.2500   175.8500   -52.1370   -29.4060     2.3830    47.7840     5.5640     5.8180     4.9650   -14.7490 
  191.3750   175.9460   -52.2060   -29.4470     2.3680    48.6630     5.6030     5.8640     4.9620   -14.8310 
  191.5000   176.0420   -52.2740   -29.4890     2.3490    48.3850     5.5920     5.8420     4.9800   -14.9910 
  191.6250   176.1380   -52.3420   -29.5300     2.3380    49.7410     5.5390     5.7840     5.0150   -15.1310 
  191.7500   176.2340   -52.4110   -29.5720     2.3410    51.3200     5.4840     5.7320     5.0430   -15.2150 
  191.8750   176.3300   -52.4790   -29.6130     2.3620    50.7080     5.4900     5.7210     5.1450   -15.3150 
  192.0000   176.4260   -52.5480   -29.6550     2.3940    48.5160     5.6270     5.7840     5.3230   -15.4390 
  192.1250   176.5220   -52.6160   -29.6960     2.4240    50.1590     5.9580     5.9690     5.8890   -15.5350 
  192.2500   176.6180   -52.6840   -29.7380     2.4350    56.8380     6.4080     6.2510     7.3800   -15.6810 
  192.3750   176.7140   -52.7530   -29.7790     2.4220    66.1410     6.8570     6.5630     9.6180   -15.8970 
  192.5000   176.8100   -52.8210   -29.8210     2.3910    74.8270     7.1660     6.7850    10.8060   -16.1580 
  192.6250   176.9060   -52.8900   -29.8630     2.3530    76.8720     7.1870     6.7550     9.4900   -16.3990 
  192.7500   177.0020   -52.9580   -29.9040     2.3270    71.0490     6.9630     6.4770     7.5250   -16.5640 
  192.8750   177.0980   -53.0260   -29.9460     2.3220    61.0520     6.5850     6.0350     6.0780   -16.5910 
  193.0000   177.1940   -53.0950   -29.9870     2.3440    52.6800     6.1770     5.5570     5.5530   -16.5430 
  193.1250   177.2900   -53.1630   -30.0290     2.3880    49.7830     5.8680     5.1720     5.6230   -16.4890 
  193.2500   177.3860   -53.2320   -30.0700     2.4330    49.4110     5.6890     4.9150     6.0850   -16.3930 
