~V
VERS. 2.00: Ver 2.00
~W
STRT.M 20.0000:
STOP.M 217.0000:
STEP.M 0.1250:
NULL. -999.2500:
UWI. FD10571:
~C
DEPT.M :
TVD. :
DX. :
DY. :
DEN.GM/CC :
GR.API :
RML.OHMM :
RI. :
RXO.OHMM :
SP.MV :
~A
# ...
  211.6250   191.5150   -63.2360   -36.2210     2.3410    46.3400     5.5150     4.5580     5.2140   -12.3430 
  211.7500   191.6120   -63.3000   -36.2660     2.3040    46.3400     5.4590     4.5520     5.3350   -12.2890 
  211.8750   191.7090   -63.3650   -36.3120     2.2810    46.3400     5.4440     4.5630     5.5750   -12.2730 
  212.0000   191.8060   -63.4290   -36.3570     2.2810    46.3400     5.4760     4.5870     5.7690   -12.2790 
  212.1250   191.9030   -63.4940   -36.4020     2.2990    46.3400     5.5500     4.6120     5.4770   -12.2880 
  212.2500   192.0000   -63.5580   -36.4480     2.3120    46.3400     5.6370     4.6280     5.0840   -12.3040 
  212.3750   192.0960   -63.6220   -36.4930     2.3040    46.3400     5.7150     4.6320     4.9150   -12.2980 
  212.5000   192.1930   -63.6870   -36.5380     2.2730    46.3400     5.7730     4.6310     4.8870   -12.2080 
  212.6250   192.2900   -63.7510   -36.5840     2.2270    46.3400     5.8030     4.6300     4.9110   -12.0720 
  212.7500   192.3870   -63.8160   -36.6290     2.1890    46.3400     5.8150     4.6300     4.9330   -11.8940 
  212.8750   192.4840   -63.8800   -36.6740     2.1720    46.3400     5.8170     4.6300     4.9530   -11.6200 
  213.0000   192.5810   -63.9450   -36.7200     2.1820    46.3400     5.8170     4.6300     4.9560   -11.3390 
  213.1250   192.6780   -64.0090   -36.7650     2.2130    46.3400     5.8170     4.6300     4.9670   -11.1880 
  213.2500   192.7750   -64.0740   -36.8100     2.2420    46.3400     5.8170     4.6300     4.9890   -11.0930 
  213.3750   192.8720   -64.1380   -36.8560     2.2560    46.3400     5.8170     4.6300     4.9980   -10.9670 
  213.5000   192.9690   -64.2030   -36.9010     2.2440    46.3400     5.8170     4.6300     5.0380   -10.8550 
  213.6250   193.0660   -64.2670   -36.9460     2.2040    46.3400     5.8170     4.6300     5.0920   -10.7480 
  213.7500   193.1630   -64.3320   -36.9920     2.1520    46.3400     5.8170     4.6300     5.1030   -10.6660 
  213.8750   193.2600   -64.3960   -37.0370     2.1030    46.3400     5.8170     4.6300     5.0110   -10.6750 
  214.0000   193.3570   -64.4610   -37.0820     2.0710    46.3400     5.8170     4.6300     4.9400   -10.7270 
  214.1250   193.4530   -64.5250   -37.1280     2.0650    46.3400     5.8170     4.6300     4.8580   -10.7340 
  214.2500   193.5500   -64.5900   -37.1730     2.0770    46.3400     5.8170     4.6300     4.8440   -10.6950 
  214.3750   193.6470   -64.6540   -37.2180     2.0930    46.3400     5.8170     4.6300     4.9010   -10.6820 
  214.5000   193.7440   -64.7190   -37.2630     2.0950    46.3400     5.8170     4.6300     4.9730   -10.6980 
  214.6250   193.8410   -64.7830   -37.3090     2.0770    46.3400     5.8170     4.6300     5.0330   -10.6490 
  214.7500   193.9380   -64.8480   -37.3540     2.0530    46.3400     5.8170     4.6300     5.0540   -10.4780 
  214.8750   194.0350   -64.9120   -37.3990     2.0400    46.3400     5.8170     4.6300     5.0590   -10.2800 
  215.0000   194.1320   -64.9770   -37.4450     2.0480    46.3400     5.8170     4.6300     5.0550   -10.0290 
  215.1250   194.2290   -65.0410   -37.4900     2.0700    46.3400     5.8170     4.6300     5.1230    -9.7040 
  215.2500   194.3260   -65.1060   -37.5350     2.0970    46.3400     5.8170     4.6300     5.1180    -9.4210 
  215.3750   194.4230   -65.1700   -37.5810     2.1250    46.3400     5.8170     4.6300     5.0640    -9.2120 
  215.5000   194.5200   -65.2350   -37.6260     2.1350    46.3400     5.8170     4.6300     4.9310    -8.9830 
  215.6250   194.6170   -65.2990   -37.6710     2.1220    46.3400     5.8170     4.6300     4.8660    -8.8400 
  215.7500   194.7140   -65.3640   -37.7170     2.0880    46.3400     5.8170     4.6300     4.9360    -8.8400 
  215.8750   194.8110   -65.4280   -37.7620     2.0400    46.3400     5.8170     4.6300     5.0650    -8.8400 
  216.0000   194.9070   -65.4930   -37.8070     1.9940    46.3400     5.8170     4.6300     5.1250  -999.2500 
  216.1250   195.0040   -65.5570   -37.8530     1.9650    46.3400     5.8170     4.6300     5.1520  -999.2500 
  216.2500   195.1010   -65.6220   -37.8980     1.9580    46.3400     5.8170     4.6300     5.2730  -999.2500 
  216.3750   195.1980   -65.6860   -37.9430     1.9680    46.3400     5.8170     4.6300     5.3820  -999.2500 
  216.5000   195.2950   -65.7510   -37.9890     1.9750    46.3400     5.8170     4.6300     5.3400  -999.2500 
  216.6250   195.3920   -65.8150   -38.0340     1.9620    46.3400     5.8170     4.6300     5.3190  -999.2500 
  216.7500   195.4890   -65.8800   -38.0790     1.9230    46.3400     5.8170     4.6300     5.5180  -999.2500 
  216.8750   195.5860   -65.9440   -38.1250     1.8580    46.3400     5.8170     4.6300     5.9220  -999.2500 
  217.0000   195.6830   -66.0080   -38.1700     1.7670    46.3400     5.8170     4.6300     6.2780  -999.2500 
