~V
VERS. 2.00: Ver 2.00
~W
STRT.M 20.0000:
STOP.M 217.0000:
STEP.M 0.1250:
NULL. -999.2500:
UWI. FD10571:
~C
DEPT.M :
TVD. :
DX. :
DY. :
DEN.GM/CC :
GR.API :
RML.OHMM :
RI. :
RXO.OHMM :
SP.MV :
~A
# ...
   29.1250    29.1240    -0.1740    -0.1570     2.0400    62.3320   106.1320     7.3780     7.5250   -26.0460 
   29.2500    29.2490    -0.1750    -0.1580     1.9840    65.2750   102.7740     7.2250     7.3750   -25.9210 
   29.3750    29.3740    -0.1760    -0.1590     1.9590    70.2300    96.4640     6.8450     7.1650   -25.5620 
   29.5000    29.4990    -0.1760    -0.1590     1.9840    80.4500    88.1890     6.2910     6.5770   -24.8930 
   29.6250    29.6240    -0.1770    -0.1600     2.0610    95.2520    80.0380     5.6820     5.7640   -23.9420 
   29.7500    29.7490    -0.1780    -0.1610     2.1560   104.4560    73.9810     5.1600     5.0550   -22.8180 
   29.8750    29.8740    -0.1790    -0.1610     2.2440   105.3630    70.9540     4.7940     4.6640   -21.6130 
   30.0000    29.9990    -0.1790    -0.1620     2.3070   102.9280    70.9490     4.6040     4.4850   -20.4010 
   30.1250    30.1230    -0.1870    -0.1670     2.3310   102.7930    73.2200     4.5840     4.4510   -19.2230 
   30.2500    30.2480    -0.1950    -0.1720     2.3250   103.2720    75.7590     4.6450     4.5270   -18.1230 
   30.3750    30.3730    -0.2030    -0.1760     2.3040   102.6950    77.1320     4.7130     4.6220   -17.2630 
   30.5000    30.4970    -0.2110    -0.1810     2.2830   104.6770    76.4950     4.7230     4.6530   -16.6350 
   30.6250    30.6220    -0.2190    -0.1860     2.2770   110.3560    73.7220     4.6320     4.6080   -16.1580 
   30.7500    30.7460    -0.2270    -0.1910     2.2870   112.1270    70.3130     4.4860     4.6110   -15.8700 
   30.8750    30.8710    -0.2350    -0.1960     2.3100   109.1730    67.7040     4.3620     4.6840   -15.7530 
   31.0000    30.9960    -0.2420    -0.2000     2.3410   105.5640    67.1230     4.3460     4.8110   -15.7310 
   31.1250    31.1200    -0.2500    -0.2050     2.3670   103.9110    69.6810     4.5350     4.9120   -15.8020 
   31.2500    31.2450    -0.2580    -0.2100     2.3700    99.6180    74.6330     4.9040     5.4740   -15.9730 
   31.3750    31.3690    -0.2660    -0.2150     2.3400    91.2940    80.8950     5.3950     6.9400   -16.1810 
   31.5000    31.4940    -0.2740    -0.2190     2.2810    82.6710    87.0200     5.9110     9.0280   -16.3930 
   31.6250    31.6180    -0.2820    -0.2240     2.2320    77.2520    91.7230     6.3580     7.7530   -16.7460 
   31.7500    31.7430    -0.2900    -0.2290     2.2280    75.5620    95.3780     6.7360     6.8880   -17.2010 
   31.8750    31.8680    -0.2970    -0.2340     2.2710    74.6980    98.8360     7.0820     6.9160   -17.6410 
   32.0000    31.9920    -0.3050    -0.2380     2.3280    72.8800   102.5610     7.4330     9.0040   -17.9880 
   32.1250    32.1170    -0.3130    -0.2430     2.3500    71.2390   105.6830     7.7910    14.4740   -18.2390 
   32.2500    32.2410    -0.3210    -0.2480     2.3320    69.3630   106.6620     8.1160    17.6670   -18.4500 
   32.3750    32.3660    -0.3290    -0.2530     2.3000    68.2970   104.4940     8.3850    13.4880   -18.6680 
   32.5000    32.4900    -0.3370    -0.2570     2.2860    69.9730    99.3010     8.6150    10.2420   -18.9060 
   32.6250    32.6150    -0.3450    -0.2620     2.2980    73.6410    92.0340     8.8350    10.6770   -19.0270 
   32.7500    32.7400    -0.3530    -0.2670     2.3050    74.3740    84.1260     9.0380    12.2270   -19.1050 
   32.8750    32.8640    -0.3600    -0.2720     2.2830    70.8270    75.7350     9.1600    12.3370   -19.2420 
   33.0000    32.9890    -0.3680    -0.2770     2.2340    67.3330    66.6240     9.1180    11.9200   -19.4760 
   33.1250    33.1130    -0.3760    -0.2810     2.1780    68.3930    57.1890     8.8320     9.9630   -19.7340 
   33.2500    33.2380    -0.3840    -0.2860     2.1360    71.7140    48.9500     8.4130     8.6190   -19.9240 
   33.3750    33.3630    -0.3920    -0.2910     2.1100    74.8770    43.2540     7.9890     7.8940   -20.0610 
   33.5000    33.4870    -0.4000    -0.2960     2.0950    77.6330    40.6870     7.6610     7.6410   -20.2590 
   33.6250    33.6120    -0.4080    -0.3000     2.0860    79.4100    41.2570     7.4990     7.6510   -20.4810 
   33.7500    33.7360    -0.4150    -0.3050     2.0860    78.3680    43.3690     7.4610     7.6630   -20.6040 
   33.8750    33.8610    -0.4230    -0.3100     2.0960    75.8490    45.8580     7.4880     7.6780   -20.6630 
   34.0000    33.9850    -0.4310    -0.3150     2.1100    75.7500    47.7890     7.5140     7.5570   -20.6860 
   34.1250    34.1100    -0.4390    -0.3190     2.1170    77.2670    48.4070     7.4810     7.3090   -20.6570 
   34.2500    34.2350    -0.4470    -0.3240     2.1140    76.4590    47.8180     7.3800     7.1710   -20.5860 
   34.3750    34.3590    -0.4550    -0.3290     2.1050    75.8470    46.3270     7.2310     7.0960   -20.5040 
   34.5000    34.4840    -0.4630    -0.3340     2.1000    78.7580    44.5150     7.0760     6.9650   -20.3580 
   34.6250    34.6080    -0.4710    -0.3380     2.1100    82.6860    43.1890     6.9780     6.8960   -20.1160 
   34.7500    34.7330    -0.4780    -0.3430     2.1290    83.2200    42.7200     6.9660     6.8190   -19.8280 
   34.8750    34.8570    -0.4860    -0.3480     2.1490    81.7300    43.0220     7.0470     6.8890   -19.5500 
   35.0000    34.9820    -0.4940    -0.3530     2.1630    79.2780    43.5390     7.1910     7.1770   -19.3050 
   35.1250    35.1070    -0.5020    -0.3570     2.1660    74.9690    43.1440     7.3250     7.7140   -19.1410 
   35.2500    35.2310    -0.5100    -0.3620     2.1600    69.6400    41.1440     7.3940     8.1150   -19.1090 
   35.3750    35.3560    -0.5180    -0.3670     2.1470    68.4480    37.4800     7.4030     8.0210   -19.1520 
   35.5000    35.4800    -0.5260    -0.3720     2.1330    73.8230    32.8060     7.4080     7.6880   -19.2480 
   35.6250    35.6050    -0.5330    -0.3770     2.1280    79.7380    28.3410     7.5140     7.2510   -19.5560 
   35.7500    35.7300    -0.5410    -0.3810     2.1350    79.5690    25.0140     7.7790     7.6150   -20.0630 
   35.8750    35.8540    -0.5490    -0.3860     2.1500    74.0680    23.0740     8.2070     8.9880   -20.5860 
   36.0000    35.9790    -0.5570    -0.3910     2.1620    68.8510    22.2220     8.7210    10.5270   -20.9780 
   36.1250    36.1030    -0.5650    -0.3960     2.1560    65.1740    21.7520     9.1170    10.5240   -21.1770 
   36.2500    36.2280    -0.5730    -0.4000     2.1320    62.2170    20.8470     9.1950     9.9500   -21.2620 
   36.3750    36.3520    -0.5810    -0.4050     2.1020    61.2450    19.1560     8.8390     9.4370   -21.2840 
   36.5000    36.4770    -0.5880    -0.4100     2.0840    63.7830    16.7390     8.0690     9.0680   -21.1550 
   36.6250    36.6020    -0.5960    -0.4150     2.0980    69.8720    13.9980     7.0460     8.1160   -20.7640 
   36.7500    36.7260    -0.6040    -0.4190     2.1420    75.5550    11.5160     6.0860     6.4580   -20.1800 
   36.8750    36.8510    -0.6120    -0.4240     2.2070    80.4230     9.6160     5.3830     5.0480   -19.4900 
   37.0000    36.9750    -0.6200    -0.4290     2.2720    84.8390     8.4510     5.0470     4.4670   -18.7920 
   37.1250    37.1000    -0.6280    -0.4340     2.3070    86.2850     8.1640     5.1920     5.7420   -18.1960 
   37.2500    37.2240    -0.6360    -0.4380     2.3010    81.5100     8.5380     5.7270     9.8400   -17.6890 
   37.3750    37.3490    -0.6440    -0.4430     2.2570    72.0120     9.3660     6.5410    14.5970   -17.2300 
   37.5000    37.4740    -0.6510    -0.4480     2.1930    64.8130    10.3160     7.4180    12.6920   -16.8700 
   37.6250    37.5980    -0.6590    -0.4530     2.1370    63.6410    10.9240     8.0290    10.3110   -16.6920 
   37.7500    37.7230    -0.6670    -0.4580     2.1140    64.4370    11.0150     8.2630     9.2610   -16.6780 
   37.8750    37.8470    -0.6750    -0.4620     2.1260    65.6000    10.6790     8.2050     8.9010   -16.8610 
   38.0000    37.9720    -0.6830    -0.4670     2.1580    68.2930    10.1750     8.0370     8.8030   -17.2470 
   38.1250    38.0970    -0.6910    -0.4720     2.1760    70.8800     9.7670     7.9140    10.2190   -17.7580 
