~V
VERS. 2.00: Ver 2.00
~W
STRT.M 11.0000:
STOP.M 231.0000:
STEP.M 0.1250:
NULL. -999.2500:
UWI. FD10589:
~C
DEPT.M :
TVD. :
DX. :
DY. :
GR.API :
RML.OHMM :
RI. :
RXO.OHMM :
DEN.GM/CC :
SP.MV :
R2M. :
R025. :
~A
# ...
   64.3750    64.0720     1.7110    -4.1510    51.9780    11.2850     8.5310     9.4660     2.1120   -25.7930    11.5000     9.9260 
   64.5000    64.1930     1.7250    -4.1780    56.8970    11.4130     8.7450     9.5800     2.1160   -25.9570    10.8240     9.7260 
   64.6250    64.3140     1.7390    -4.2060    61.0360    11.3840     8.8680     9.8460     2.1400   -26.0760    10.5570     9.6390 
   64.7500    64.4350     1.7530    -4.2330    61.3840    11.2070     8.8490     9.7580     2.1680   -26.1500    10.6200     9.5540 
   64.8750    64.5560     1.7670    -4.2610    60.2440    10.9680     8.7330     9.2820     2.1800   -26.1910    10.9100     9.4000 
   65.0000    64.6770     1.7800    -4.2880    59.9830    10.7250     8.5680     8.9220     2.1770   -26.2460    11.4060     9.2420 
   65.1250    64.7980     1.7940    -4.3160    60.6630    10.5260     8.4040     8.9250     2.1710   -26.3310    12.0430     9.1000 
   65.2500    64.9190     1.8080    -4.3430    59.1700    10.4110     8.2890     8.7730     2.1640   -26.4330    12.7120     8.9020 
   65.3750    65.0400     1.8220    -4.3710    56.5780    10.3690     8.2320     8.3920     2.1490   -26.5130    13.3140     8.7030 
   65.5000    65.1610     1.8360    -4.3980    54.8320    10.3870     8.2290     8.1680     2.1240   -26.5710    13.7860     8.5730 
   65.6250    65.2820     1.8500    -4.4260    53.1650    10.4480     8.2760     8.4810     2.1030   -26.6170    14.0880     8.4980 
   65.7500    65.4030     1.8640    -4.4530    52.1900    10.5460     8.3680     9.0510     2.0980   -26.6570    14.1820     8.4950 
   65.8750    65.5240     1.8780    -4.4810    52.3100    10.6590     8.4800     9.1910     2.1090   -26.6770    14.1010     8.5450 
   66.0000    65.6450     1.8920    -4.5080    52.5780    10.7610     8.5850     9.1530     2.1280   -26.6600    13.8680     8.6220 
   66.1250    65.7660     1.9060    -4.5360    51.4450    10.8210     8.6600     9.1510     2.1430   -26.5970    13.5370     8.7100 
   66.2500    65.8860     1.9200    -4.5630    50.1700    10.8060     8.6850     8.7680     2.1400   -26.5170    13.1710     8.7590 
   66.3750    66.0070     1.9340    -4.5910    50.8690    10.7320     8.6710     8.0410     2.1230   -26.4770    12.8150     8.7440 
   66.5000    66.1280     1.9470    -4.6180    51.0130    10.6260     8.6340     7.6160     2.0990   -26.4650    12.4900     8.6980 
   66.6250    66.2490     1.9610    -4.6450    49.7500    10.5170     8.5860     7.7050     2.0710   -26.4370    12.1870     8.6410 
   66.7500    66.3700     1.9750    -4.6730    50.4470    10.3910     8.5140     8.0060     2.0480   -26.3710    11.8850     8.5820 
   66.8750    66.4910     1.9890    -4.7000    53.3710    10.1990     8.3960     8.3400     2.0430   -26.2690    11.5870     8.5560 
   67.0000    66.6120     2.0030    -4.7280    56.8190     9.9150     8.2160     8.4030     2.0600   -26.0700    11.2940     8.5080 
   67.1250    66.7330     2.0170    -4.7550    58.7090     9.5650     7.9890     8.2440     2.0860   -25.7710    11.0200     8.3900 
   67.2500    66.8540     2.0310    -4.7830    60.3400     9.2570     7.7730     8.0450     2.1080   -25.3980    10.8150     8.2580 
   67.3750    66.9750     2.0450    -4.8100    62.5790     9.1070     7.6430     7.6140     2.1340   -25.0220    10.6650     8.1390 
   67.5000    67.0960     2.0590    -4.8380    63.8180     9.1920     7.6470     7.1270     2.1620   -24.7150    10.5330     8.0700 
   67.6250    67.2170     2.0730    -4.8650    62.9920     9.5240     7.8070     7.1050     2.1750   -24.5000    10.3940     8.1030 
   67.7500    67.3380     2.0870    -4.8930    60.9240    10.0500     8.1210     7.8090     2.1610   -24.3790    10.2340     8.2370 
   67.8750    67.4590     2.1010    -4.9200    60.2700    10.5850     8.4870     8.6520     2.1360   -24.3160    10.0750     8.4720 
   68.0000    67.5800     2.1150    -4.9480    60.6640    10.9540     8.7990     8.9610     2.1150   -24.2810     9.9530     8.8740 
   68.1250    67.7010     2.1280    -4.9750    61.1100    11.0240     8.9610     9.0770     2.0990   -24.2540     9.8780     9.3680 
   68.2500    67.8220     2.1420    -5.0030    60.3560    10.8020     8.9490     9.7080     2.0900   -24.2680     9.8400     9.7790 
   68.3750    67.9430     2.1560    -5.0300    58.0010    10.6620     8.9620    10.0580     2.0950   -24.2990     9.8410    10.1250 
   68.5000    68.0640     2.1700    -5.0580    57.6030    11.1130     9.2900     9.8240     2.1230   -24.2440     9.9050    10.4930 
   68.6250    68.1850     2.1840    -5.0850    61.1490    12.7920    10.3210     9.3520     2.1740   -24.0270    10.0950    10.9760 
   68.7500    68.3050     2.1980    -5.1130    64.7480    16.6420    12.7930    10.3790     2.2570   -23.5950    10.6210    11.7680 
   68.8750    68.4260     2.2120    -5.1400    63.8170    22.3510    16.8730    15.0550     2.3700   -23.0440    11.7470    12.9220 
   69.0000    68.5470     2.2260    -5.1680    60.3440    28.5560    22.0720    26.9110     2.4920   -22.4880    13.8230    14.5420 
   69.1250    68.6680     2.2400    -5.1950    58.9210    32.1070    26.1920    42.8210     2.5670   -21.9510    17.0620    16.7320 
   69.2500    68.7890     2.2540    -5.2230    62.1150    28.8730    25.0900    47.1930     2.5420   -21.3420    21.3700    18.7800 
   69.3750    68.9100     2.2680    -5.2500    68.7790    21.6030    19.9420    29.3280     2.4570   -20.6320    25.7760    19.1090 
   69.5000    69.0310     2.2820    -5.2780    75.6950    14.3980    14.1190    13.6530     2.3640   -19.9080    29.1870    17.0690 
   69.6250    69.1520     2.2960    -5.3050    80.3730     9.4450     9.7350     7.8810     2.3060   -19.2700    30.4880    13.6790 
   69.7500    69.2730     2.3090    -5.3330    83.7690     7.0420     7.3170     6.2570     2.2970   -18.7910    28.6430    10.8750 
   69.8750    69.3940     2.3230    -5.3600    86.6040     6.0120     6.0920     5.7350     2.3080   -18.3910    24.5590     9.1880 
   70.0000    69.5150     2.3370    -5.3880    87.6250     5.7800     5.6560     5.9860     2.3100   -18.0180    19.3380     8.2190 
   70.1250    69.6360     2.3510    -5.4150    86.3690     5.9900     5.7380     6.8480     2.2850   -17.7370    14.2610     7.7570 
   70.2500    69.7570     2.3650    -5.4430    83.1020     6.4830     6.1990     7.2740     2.2420   -17.5670    10.5410     7.8500 
   70.3750    69.8780     2.3790    -5.4700    79.5440     7.1960     6.9070     7.2510     2.2060   -17.4340     8.1940     8.1680 
   70.5000    69.9990     2.3930    -5.4980    77.8200     8.2340     7.9040     7.0600     2.1840   -17.3330     6.8930     8.5070 
   70.6250    70.1200     2.4070    -5.5250    77.9580     9.7170     9.2840     7.6320     2.1700   -17.2840     6.2420     8.8240 
   70.7500    70.2410     2.4210    -5.5520    77.1790    11.6240    11.0930     9.5630     2.1560   -17.2590     6.0250     9.3370 
   70.8750    70.3620     2.4350    -5.5800    74.4250    13.3880    12.8860    11.0010     2.1460   -17.2280     6.0910    10.3290 
   71.0000    70.4830     2.4490    -5.6070    72.2380    14.2770    13.9380    11.5280     2.1460   -17.1700     6.4610    11.6890 
   71.1250    70.6030     2.4630    -5.6350    72.1770    13.7800    13.6400    11.6960     2.1520   -17.1060     7.1600    12.8440 
   71.2500    70.7240     2.4770    -5.6620    73.2840    12.1000    12.1030    11.2390     2.1570   -17.1050     8.2100    13.1570 
   71.3750    70.8450     2.4900    -5.6900    75.5430    10.4820    10.5050     9.7520     2.1680   -17.1480     9.4240    12.8000 
   71.5000    70.9660     2.5040    -5.7170    78.5280     9.7690     9.5580     7.9630     2.1880   -17.1900    10.5740    12.1230 
   71.6250    71.0870     2.5180    -5.7450    79.3440    10.4290     9.6180     7.1150     2.2040   -17.1960    11.4210    11.5320 
   71.7500    71.2080     2.5320    -5.7720    75.1280    12.9390    11.1020     9.2620     2.1950   -17.1510    11.7850    11.5330 
   71.8750    71.3290     2.5460    -5.8000    69.2810    16.9750    13.9630    16.9930     2.1700   -17.0890    11.8860    12.4560 
