~V
VERS. 2.00: Ver 2.00
~W
STRT.M 13.0000:
STOP.M 216.0000:
STEP.M 0.1250:
NULL. -999.2500:
UWI. FD10578:
~C
DEPT.M :
TVD. :
DX. :
DY. :
GR.API :
RML.OHMM :
RI. :
RXO.OHMM :
DEN.GM/CC :
SP.MV :
~A
# ...
   40.3750    40.3520     0.1850     0.6660    70.5790    10.5700     6.5200     7.6050     2.0960   -11.6890 
   40.5000    40.4760     0.1870     0.6730    70.3470    10.9290     6.9060     7.7910     2.1380   -11.8510 
   40.6250    40.6010     0.1900     0.6800    66.6480    11.0330     7.1150     7.7720     2.1540   -12.1310 
   40.7500    40.7260     0.1920     0.6860    63.3900    10.9370     7.1710     7.6600     2.1360   -12.3790 
   40.8750    40.8500     0.1950     0.6930    62.7140    10.5990     7.0540     7.4970     2.0920   -12.5410 
   41.0000    40.9750     0.1980     0.6990    64.3860     9.9720     6.7320     7.3330     2.0490   -12.5280 
   41.1250    41.1000     0.2000     0.7060    68.4500     9.0630     6.2080     7.0080     2.0380   -12.3500 
   41.2500    41.2250     0.2030     0.7120    75.4530     8.0920     5.6170     6.5550     2.0670   -11.9170 
   41.3750    41.3490     0.2050     0.7190    83.0330     7.2560     5.0780     5.6860     2.1250   -11.3860 
   41.5000    41.4740     0.2080     0.7250    87.2310     6.7090     4.6780     5.2460     2.1900   -10.8320 
   41.6250    41.5990     0.2100     0.7320    87.0370     6.5850     4.4980     5.2660     2.2330   -10.2690 
   41.7500    41.7230     0.2130     0.7390    86.1390     6.8240     4.5240     5.6410     2.2460    -9.8260 
   41.8750    41.8480     0.2150     0.7450    84.7590     7.3830     4.7500     6.0420     2.2380    -9.5000 
   42.0000    41.9730     0.2180     0.7520    82.1040     8.1860     5.1510     6.2890     2.2300    -9.3470 
   42.1250    42.0980     0.2200     0.7580    77.8790     9.1220     5.6900     6.7800     2.2400    -9.5000 
   42.2500    42.2220     0.2230     0.7650    72.7370    10.0020     6.2630     8.5380     2.2620    -9.9930 
   42.3750    42.3470     0.2250     0.7710    66.2660    10.6600     6.7740    11.6930     2.2780   -10.7750 
   42.5000    42.4720     0.2280     0.7780    60.4930    10.9830     7.1250    13.1470     2.2760   -11.6410 
   42.6250    42.5960     0.2300     0.7840    59.2760    10.9600     7.2620    10.2420     2.2540   -12.4540 
   42.7500    42.7210     0.2330     0.7910    61.2060    10.8650     7.3200     8.8420     2.2270   -13.1790 
   42.8750    42.8460     0.2360     0.7970    64.8920    10.9640     7.4500     8.6910     2.2020   -13.7920 
   43.0000    42.9710     0.2380     0.8040    68.7420    11.4430     7.7750     8.9140     2.1760   -14.2770 
   43.1250    43.0950     0.2410     0.8110    70.9490    12.3300     8.3620     8.8880     2.1450   -14.4820 
   43.2500    43.2200     0.2430     0.8170    70.1350    13.2630     9.0450     8.6570     2.1130   -14.5410 
   43.3750    43.3450     0.2460     0.8240    66.4980    13.8720     9.5900     8.4790     2.0920   -14.4220 
   43.5000    43.4700     0.2480     0.8300    62.0210    13.9090     9.7820     8.5270     2.0880   -14.1720 
   43.6250    43.5940     0.2510     0.8370    58.4200    13.3540     9.5300     8.7490     2.1000   -13.9610 
   43.7500    43.7190     0.2530     0.8430    57.2560    12.6220     9.0900     8.9480     2.1140   -13.6880 
   43.8750    43.8440     0.2560     0.8500    60.6180    11.9880     8.6550     9.0860     2.1180   -13.4160 
   44.0000    43.9680     0.2580     0.8560    67.5440    11.5340     8.3110     9.1660     2.1060   -13.0730 
   44.1250    44.0930     0.2610     0.8630    69.9840    11.1110     7.9940     9.0700     2.0860   -12.7020 
   44.2500    44.2180     0.2630     0.8700    67.4000    10.5100     7.5690     8.8610     2.0750   -12.2290 
   44.3750    44.3430     0.2660     0.8760    66.1080     9.6780     6.9950     8.4670     2.0870   -11.6320 
   44.5000    44.4670     0.2690     0.8830    71.7650     8.7160     6.3420     7.3850     2.1240   -10.9550 
   44.6250    44.5920     0.2710     0.8890    82.0120     7.8440     5.7580     5.7570     2.1710   -10.1440 
   44.7500    44.7170     0.2740     0.8960    89.6260     7.2100     5.3300     5.4090     2.2030    -9.4130 
   44.8750    44.8410     0.2760     0.9020    92.0990     6.8650     5.0870     5.7610     2.2090    -8.7010 
   45.0000    44.9660     0.2790     0.9090    91.2390     6.8060     5.0260     6.0710     2.1970    -8.0630 
   45.1250    45.0910     0.2810     0.9150    91.2060     7.0500     5.1750     6.0270     2.1920    -7.6500 
   45.2500    45.2160     0.2840     0.9220    90.4040     7.5230     5.5020     6.0310     2.2100    -7.3950 
   45.3750    45.3400     0.2860     0.9290    86.9890     8.1720     5.9930     7.0580     2.2460    -7.3190 
   45.5000    45.4650     0.2890     0.9350    83.3280     8.8960     6.6010     9.7180     2.2800    -7.4920 
   45.6250    45.5900     0.2910     0.9420    81.8430     9.5090     7.2160    13.9500     2.2860    -7.8280 
   45.7500    45.7150     0.2940     0.9480    80.6950     9.8630     7.6830    13.0640     2.2670    -8.1510 
   45.8750    45.8390     0.2960     0.9550    78.1510     9.9130     7.9050    10.0700     2.2350    -8.4810 
   46.0000    45.9640     0.2990     0.9610    75.2900     9.7490     7.8930     8.2410     2.2040    -8.7750 
   46.1250    46.0890     0.3010     0.9680    72.9360     9.5850     7.7660     7.7830     2.1760    -8.9530 
   46.2500    46.2130     0.3040     0.9740    71.8690     9.6040     7.6900     7.9890     2.1500    -9.0390 
   46.3750    46.3380     0.3070     0.9810    72.4700     9.8090     7.7170     8.0950     2.1260    -9.0460 
   46.5000    46.4630     0.3090     0.9880    73.1690    10.0180     7.7740     7.9430     2.1110    -8.8540 
   46.6250    46.5880     0.3120     0.9940    71.8940     9.8330     7.6030     7.8900     2.1130    -8.5490 
   46.7500    46.7120     0.3140     1.0010    69.9040     9.0950     7.0480     7.8760     2.1270    -8.1470 
   46.8750    46.8370     0.3170     1.0070    73.1490     7.9280     6.1800     7.6240     2.1470    -7.6460 
   47.0000    46.9620     0.3190     1.0140    84.9740     6.7240     5.2820     6.6480     2.1760    -7.1230 
   47.1250    47.0860     0.3220     1.0200    97.4690     6.0810     4.7370     5.4110     2.2280    -6.5470 
   47.2500    47.2110     0.3240     1.0270   100.4790     6.3680     4.6950     5.2310     2.3020    -6.0550 
   47.3750    47.3360     0.3270     1.0330    93.2410     7.8220     5.2560     7.6810     2.3820    -5.6160 
   47.5000    47.4610     0.3290     1.0400    81.5040    10.3060     6.4680    15.2930     2.4410    -5.3560 
   47.6250    47.5850     0.3320     1.0470    71.4170    13.0560     8.2540    20.8660     2.4430    -5.2250 
   47.7500    47.7100     0.3340     1.0530    65.5700    14.9670     9.9320    16.7200     2.3920    -5.2110 
   47.8750    47.8350     0.3370     1.0600    64.8880    15.4940    10.8130    11.7500     2.3090    -5.3500 
   48.0000    47.9590     0.3390     1.0660    67.8040    14.7890    10.7150     9.7900     2.2210    -5.5850 
   48.1250    48.0840     0.3420     1.0730    72.0340    13.5620    10.0980     9.8870     2.1500    -5.9450 
   48.2500    48.2090     0.3450     1.0790    73.8160    12.6400     9.5950     9.8070     2.1030    -6.2350 
   48.3750    48.3340     0.3470     1.0860    72.0480    12.2010     9.3620     9.5440     2.0800    -6.4990 
   48.5000    48.4580     0.3500     1.0920    69.7490    12.0560     9.3080     9.5120     2.0810    -6.7010 
   48.6250    48.5830     0.3520     1.0990    70.6120    11.8670     9.2060     9.6800     2.1000    -6.8180 
   48.7500    48.7080     0.3550     1.1050    73.3810    11.4660     8.9210     9.4970     2.1220    -6.9030 
   48.8750    48.8330     0.3570     1.1120    76.0130    10.9080     8.4770     8.9760     2.1400    -6.9560 
   49.0000    48.9570     0.3600     1.1190    78.7200    10.3750     8.0060     8.3130     2.1500    -6.9910 
   49.1250    49.0820     0.3620     1.1250    82.1940    10.1380     7.7080     7.3260     2.1510    -6.9960 
   49.2500    49.2070     0.3650     1.1320    83.4550    10.2830     7.6750     6.8160     2.1470    -7.0480 
   49.3750    49.3310     0.3670     1.1380    79.1430    10.7840     7.9170     7.2080     2.1440    -7.1600 
