~V
VERS. 2.00: Ver 2.00
~W
STRT.M 11.0000:
STOP.M 231.0000:
STEP.M 0.1250:
NULL. -999.2500:
UWI. FD10589:
~C
DEPT.M :
TVD. :
DX. :
DY. :
GR.API :
RML.OHMM :
RI. :
RXO.OHMM :
DEN.GM/CC :
SP.MV :
R2M. :
R025. :
~A
   11.0000    10.9980     0.0730    -0.1960    31.6210     0.3280    28.7170     0.3590     1.9970  -999.2500  -999.2500  -999.2500 
   11.1250    11.1230     0.0740    -0.1980    30.1660     0.2800     3.8770     0.3580     1.9970  -999.2500  -999.2500  -999.2500 
   11.2500    11.2480     0.0750    -0.2000    30.7970     0.2660     0.2790     0.3570     2.0180  -999.2500  -999.2500  -999.2500 
   11.3750    11.3730     0.0760    -0.2030    32.8260     0.2640     0.2560     0.3520     2.0390  -999.2500  -999.2500  -999.2500 
   11.5000    11.4980     0.0770    -0.2050    35.7460     0.2650     0.2430     0.3410     2.0530  -999.2500  -999.2500  -999.2500 
   11.6250    11.6230     0.0770    -0.2070    39.5820     0.2690     0.2430     0.3330     2.0570  -999.2500  -999.2500  -999.2500 
   11.7500    11.7470     0.0780    -0.2090    43.2520     0.2760     0.2740     0.3320     2.0500  -999.2500  -999.2500  -999.2500 
   11.8750    11.8720     0.0790    -0.2120    44.5400     0.2840     0.3150     0.3310     2.0380  -999.2500  -999.2500  -999.2500 
   12.0000    11.9970     0.0800    -0.2140    44.4030     0.2940     0.3370     0.3300     2.0270  -999.2500  -999.2500  -999.2500 
   12.1250    12.1220     0.0810    -0.2160    44.1040     0.3020     0.3400     0.3280     2.0200  -999.2500  -999.2500  -999.2500 
   12.2500    12.2470     0.0820    -0.2180    43.3250     0.3080     0.3300     0.3240     2.0200  -999.2500  -999.2500  -999.2500 
   12.3750    12.3720     0.0820    -0.2200    42.1970     0.3110     0.3210     0.3170     2.0240  -999.2500  -999.2500  -999.2500 
   12.5000    12.4970     0.0830    -0.2230    40.2710     0.3100     0.3120     0.3100     2.0270    45.1370  -999.2500  -999.2500 
   12.6250    12.6220     0.0840    -0.2250    37.9400     0.3000     0.2890     0.3040     2.0250    45.1370     0.2980     0.2180 
   12.7500    12.7470     0.0850    -0.2270    38.3800     0.2800     0.2810     0.3030     2.0110    45.2600     0.2470     0.1870 
   12.8750    12.8720     0.0860    -0.2290    42.7490     0.2830     0.2760     0.3030     1.9900    45.4620     0.2080     0.1570 
   13.0000    12.9970     0.0870    -0.2320    46.5290     0.2930     0.2700     0.3040     1.9640    45.7270     0.2030     0.1900 
   13.1250    13.1220     0.0870    -0.2340    46.0880     0.3220     0.2670     0.3060     1.9380    46.0110     0.2380     0.2460 
   13.2500    13.2470     0.0880    -0.2360    46.0580     0.3300     0.2640     0.3080     1.9240    46.2830     0.2950     0.2480 
   13.3750    13.3720     0.0890    -0.2380    48.4130     0.3260     0.2650     0.3110     1.9310    46.5890     0.3310     0.2200 
   13.5000    13.4970     0.0900    -0.2410    49.9680     0.3020     0.2700     0.3150     1.9560    46.9080     0.3260     0.2010 
   13.6250    13.6220     0.0910    -0.2430    49.4770     0.2860     0.2940     0.3150     1.9800    47.1420     0.2940     0.1730 
   13.7500    13.7470     0.0920    -0.2450    50.3960     0.2780     0.2670     0.3080     1.9890    47.2690     0.2710     0.1320 
   13.8750    13.8720     0.0920    -0.2470    52.8570     0.2770     0.2560     0.2900     1.9930    47.2830     0.2690     0.1350 
   14.0000    13.9970     0.0930    -0.2490    52.2810     0.2810     0.2830     0.2760     1.9970    47.2010     0.2730     0.1810 
   14.1250    14.1220     0.0940    -0.2520    48.7030     0.3050     0.3260     0.2620     1.9980    47.0580     0.2700     0.2120 
   14.2500    14.2470     0.0950    -0.2540    48.4540     0.3370     0.3440     0.2430     1.9890    46.8720     0.2570     0.1930 
   14.3750    14.3720     0.0960    -0.2560    51.8320     0.3410     0.3520     0.2370     1.9810    46.6250     0.2440     0.1840 
   14.5000    14.4970     0.0970    -0.2580    54.1470     0.3290     0.3290     0.2340     1.9790    46.3920     0.2400     0.1950 
   14.6250    14.6220     0.0970    -0.2610    52.4130     0.2900     0.3090     0.2360     1.9890    46.2470     0.2560     0.2060 
   14.7500    14.7470     0.0980    -0.2630    48.3980     0.2700     0.2930     0.2380     2.0360    46.2170     0.2940     0.2340 
   14.8750    14.8720     0.0990    -0.2650    44.1470     0.2440     0.2690     0.2410     2.1380    46.3090     0.3320     0.2410 
   15.0000    14.9970     0.1000    -0.2670    41.0600     0.2390     0.2510     0.2440     2.2730    46.5060     0.3510     0.2200 
   15.1250    15.1220     0.1010    -0.2690    42.7040     0.2390     0.2440     0.2420     2.3410    46.8040     0.3470     0.2170 
   15.2500    15.2470     0.1020    -0.2720    48.6350     0.2450     0.2400     0.2300     2.2630    47.1830     0.3360     0.2250 
   15.3750    15.3720     0.1020    -0.2740    52.9260     0.2420     0.2330     0.2240     2.1380    47.6410     0.3460     0.2240 
   15.5000    15.4970     0.1030    -0.2760    54.1550     0.2380     0.2310     0.2180     2.0450    48.1990     0.3770     0.2110 
   15.6250    15.6220     0.1040    -0.2780    53.3080     0.2370     0.2360     0.2150     2.0090    48.8070     0.4050     0.1850 
   15.7500    15.7470     0.1050    -0.2810    52.7120     0.2390     0.2510     0.2070     2.0120    49.3570     0.3900     0.1810 
   15.8750    15.8720     0.1060    -0.2830    52.3290     0.2570     0.2470     0.2060     2.0230    49.7480     0.3240     0.2090 
   16.0000    15.9970     0.1070    -0.2850    50.7280     0.2650     0.2410     0.2090     2.0390    49.9190     0.2360     0.2290 
   16.1250    16.1220     0.1070    -0.2870    46.6460     0.2600     0.2320     0.2150     2.0640    49.7970     0.1700     0.2290 
   16.2500    16.2470     0.1080    -0.2900    41.0260     0.2550     0.2310     0.2190     2.1080    49.3780     0.1550     0.2610 
   16.3750    16.3720     0.1090    -0.2920    37.0860     0.2500     0.2370     0.2190     2.1660    48.7600     0.1820     0.3050 
   16.5000    16.4960     0.1100    -0.2940    34.9800     0.2460     0.2400     0.2170     2.2250    47.9230     0.2310     0.3040 
   16.6250    16.6210     0.1110    -0.2960    33.6590     0.2440     0.2400     0.2150     2.2690    46.8990     0.2760     0.2560 
   16.7500    16.7460     0.1120    -0.2980    32.8690     0.2390     0.2360     0.2120     2.2840    45.7890     0.3010     0.2370 
   16.8750    16.8710     0.1120    -0.3010    32.6180     0.2350     0.2310     0.2080     2.2800    44.7090     0.3200     0.2660 
   17.0000    16.9960     0.1130    -0.3030    33.7650     0.2340     0.2250     0.2040     2.2680    43.7340     0.3510     0.2800 
   17.1250    17.1210     0.1140    -0.3050    35.4660     0.2330     0.2220     0.2030     2.2550    42.8660     0.3850     0.2530 
   17.2500    17.2460     0.1150    -0.3070    36.0110     0.2310     0.2160     0.2030     2.2480    41.9900     0.4050     0.2430 
   17.3750    17.3710     0.1160    -0.3100    34.8510     0.2210     0.2080     0.2030     2.2490    41.0020     0.4070     0.2610 
   17.5000    17.4960     0.1170    -0.3120    33.5010     0.2120     0.2020     0.2030     2.2630    39.8580     0.3910     0.2700 
   17.6250    17.6210     0.1170    -0.3140    33.2250     0.2090     0.2000     0.2030     2.2900    38.5400     0.3650     0.2650 
   17.7500    17.7460     0.1180    -0.3160    33.6190     0.8310     0.1970     0.2030     2.3310    36.9210     0.3260     0.2590 
   17.8750    17.8710     0.1190    -0.3180    34.3890     1.1690     0.1970     0.2030     2.3800    34.9180     0.2840     0.2550 
   18.0000    17.9960     0.1200    -0.3210    36.3790     1.8060     0.1970     0.4110     2.4360    32.3790     0.2530     0.2560 
   18.1250    18.1210     0.1210    -0.3230    40.5110     2.3230     0.1970     1.1380     2.4980    29.2330     0.2490     0.2450 
   18.2500    18.2460     0.1220    -0.3250    48.2190     3.3140     0.2110     1.5630     2.5630    25.3960     0.2920     0.2260 
   18.3750    18.3710     0.1220    -0.3270    59.4090     4.7780     0.6100     2.7810     2.5980    21.0830     0.4010     0.2200 
   18.5000    18.4960     0.1230    -0.3300    72.0260     6.1200     1.0910     3.7730     2.5560    16.3800     0.5980     0.2700 
