~V
VERS. 2.00: Ver 2.00
~W
STRT.M 13.0000:
STOP.M 216.0000:
STEP.M 0.1250:
NULL. -999.2500:
UWI. FD10578:
~C
DEPT.M :
TVD. :
DX. :
DY. :
GR.API :
RML.OHMM :
RI. :
RXO.OHMM :
DEN.GM/CC :
SP.MV :
~A
# ...
  204.6250   189.4140    54.4400    27.1620    48.3730     7.2880     5.9860     7.4520     2.5030    -6.2420 
  204.7500   189.5150    54.5060    27.1940    50.2440     7.3130     5.9860     6.9640     2.5330    -6.1390 
  204.8750   189.6160    54.5720    27.2250    51.6310     7.4330     6.0650     7.0420     2.5730    -6.1080 
  205.0000   189.7170    54.6380    27.2570    51.0450     7.6440     6.2330     7.9240     2.6060    -6.0950 
  205.1250   189.8190    54.7040    27.2890    48.4110     7.8850     6.4570     9.7720     2.6110    -6.0620 
  205.2500   189.9200    54.7710    27.3210    47.2800     8.0610     6.6540    10.7980     2.5850    -5.9670 
  205.3750   190.0210    54.8370    27.3530    49.6460     8.1210     6.7650    10.0650     2.5410    -5.8730 
  205.5000   190.1220    54.9030    27.3850    53.2960     8.0570     6.7700     8.1930     2.4980    -5.7610 
  205.6250   190.2230    54.9690    27.4170    53.1990     7.8940     6.6770     7.4300     2.4730    -5.5760 
  205.7500   190.3250    55.0350    27.4490    51.5820     7.6880     6.5370     7.4550     2.4650    -5.3780 
  205.8750   190.4260    55.1010    27.4810    51.5820     7.4580     6.3720     7.8490     2.4650    -5.1340 
  206.0000   190.5270    55.1670    27.5130    51.5820     7.2080     6.1860     7.8150     2.4610    -4.9260 
  206.1250   190.6280    55.2330    27.5450    51.5820     6.9400     5.9760     7.1570     2.4440    -4.6950 
  206.2500   190.7290    55.2990    27.5770    51.5820     6.6760     5.7550     6.4570     2.4190    -4.5170 
  206.3750   190.8310    55.3650    27.6090    51.5820     6.4370     5.5390     6.2610     2.3920    -4.4310 
  206.5000   190.9320    55.4310    27.6410    51.5820     6.2400     5.3440     6.1640     2.3740    -4.3810 
  206.6250   191.0330    55.4970    27.6730    51.5820     6.0970     5.1920     5.7720     2.3720    -4.4310 
  206.7500   191.1340    55.5630    27.7040    51.5820     5.9940     5.0800     5.4650     2.3840    -4.4730 
  206.8750   191.2350    55.6290    27.7360    51.5820     5.9210     5.0030     5.3140     2.4040    -4.5410 
  207.0000   191.3370    55.6950    27.7680    51.5820     5.8710     4.9520     5.3270     2.4280    -4.6530 
  207.1250   191.4380    55.7610    27.8000    51.5820     5.8510     4.9280     5.4320     2.4470    -4.8140 
  207.2500   191.5390    55.8280    27.8320    51.5820     5.8620     4.9310     5.4590     2.4590    -4.9390 
  207.3750   191.6400    55.8940    27.8640    51.5820     5.9100     4.9640     5.4320     2.4650    -5.0510 
  207.5000   191.7410    55.9600    27.8960    51.5820     5.9970     5.0330     5.5030     2.4700    -5.2070 
  207.6250   191.8420    56.0260    27.9280    51.5820     6.1290     5.1430     5.7920     2.4760    -5.3080 
  207.7500   191.9440    56.0920    27.9600    51.5820     6.2910     5.2840     6.1160     2.4850    -5.4310 
  207.8750   192.0450    56.1580    27.9920    51.5820     6.4700     5.4420     6.3140     2.4940    -5.5480 
  208.0000   192.1460    56.2240    28.0240    51.5820     6.6500     5.5980     6.5260     2.5000    -5.6020 
  208.1250   192.2470    56.2900    28.0560    51.5820     6.8140     5.7360     6.9540     2.5020    -5.6440 
  208.2500   192.3480    56.3560    28.0880    51.5820     6.9550     5.8480     7.3270     2.5040    -5.7080 
  208.3750   192.4500    56.4220    28.1200    51.5820     7.0600     5.9260     7.3450     2.5040    -5.7120 
  208.5000   192.5510    56.4880    28.1520    51.5820     7.1130     5.9580     7.0370     2.5020    -5.6640 
  208.6250   192.6520    56.5540    28.1840    51.5820     7.0730     5.9150     6.7710     2.4930    -5.6130 
  208.7500   192.7530    56.6200    28.2150    51.5820     6.9430     5.7960     6.5910     2.4820    -5.5060 
  208.8750   192.8540    56.6860    28.2470    51.5820     6.7390     5.6130     6.3760     2.4740    -5.3650 
  209.0000   192.9560    56.7520    28.2790    51.5820     6.5030     5.4040     6.0840     2.4720    -5.2420 
  209.1250   193.0570    56.8180    28.3110    51.5820     6.3100     5.2250     5.8950     2.4760    -5.1430 
  209.2500   193.1580    56.8850    28.3430    51.5820     6.2110     5.1180     5.8950     2.4770    -5.0580 
  209.3750   193.2590    56.9510    28.3750    51.5820     6.2310     5.1080     6.1520     2.4730    -5.0050 
  209.5000   193.3600    57.0170    28.4070    51.5820     6.3660     5.1980     6.4760     2.4650    -4.8910 
  209.6250   193.4620    57.0830    28.4390    51.5820     6.5860     5.3780     6.5620     2.4590    -4.7700 
  209.7500   193.5630    57.1490    28.4710    51.5820     6.8090     5.5810     6.8130     2.4620    -4.6880 
  209.8750   193.6640    57.2150    28.5030    51.5820     6.9670     5.7480     7.2520     2.4730    -4.5940 
  210.0000   193.7650    57.2810    28.5350    51.5820     7.0110     5.8270     7.3720     2.4890    -4.4690 
  210.1250   193.8640    57.3480    28.5700    51.5820     6.9090     5.7760     7.0330     2.4970    -4.2670 
  210.2500   193.9640    57.4160    28.6050    51.5820     6.7200     5.6410     6.5760     2.4940    -4.0340 
  210.3750   194.0630    57.4830    28.6400    51.5820     6.5020     5.4710     6.1230     2.4780    -3.7740 
  210.5000   194.1620    57.5500    28.6750    51.5820     6.3090     5.3120     5.9030     2.4540    -3.5810 
  210.6250   194.2620    57.6180    28.7100    51.5820     6.1840     5.2040     5.9940     2.4330    -3.4070 
  210.7500   194.3610    57.6850    28.7450    51.5820     6.1180     5.1430     6.1030     2.4200    -3.2380 
  210.8750   194.4600    57.7520    28.7800    51.5820     6.0940     5.1150     6.3010     2.4140    -3.1740 
  211.0000   194.5590    57.8200    28.8150    51.5820     6.0910     5.1020     6.6040     2.4100    -3.1770 
  211.1250   194.6590    57.8870    28.8500    51.5820     6.0910     5.0930     7.1260     2.4070    -3.2450 
  211.2500   194.7580    57.9540    28.8850    51.5820     6.0890     5.0840     7.4160     2.4060    -3.3170 
  211.3750   194.8570    58.0220    28.9200    51.5820     6.0860     5.0770     7.0040     2.4100    -3.3770 
  211.5000   194.9570    58.0890    28.9550    51.5820     6.0840     5.0720     6.2080     2.4170    -3.3960 
  211.6250   195.0560    58.1560    28.9900    51.5820     6.0840     5.0690     5.7710     2.4220    -3.3810 
  211.7500   195.1550    58.2240    29.0250    51.5820     6.0840     5.0690     5.6520     2.4210    -3.3700 
  211.8750   195.2550    58.2910    29.0590    51.5820     6.0840     5.0690     5.6630     2.4110    -3.3000 
  212.0000   195.3540    58.3580    29.0940    51.5820     6.0840     5.0690     5.9030     2.3900    -3.1940 
  212.1250   195.4530    58.4260    29.1290    51.5820     6.0840     5.0690     6.4230     2.3590    -3.0430 
  212.2500   195.5520    58.4930    29.1640    51.5820     6.0840     5.0690     7.2350     2.3210    -2.8510 
  212.3750   195.6520    58.5600    29.1990    51.5820     6.0840     5.0690     8.2480     2.2840    -2.6600 
  212.5000   195.7510    58.6280    29.2340    51.5820     6.0840     5.0690     8.7300     2.2570    -2.5180 
  212.6250   195.8500    58.6950    29.2690    51.5820     6.0840     5.0690     8.0790     2.2480    -2.4010 
  212.7500   195.9500    58.7620    29.3040    51.5820     6.0840     5.0690     6.8140     2.2520    -2.2010 
  212.8750   196.0490    58.8300    29.3390    51.5820     6.0840     5.0690     6.2380     2.2620    -1.9950 
  213.0000   196.1480    58.8970    29.3740    51.5820     6.0840     5.0690     6.2020     2.2710    -1.8230 
  213.1250   196.2480    58.9640    29.4090    51.5820     6.0840     5.0690     6.4410     2.2740    -1.6560 
  213.2500   196.3470    59.0320    29.4440    51.5820     6.0840     5.0690     6.7110     2.2700    -1.5460 
  213.3750   196.4460    59.0990    29.4790    51.5820     6.0840     5.0690     6.8980     2.2600    -1.4690 
  213.5000   196.5450    59.1660    29.5140    51.5820     6.0840     5.0690     6.7360     2.2410    -1.3570 
  213.6250   196.6450    59.2340    29.5490    51.5820     6.0840     5.0690     6.2970     2.2200    -1.2630 
