~V
VERS. 2.00: Ver 2.00
~W
STRT.M 11.0000:
STOP.M 231.0000:
STEP.M 0.1250:
NULL. -999.2500:
UWI. FD10589:
~C
DEPT.M :
TVD. :
DX. :
DY. :
GR.API :
RML.OHMM :
RI. :
RXO.OHMM :
DEN.GM/CC :
SP.MV :
R2M. :
R025. :
~A
# ...
  178.7500   164.1710    20.0980   -52.9330    83.2370     9.2570     9.1330     7.7170     2.4360   -24.9670    15.0780     8.0270 
  178.8750   164.2700    20.1170   -53.0070    88.0940     9.1810     8.9280     7.8750     2.4160   -25.1120    14.6750     8.0630 
  179.0000   164.3690    20.1360   -53.0810    95.5850     9.1490     8.7410     8.2340     2.4020   -25.2100    14.2490     8.0850 
  179.1250   164.4680    20.1540   -53.1550   105.2580     9.1750     8.5980     8.5120     2.3980   -25.3000    13.8030     8.0950 
  179.2500   164.5670    20.1730   -53.2290   111.4530     9.2600     8.5200     8.9380     2.4070   -25.4160    13.3050     8.1170 
  179.3750   164.6660    20.1910   -53.3030   111.3660     9.3680     8.4890     9.1240     2.4210   -25.5470    12.7520     8.1260 
  179.5000   164.7650    20.2100   -53.3760   108.5010     9.4790     8.4860     8.8570     2.4340   -25.6820    12.1690     8.1490 
  179.6250   164.8650    20.2290   -53.4500   107.0920     9.5760     8.4880     8.2790     2.4410   -25.8120    11.5750     8.2200 
  179.7500   164.9640    20.2470   -53.5240   107.2250     9.6490     8.4810     7.6920     2.4370   -25.9720    11.0130     8.2760 
  179.8750   165.0630    20.2660   -53.5980   106.1650     9.7010     8.4620     7.5440     2.4240   -26.1920    10.5270     8.2970 
  180.0000   165.1620    20.2840   -53.6720   105.1290     9.7290     8.4320     7.6940     2.4100   -26.4770    10.1300     8.3280 
  180.1250   165.2600    20.3030   -53.7470   106.7340     9.7320     8.3870     8.0340     2.3990   -26.7810     9.8090     8.3510 
  180.2500   165.3580    20.3220   -53.8220   109.1430     9.7010     8.3160     8.1910     2.3980   -27.0540     9.5560     8.3770 
  180.3750   165.4570    20.3400   -53.8970   109.1480     9.6550     8.2260     8.0250     2.4030   -27.2840     9.3270     8.4720 
  180.5000   165.5550    20.3590   -53.9720   108.3460     9.6420     8.1480     7.6920     2.4060   -27.5000     9.1110     8.5940 
  180.6250   165.6530    20.3770   -54.0470   108.9800     9.7390     8.1490     7.2840     2.4040   -27.7380     8.9500     8.7330 
  180.7500   165.7510    20.3960   -54.1220   111.4980    10.0980     8.3520     6.9990     2.3980   -27.9860     8.8900     9.0530 
  180.8750   165.8500    20.4150   -54.1960   112.5660    10.7920     8.8220     7.0990     2.3920   -28.2220     8.9230     9.5550 
  181.0000   165.9480    20.4330   -54.2710   110.6280    11.8990     9.6320     7.7410     2.3870   -28.4450     9.0680    10.1680 
  181.1250   166.0460    20.4520   -54.3460   105.7510    13.4650    10.8350     9.2410     2.3810   -28.6760     9.3280    10.9450 
  181.2500   166.1450    20.4700   -54.4210    97.7030    15.5680    12.5320    17.3950     2.3720   -28.9570     9.7170    12.1430 
  181.3750   166.2430    20.4890   -54.4960    87.8750    18.0800    14.6330    19.9970     2.3590   -29.2890    10.2290    13.7780 
  181.5000   166.3410    20.5080   -54.5710    78.1540    20.9130    17.0760    18.8800     2.3430   -29.6720    10.8580    15.7610 
  181.6250   166.4390    20.5260   -54.6460    72.0530    23.9530    19.7560    17.9750     2.3280   -30.0490    11.5630    17.9110 
  181.7500   166.5380    20.5450   -54.7210    70.4490    27.1100    22.5780    19.2130     2.3150   -30.3930    12.3220    20.1020 
  181.8750   166.6360    20.5630   -54.7960    70.0710    30.2740    25.4350    21.9850     2.3040   -30.7010    13.1060    22.2460 
  182.0000   166.7340    20.5820   -54.8710    69.6420    33.3240    28.2300    25.0390     2.2990   -30.9540    13.8640    24.2610 
  182.1250   166.8320    20.6000   -54.9460    68.5450    36.0950    30.8280    27.2500     2.3030   -31.1760    14.5610    26.1470 
  182.2500   166.9310    20.6190   -55.0210    66.8560    38.3690    33.0290    26.9570     2.3210   -31.3990    15.2010    27.9470 
  182.3750   167.0290    20.6380   -55.0960    64.9450    40.1740    34.8190    25.1940     2.3430   -31.6240    15.8290    29.5500 
  182.5000   167.1270    20.6560   -55.1710    63.3580    41.5650    36.1990    23.7330     2.3560   -31.8090    16.5090    30.8190 
  182.6250   167.2260    20.6750   -55.2460    62.5260    42.6430    37.2200    24.1970     2.3510   -31.9620    17.2940    31.8240 
  182.7500   167.3240    20.6930   -55.3210    61.7540    43.4260    37.9160    23.9880     2.3260   -32.1070    18.1610    32.5920 
  182.8750   167.4220    20.7120   -55.3960    61.3170    43.9210    38.3760    23.4870     2.2980   -32.2760    19.0460    33.2210 
  183.0000   167.5200    20.7310   -55.4710    60.3060    44.0790    38.6240    24.7650     2.2760   -32.4910    19.9520    33.8450 
  183.1250   167.6190    20.7490   -55.5460    58.4470    43.9260    38.7140    27.1630     2.2690   -32.6880    20.9330    34.4390 
  183.2500   167.7170    20.7680   -55.6210    58.2040    43.6460    38.7870    29.0420     2.2770   -32.8410    22.1830    34.7730 
  183.3750   167.8150    20.7860   -55.6950    60.1550    43.6690    39.1130    28.1240     2.2910   -32.9520    23.8270    34.9790 
  183.5000   167.9130    20.8050   -55.7700    63.4030    44.4160    39.9950    25.1340     2.3040   -32.9860    25.8920    35.2560 
  183.6250   168.0120    20.8240   -55.8450    64.7660    46.1230    41.6320    22.6300     2.3150   -32.9730    28.3540    35.6230 
  183.7500   168.1100    20.8420   -55.9200    63.2110    48.7240    44.0360    22.5410     2.3230   -32.9470    31.2740    36.0810 
  183.8750   168.2080    20.8610   -55.9950    60.6460    51.4170    46.6320    24.5660     2.3300   -32.9150    34.5950    36.6210 
  184.0000   168.3070    20.8790   -56.0700    59.9110    53.4060    48.7950    28.0360     2.3300   -32.8730    38.3860    37.1170 
  184.1250   168.4050    20.8980   -56.1450    62.1250    54.1110    49.9880    32.2230     2.3230   -32.8250    42.6950    37.4530 
  184.2500   168.5030    20.9160   -56.2200    63.6330    53.3170    49.8710    33.2700     2.3090   -32.7670    47.3130    37.5660 
  184.3750   168.6010    20.9350   -56.2950    64.2610    51.7190    48.8930    30.0480     2.2950   -32.7150    51.6970    37.4630 
  184.5000   168.7000    20.9540   -56.3700    65.2920    49.7690    41.3070    26.0770     2.2850   -32.7220    55.5030    37.1670 
  184.6250   168.7980    20.9720   -56.4450    66.6730    47.8090    37.7690    23.7280     2.2760   -32.7450    58.5610    36.7390 
  184.7500   168.8960    20.9910   -56.5200    68.1050    46.0980    36.3550    23.4090     2.2690   -32.7490    60.8220    36.1530 
  184.8750   168.9940    21.0090   -56.5950    69.7350    44.6110    35.0950    24.5180     2.2630   -32.7320    62.6360    35.5160 
  185.0000   169.0930    21.0280   -56.6700    71.2840    43.2670    33.9960    25.5250     2.2610   -32.6740    64.0170    35.0070 
  185.1250   169.1910    21.0470   -56.7450    71.8860    42.0630    33.0840    25.3550     2.2620   -32.6150    64.8390    34.6800 
  185.2500   169.2890    21.0650   -56.8200    70.8800    41.2360    32.5350    23.8600     2.2660   -32.5740    65.1630    34.5200 
  185.3750   169.3880    21.0840   -56.8950    69.4920    41.0960    32.5160    22.0600     2.2700   -32.5350    65.3840    34.5350 
  185.5000   169.4860    21.1020   -56.9700    68.4720    42.0500    33.2860    20.1560     2.2730   -32.5520    65.6430    34.7150 
  185.6250   169.5840    21.1210   -57.0450    68.9350    44.4070    35.0860    19.3920     2.2720   -32.6450    65.8980    35.0830 
  185.7500   169.6820    21.1400   -57.1190    69.6130    48.3200    38.1180    21.9650     2.2620   -32.7820    65.8880    35.8660 
  185.8750   169.7810    21.1580   -57.1940    67.8130    52.9070    41.8130    29.8520     2.2500   -32.9370    65.5900    37.1110 
  186.0000   169.8790    21.1770   -57.2690    65.2580    57.1420    45.4670    42.0020     2.2420   -33.1340    65.4680    38.6950 
  186.1250   169.9770    21.1950   -57.3440    64.6140    59.9380    48.2590    48.8360     2.2420   -33.3510    66.1910    40.3270 
  186.2500   170.0750    21.2140   -57.4190    66.1800    60.5800    49.5100    37.7520     2.2460   -33.5770    68.2140    41.5310 
