~V
VERS. 2.00: Ver 2.00
~W
STRT.M 20.0000:
STOP.M 217.0000:
STEP.M 0.1250:
NULL. -999.2500:
UWI. FD10571:
~C
DEPT.M :
TVD. :
DX. :
DY. :
DEN.GM/CC :
GR.API :
RML.OHMM :
RI. :
RXO.OHMM :
SP.MV :
~A
# ...
   93.0000    91.8690    -9.4410    -3.9440     2.2490    78.3490    16.6060    14.2650    12.9010   -11.1250 
   93.1250    91.9840    -9.4830    -3.9650     2.2180    71.6690    18.5460    15.6610    15.2530   -11.0310 
   93.2500    92.1000    -9.5260    -3.9860     2.1840    68.7310    21.1890    17.7350    19.5020   -10.7340 
   93.3750    92.2150    -9.5680    -4.0070     2.1580    69.0530    24.0700    20.2720    22.7350   -10.2550 
   93.5000    92.3310    -9.6110    -4.0280     2.1490    69.9000    26.3040    22.5680    23.3940    -9.7090 
   93.6250    92.4460    -9.6530    -4.0480     2.1630    70.0720    26.5010    23.1450    22.5060    -9.2140 
   93.7500    92.5620    -9.6960    -4.0690     2.1910    70.4290    24.5610    21.6050    22.3230    -8.8650 
   93.8750    92.6770    -9.7380    -4.0900     2.2260    71.3290    21.1190    18.5890    19.0620    -8.6550 
   94.0000    92.7930    -9.7800    -4.1110     2.2560    73.9330    17.3280    15.3060    13.6900    -8.5060 
   94.1250    92.9080    -9.8230    -4.1320     2.2710    77.9350    14.4420    12.8450    10.1140    -8.5020 
   94.2500    93.0240    -9.8650    -4.1530     2.2710    80.7700    12.8350    11.4050     9.1440    -8.6800 
   94.3750    93.1390    -9.9080    -4.1730     2.2580    79.5890    12.5390    10.9740     9.0840    -8.9380 
   94.5000    93.2550    -9.9500    -4.1940     2.2350    74.3470    13.4570    11.5130     9.3950    -9.1180 
   94.6250    93.3700    -9.9930    -4.2150     2.2080    68.7470    15.5620    13.1170    11.4340    -9.0950 
   94.7500    93.4860   -10.0350    -4.2360     2.1840    66.3400    18.2750    15.4160    14.3430    -8.8050 
   94.8750    93.6020   -10.0780    -4.2570     2.1650    66.7580    20.9930    17.9410    16.6080    -8.2590 
   95.0000    93.7170   -10.1200    -4.2780     2.1550    66.3930    23.0350    20.0180    16.4920    -7.6230 
   95.1250    93.8330   -10.1620    -4.2990     2.1570    64.2210    23.7670    20.8960    14.8220    -7.0070 
   95.2500    93.9480   -10.2050    -4.3190     2.1650    63.0990    23.5270    20.7720    13.1660    -6.4380 
   95.3750    94.0640   -10.2470    -4.3400     2.1740    62.4850    22.8470    20.1150    12.5990    -5.9330 
   95.5000    94.1790   -10.2900    -4.3610     2.1780    60.7960    22.3080    19.4540    13.6820    -5.5520 
   95.6250    94.2950   -10.3320    -4.3820     2.1840    59.7190    22.5140    19.3030    15.3910    -5.3540 
   95.7500    94.4100   -10.3750    -4.4030     2.2070    61.3280    23.7330    19.9150    16.4890    -5.2740 
   95.8750    94.5260   -10.4170    -4.4240     2.2620    61.8230    26.3470    21.6080    16.9000    -5.3810 
   96.0000    94.6410   -10.4600    -4.4440     2.3580    58.5410    30.8880    24.8560    17.6250    -5.6370 
   96.1250    94.7570   -10.5020    -4.4650     2.4870    55.1870    38.6230    30.8330    23.3570    -5.9290 
   96.2500    94.8720   -10.5440    -4.4860     2.6170    53.5220    49.7140    39.9340    36.6420    -6.2170 
   96.3750    94.9880   -10.5870    -4.5070     2.7200    52.0070    63.1650    52.1030    54.7570    -6.5640 
   96.5000    95.1030   -10.6290    -4.5280     2.7710    50.6930    74.9270    64.9670    69.7390    -7.0180 
   96.6250    95.2190   -10.6720    -4.5490     2.7510    52.2250    76.7910    70.3820    71.9070    -7.5610 
   96.7500    95.3340   -10.7140    -4.5690     2.6770    54.6980    67.3990    63.4480    65.6020    -8.1930 
   96.8750    95.4500   -10.7570    -4.5900     2.5710    57.3170    50.9580    47.7980    56.4710    -8.8350 
   97.0000    95.5650   -10.7990    -4.6110     2.4610    63.9180    34.3040    31.7240    36.6350    -9.4170 
   97.1250    95.6810   -10.8420    -4.6320     2.3780    76.2070    22.7710    20.9220    18.3240    -9.9050 
   97.2500    95.7960   -10.8840    -4.6530     2.3320    86.8070    15.7860    14.5400    10.0300   -10.4070 
   97.3750    95.9120   -10.9260    -4.6740     2.3190    91.0320    11.9760    11.1090     8.4040   -10.9080 
   97.5000    96.0270   -10.9690    -4.6940     2.3260    89.7270    10.1400     9.3900     8.4970   -11.2960 
   97.6250    96.1430   -11.0110    -4.7150     2.3370    89.1080     9.5370     8.7360     8.4570   -11.5560 
   97.7500    96.2580   -11.0540    -4.7360     2.3440    91.3630     9.3850     8.5520     8.0590   -11.7160 
   97.8750    96.3740   -11.0960    -4.7570     2.3470    94.3870     9.3450     8.5400     7.5140   -11.7860 
   98.0000    96.4890   -11.1390    -4.7780     2.3500    94.4730     9.2400     8.4860     7.2240   -11.8440 
   98.1250    96.6050   -11.1810    -4.7990     2.3570    90.3710     9.0210     8.2900     7.0450   -11.9780 
   98.2500    96.7200   -11.2240    -4.8190     2.3670    87.9030     8.7490     8.0140     6.5870   -12.0790 
   98.3750    96.8360   -11.2660    -4.8400     2.3790    92.1280     8.4550     7.7120     6.1770   -12.1060 
   98.5000    96.9510   -11.3080    -4.8610     2.3880   100.8700     8.1440     7.4200     6.2800   -12.1080 
   98.6250    97.0670   -11.3510    -4.8820     2.3890   107.0480     7.8090     7.1510     6.4940   -12.1170 
   98.7500    97.1820   -11.3930    -4.9030     2.3800   107.6310     7.4650     6.8850     6.5400   -12.1260 
   98.8750    97.2980   -11.4360    -4.9240     2.3640   105.4520     7.1510     6.6260     6.2880   -12.1240 
   99.0000    97.4130   -11.4780    -4.9450     2.3520   103.3540     6.9450     6.4160     6.0530   -12.0650 
   99.1250    97.5290   -11.5210    -4.9650     2.3660   100.9520     6.9910     6.3800     5.8930   -11.9490 
   99.2500    97.6440   -11.5630    -4.9860     2.4080    99.4400     7.3380     6.5790     5.8230   -11.8440 
   99.3750    97.7600   -11.6060    -5.0070     2.4630    97.5310     7.9820     7.0240     6.3270   -11.7820 
   99.5000    97.8750   -11.6480    -5.0280     2.5040    93.4410     8.8060     7.6410     8.3720   -11.7880 
   99.6250    97.9910   -11.6900    -5.0490     2.4990    88.7020     9.5410     8.2160    11.8330   -11.8390 
   99.7500    98.1060   -11.7330    -5.0700     2.4570    87.6900     9.9310     8.4960    11.5770   -11.9440 
   99.8750    98.2220   -11.7750    -5.0900     2.3980    92.0220     9.8890     8.3820     8.3920   -12.0970 
  100.0000    98.3370   -11.8180    -5.1110     2.3490    98.0190     9.5090     7.9640     6.5610   -12.2570 
  100.1250    98.4530   -11.8600    -5.1320     2.3280    99.8150     9.0250     7.4590     6.6330   -12.3750 
  100.2500    98.5680   -11.9030    -5.1530     2.3270    97.6780     8.6750     7.0810     6.8700   -12.4070 
  100.3750    98.6840   -11.9450    -5.1740     2.3360    95.6440     8.5370     6.9150     6.7820   -12.4070 
  100.5000    98.7990   -11.9880    -5.1950     2.3440    96.7340     8.5900     6.9560     6.7630   -12.3640 
  100.6250    98.9150   -12.0300    -5.2150     2.3440    96.9820     8.7920     7.1350     7.1260   -12.2340 
  100.7500    99.0300   -12.0720    -5.2360     2.3380    93.9670     9.1120     7.3690     7.9440   -12.0720 
  100.8750    99.1460   -12.1150    -5.2570     2.3240    91.1430     9.6110     7.6880     8.8200   -11.8840 
  101.0000    99.2610   -12.1570    -5.2780     2.3010    90.1410    10.3940     8.1850     8.4550   -11.6670 
  101.1250    99.3770   -12.2000    -5.2990     2.2690    88.9180    11.6400     9.0420     8.8500   -11.3960 
  101.2500    99.4920   -12.2420    -5.3200     2.2380    85.9680    13.3340    10.3040    11.4760   -11.1650 
  101.3750    99.6080   -12.2850    -5.3400     2.2110    82.4860    15.4230    11.9780    18.3210   -10.9280 
  101.5000    99.7230   -12.3270    -5.3610     2.1910    81.0210    17.7740    13.9760    23.9080   -10.6340 
  101.6250    99.8390   -12.3700    -5.3820     2.1790    81.8080    20.2150    16.1720    22.5520   -10.3640 
  101.7500    99.9540   -12.4120    -5.4030     2.1840    81.0960    22.5020    18.3990    19.6320   -10.1890 
  101.8750   100.0700   -12.4540    -5.4240     2.2200    77.4920    24.2670    20.4050    20.1480   -10.1110 
  102.0000   100.1850   -12.4970    -5.4450     2.2860    74.3060    24.9500    21.6520    22.7350   -10.0930 
