~V
VERS. 2.00: Ver 2.00
~W
STRT.M 20.0000:
STOP.M 217.0000:
STEP.M 0.1250:
NULL. -999.2500:
UWI. FD10571:
~C
DEPT.M :
TVD. :
DX. :
DY. :
DEN.GM/CC :
GR.API :
RML.OHMM :
RI. :
RXO.OHMM :
SP.MV :
~A
# ...
   47.3750    47.3150    -1.2730    -0.8240     2.1750    73.8900    10.1440     8.7160     8.4910   -17.0390 
   47.5000    47.4400    -1.2810    -0.8290     2.1570    71.6560    10.2330     8.6960     8.4340   -17.0410 
   47.6250    47.5640    -1.2890    -0.8340     2.1280    70.6320    10.4750     8.8130     8.5810   -16.9560 
   47.7500    47.6890    -1.2960    -0.8390     2.1070    71.3990    10.7530     8.9770     8.9050   -16.8490 
   47.8750    47.8140    -1.3040    -0.8430     2.1020    72.4180    10.9790     9.1050     9.5030   -16.7260 
   48.0000    47.9380    -1.3120    -0.8480     2.1140    76.0860    11.0960     9.1350     9.8180   -16.5500 
   48.1250    48.0630    -1.3200    -0.8530     2.1360    82.6910    11.0910     9.0430     8.9220   -16.3500 
   48.2500    48.1870    -1.3280    -0.8580     2.1560    87.6420    11.0510     8.9080     8.6050   -16.1940 
   48.3750    48.3120    -1.3360    -0.8620     2.1730    87.8910    11.0660     8.8180     8.8940   -16.0910 
   48.5000    48.4370    -1.3440    -0.8670     2.1820    84.2000    11.2120     8.8450     9.5600   -16.0230 
   48.6250    48.5610    -1.3510    -0.8720     2.1780    79.8380    11.5490     9.0470    10.1570   -15.9390 
   48.7500    48.6860    -1.3590    -0.8770     2.1630    74.7910    12.0190     9.3720    10.3190   -15.7990 
   48.8750    48.8100    -1.3670    -0.8810     2.1410    71.3100    12.5450     9.7490    10.4240   -15.6690 
   49.0000    48.9350    -1.3750    -0.8860     2.1220    71.9880    13.0300    10.0960    10.5650   -15.6030 
   49.1250    49.0590    -1.3830    -0.8910     2.1170    76.6500    13.3510    10.3350    10.4740   -15.5760 
   49.2500    49.1840    -1.3910    -0.8960     2.1240    80.4130    13.4790    10.4720    10.2600   -15.5460 
   49.3750    49.3090    -1.3990    -0.9010     2.1400    81.9560    13.4250    10.5390    10.2920   -15.5050 
   49.5000    49.4330    -1.4070    -0.9050     2.1580    83.6910    13.2540    10.5920    10.4600   -15.4680 
   49.6250    49.5580    -1.4140    -0.9100     2.1720    84.6430    13.0820    10.7060    10.7680   -15.4780 
   49.7500    49.6820    -1.4220    -0.9150     2.1820    80.4020    13.0360    10.9260    11.3530   -15.5390 
   49.8750    49.8070    -1.4300    -0.9200     2.1840    72.7500    13.1950    11.2760    12.0880   -15.5990 
   50.0000    49.9310    -1.4380    -0.9240     2.1770    67.7600    13.5640    11.7690    12.7220   -15.6320 
   50.1250    50.0560    -1.4460    -0.9290     2.1630    70.0030    14.0230    12.3470    12.7410   -15.6720 
   50.2500    50.1810    -1.4540    -0.9340     2.1480    73.2090    14.2920    12.8040    12.6350   -15.7420 
   50.3750    50.3050    -1.4620    -0.9390     2.1430    73.5090    14.1120    12.8920    13.0090   -15.8490 
   50.5000    50.4300    -1.4690    -0.9430     2.1530    72.7640    13.3480    12.4180    13.3000   -16.0800 
   50.6250    50.5540    -1.4770    -0.9480     2.1770    75.6160    12.0450    11.3440    11.8700   -16.5640 
   50.7500    50.6790    -1.4850    -0.9530     2.2010    82.4330    10.6260    10.0770     9.4240   -17.2190 
   50.8750    50.8030    -1.4930    -0.9580     2.2160    91.5730     9.4230     8.9350     7.9270   -18.0180 
   51.0000    50.9280    -1.5010    -0.9620     2.2230   100.5020     8.6590     8.1280     7.1590   -18.9130 
   51.1250    51.0530    -1.5090    -0.9670     2.2320   104.8060     8.4930     7.8240     7.2300   -19.8140 
   51.2500    51.1770    -1.5170    -0.9720     2.2560   104.1040     8.7740     7.9410     8.0450   -20.6610 
   51.3750    51.3020    -1.5240    -0.9770     2.2920   100.1600     9.3810     8.4020     8.9220   -21.4060 
   51.5000    51.4260    -1.5320    -0.9820     2.3220    95.4860    10.1790     9.0830     9.0800   -21.9810 
   51.6250    51.5510    -1.5400    -0.9860     2.3210    91.5510    11.0140     9.8220    10.4460   -22.2780 
   51.7500    51.6760    -1.5480    -0.9910     2.2870    89.4300    11.7220    10.4380    10.9880   -22.3980 
   51.8750    51.8000    -1.5560    -0.9960     2.2360    87.7970    12.2100    10.8330    10.6840   -22.3620 
   52.0000    51.9250    -1.5640    -1.0010     2.1900    84.3140    12.4710    11.0070    10.9770   -22.2160 
   52.1250    52.0490    -1.5720    -1.0050     2.1710    79.7690    12.6420    11.0740    11.2410   -21.9850 
   52.2500    52.1740    -1.5800    -1.0100     2.1750    77.8070    13.0020    11.2570    11.0160   -21.6360 
   52.3750    52.2980    -1.5870    -1.0150     2.1880    78.0680    13.8090    11.7610    10.6570   -21.1540 
   52.5000    52.4230    -1.5950    -1.0200     2.1950    76.6230    15.2490    12.7640    11.6070   -20.5220 
   52.6250    52.5480    -1.6030    -1.0240     2.1850    71.2190    17.4450    14.4600    14.7730   -19.6940 
   52.7500    52.6720    -1.6110    -1.0290     2.1630    64.7510    20.0310    16.6480    18.9260   -18.7100 
   52.8750    52.7970    -1.6190    -1.0340     2.1380    61.0670    22.5470    18.9830    22.3720   -17.6250 
   53.0000    52.9210    -1.6270    -1.0390     2.1180    60.4550    24.4610    20.9190    23.3680   -16.5360 
   53.1250    53.0460    -1.6350    -1.0430     2.1080    61.3150    25.2570    21.8220    22.1980   -15.5210 
   53.2500    53.1700    -1.6420    -1.0480     2.1070    60.6950    25.2030    21.8800    20.8060   -14.6310 
   53.3750    53.2950    -1.6500    -1.0530     2.1100    59.1630    24.6870    21.5080    19.9530   -13.8960 
   53.5000    53.4200    -1.6580    -1.0580     2.1140    59.6440    24.0870    21.0920    20.2010   -13.3320 
   53.6250    53.5440    -1.6660    -1.0620     2.1160    62.3050    23.5890    20.8010    20.5970   -13.0330 
   53.7500    53.6690    -1.6740    -1.0670     2.1130    62.6020    23.0830    20.4880    20.8380   -12.9800 
   53.8750    53.7930    -1.6820    -1.0720     2.1050    59.3050    22.3710    19.9250    20.7160   -13.1720 
   54.0000    53.9180    -1.6900    -1.0770     2.0980    57.7620    21.2810    18.9400    20.0440   -13.5100 
   54.1250    54.0430    -1.6980    -1.0820     2.0990    62.7110    19.7320    17.4870    17.5460   -13.9280 
   54.2500    54.1670    -1.7050    -1.0860     2.1120    70.1420    17.9810    15.8700    14.2780   -14.4040 
   54.3750    54.2920    -1.7130    -1.0910     2.1350    76.1850    16.3010    14.3570    11.9820   -14.9430 
   54.5000    54.4160    -1.7210    -1.0960     2.1620    78.8640    14.9440    13.1400    11.2120   -15.5030 
   54.6250    54.5410    -1.7290    -1.1010     2.1840    78.2880    14.1380    12.3620    10.9720   -16.0550 
   54.7500    54.6650    -1.7370    -1.1050     2.1940    76.5410    13.7720    11.9300    11.2450   -16.5820 
   54.8750    54.7900    -1.7450    -1.1100     2.1920    76.1790    13.6930    11.7630    11.4570   -17.0070 
   55.0000    54.9150    -1.7530    -1.1150     2.1810    76.5390    13.7020    11.7540    11.3280   -17.3260 
   55.1250    55.0390    -1.7600    -1.1200     2.1610    75.8120    13.6290    11.7950    10.9640   -17.5050 
   55.2500    55.1640    -1.7680    -1.1240     2.1380    74.7180    13.4950    11.8310    10.9750   -17.5320 
   55.3750    55.2880    -1.7760    -1.1290     2.1180    73.4120    13.4940    11.9400    11.5450   -17.4410 
   55.5000    55.4130    -1.7840    -1.1340     2.1220    70.7130    13.9470    12.3160    11.9090   -17.3400 
   55.6250    55.5370    -1.7920    -1.1390     2.1850    67.4470    15.4090    13.4070    11.4600   -17.2810 
   55.7500    55.6620    -1.8000    -1.1430     2.3050    67.0310    17.9350    15.4430    12.6470   -17.3110 
   55.8750    55.7870    -1.8080    -1.1480     2.4550    68.6090    21.1490    18.4230    18.7910   -17.4430 
   56.0000    55.9110    -1.8160    -1.1530     2.5810    68.8590    23.9180    21.6280    34.9100   -17.6100 
   56.1250    56.0360    -1.8230    -1.1580     2.6170    68.0330    24.2190    22.8240    50.2720   -17.8100 
   56.2500    56.1600    -1.8310    -1.1630     2.5690    70.6040    21.7550    20.8910    46.0500   -18.0870 
   56.3750    56.2850    -1.8390    -1.1670     2.4720    78.2200    17.5020    16.8610    26.8600   -18.4290 
