~V
VERS. 2.00: Ver 2.00
~W
STRT.M 20.0000:
STOP.M 217.0000:
STEP.M 0.1250:
NULL. -999.2500:
UWI. FD10571:
~C
DEPT.M :
TVD. :
DX. :
DY. :
DEN.GM/CC :
GR.API :
RML.OHMM :
RI. :
RXO.OHMM :
SP.MV :
~A
# ...
   56.5000    56.4100    -1.8470    -1.1720     2.3760    86.4860    13.1060    12.7010    11.8380   -18.7640 
   56.6250    56.5340    -1.8550    -1.1770     2.3220    91.2030     9.9980     9.7620     8.2180   -18.9970 
   56.7500    56.6590    -1.8630    -1.1820     2.3090    95.2580     8.1730     7.9360     7.4180   -19.0800 
   56.8750    56.7830    -1.8710    -1.1860     2.3170    99.0450     7.2990     6.9480     7.5070   -19.0520 
   57.0000    56.9080    -1.8780    -1.1910     2.3260   100.7600     7.0220     6.5340     7.3020   -18.9840 
   57.1250    57.0320    -1.8860    -1.1960     2.3220    99.7520     7.1100     6.5170     6.9810   -18.9150 
   57.2500    57.1570    -1.8940    -1.2010     2.3060    99.1680     7.3340     6.6620     6.9190   -18.8560 
   57.3750    57.2820    -1.9020    -1.2050     2.2850    99.1360     7.5930     6.8610     7.1670   -18.8190 
   57.5000    57.4060    -1.9100    -1.2100     2.2710    98.9370     7.8190     7.0460     7.1930   -18.8700 
   57.6250    57.5310    -1.9180    -1.2150     2.2690   101.0680     7.9660     7.1760     6.9790   -19.0430 
   57.7500    57.6550    -1.9260    -1.2200     2.2770   103.3040     8.0560     7.2580     6.7320   -19.2230 
   57.8750    57.7800    -1.9330    -1.2240     2.2880   101.9570     8.1280     7.3120     6.7850   -19.3970 
   58.0000    57.9040    -1.9410    -1.2290     2.2970    97.3520     8.2150     7.3640     7.1300   -19.5820 
   58.1250    58.0290    -1.9490    -1.2340     2.2980    94.2000     8.3240     7.4210     7.7250   -19.7830 
   58.2500    58.1540    -1.9570    -1.2390     2.2900    94.1230     8.4230     7.4670     8.1640   -20.0170 
   58.3750    58.2780    -1.9650    -1.2430     2.2730    95.8700     8.4860     7.4890     8.1230   -20.2710 
   58.5000    58.4030    -1.9730    -1.2480     2.2500    97.6250     8.5130     7.4910     7.7060   -20.5010 
   58.6250    58.5270    -1.9810    -1.2530     2.2260    96.2560     8.5510     7.5100     7.4210   -20.7270 
   58.7500    58.6520    -1.9890    -1.2580     2.2070    91.5100     8.6660     7.5860     7.6500   -21.0100 
   58.8750    58.7760    -1.9960    -1.2630     2.1960    85.7670     8.8920     7.7410     8.0420   -21.2660 
   59.0000    58.9010    -2.0040    -1.2670     2.1870    80.7340     9.2160     7.9780     8.4850   -21.4540 
   59.1250    59.0260    -2.0120    -1.2720     2.1750    76.5250     9.5800     8.2730     8.9180   -21.5990 
   59.2500    59.1500    -2.0200    -1.2770     2.1580    74.0310     9.9140     8.5720     9.3990   -21.7610 
   59.3750    59.2750    -2.0280    -1.2820     2.1370    74.0610    10.1930     8.8410     9.4970   -21.9170 
   59.5000    59.3990    -2.0360    -1.2860     2.1200    74.8030    10.4260     9.0700     9.2010   -22.0030 
   59.6250    59.5240    -2.0440    -1.2910     2.1130    74.1610    10.6350     9.2650     9.2640   -22.0040 
   59.7500    59.6490    -2.0510    -1.2960     2.1150    73.0290    10.8400     9.4470     9.5550   -21.9810 
   59.8750    59.7730    -2.0590    -1.3010     2.1200    73.8010    11.0500     9.6260     9.8250   -21.9950 
   60.0000    59.8980    -2.0670    -1.3050     2.1220    76.4980    11.2700     9.8010     9.9720   -22.1160 
   60.1250    60.0190    -2.0940    -1.3140     2.1180    78.1130    11.5100     9.9670    10.0300   -22.3300 
   60.2500    60.1410    -2.1200    -1.3230     2.1130    76.6300    11.7800    10.1290    10.0530   -22.4760 
   60.3750    60.2630    -2.1470    -1.3320     2.1110    73.9050    12.0890    10.2980    10.2240   -22.5630 
   60.5000    60.3840    -2.1730    -1.3410     2.1160    72.2470    12.4430    10.4850    10.4280   -22.6790 
   60.6250    60.5060    -2.2000    -1.3500     2.1260    69.7920    12.8260    10.6970    10.4950   -22.8350 
   60.7500    60.6280    -2.2260    -1.3590     2.1370    66.8350    13.1890    10.9130    10.6380   -22.9640 
   60.8750    60.7490    -2.2530    -1.3680     2.1460    66.7560    13.4760    11.1080    10.8010   -23.0490 
   61.0000    60.8710    -2.2790    -1.3770     2.1530    69.6830    13.6500    11.2500    10.9680   -23.1060 
   61.1250    60.9930    -2.3060    -1.3860     2.1530    72.1150    13.6780    11.3050    10.9270   -23.2200 
   61.2500    61.1140    -2.3320    -1.3950     2.1480    72.1990    13.5990    11.2900    10.5930   -23.4970 
   61.3750    61.2360    -2.3580    -1.4030     2.1410    71.4930    13.4390    11.2280    10.1620   -23.9300 
   61.5000    61.3580    -2.3850    -1.4120     2.1350    71.0230    13.2240    11.1460    10.2040   -24.3230 
   61.6250    61.4790    -2.4110    -1.4210     2.1330    68.5790    12.9990    11.0690    10.7120   -24.3750 
   61.7500    61.6010    -2.4380    -1.4300     2.1340    65.2250    12.8200    11.0030    11.1170   -24.1630 
   61.8750    61.7230    -2.4640    -1.4390     2.1320    63.8170    12.7220    10.9420    11.1940   -23.9410 
   62.0000    61.8440    -2.4910    -1.4480     2.1280    64.9770    12.7030    10.8830    10.9940   -23.8040 
   62.1250    61.9660    -2.5170    -1.4570     2.1230    65.6220    12.7220    10.8300    10.6310   -23.6200 
   62.2500    62.0880    -2.5440    -1.4660     2.1270    64.4870    12.7150    10.7890    10.2880   -23.2840 
   62.3750    62.2090    -2.5700    -1.4750     2.1420    65.0240    12.6550    10.7590    10.1020   -22.7870 
   62.5000    62.3310    -2.5970    -1.4840     2.1650    68.5840    12.5460    10.7280    10.0810   -22.2590 
   62.6250    62.4530    -2.6230    -1.4930     2.1850    72.3080    12.4220    10.6810    10.1520   -21.9490 
   62.7500    62.5740    -2.6500    -1.5010     2.1920    74.4870    12.3320    10.6280    10.3450   -21.8740 
   62.8750    62.6960    -2.6760    -1.5100     2.1840    75.4180    12.3180    10.5950    10.7100   -21.8260 
   63.0000    62.8180    -2.7030    -1.5190     2.1650    75.1610    12.4060    10.6110    11.0670   -21.6250 
   63.1250    62.9390    -2.7290    -1.5280     2.1480    74.5370    12.6100    10.7140    11.3550   -21.2940 
   63.2500    63.0610    -2.7560    -1.5370     2.1410    73.9440    12.8840    10.8930    11.4790   -20.9630 
   63.3750    63.1830    -2.7820    -1.5460     2.1460    72.0440    13.1920    11.1250    11.5250   -20.6590 
   63.5000    63.3040    -2.8090    -1.5550     2.1610    68.0690    13.5010    11.3680    11.6480   -20.4290 
   63.6250    63.4260    -2.8350    -1.5640     2.1790    64.8890    13.7620    11.5700    11.9360   -20.3240 
   63.7500    63.5480    -2.8620    -1.5730     2.1910    66.3250    13.9430    11.7110    12.0940   -20.2760 
   63.8750    63.6690    -2.8880    -1.5820     2.1910    70.0880    14.0330    11.8000    12.0450   -20.2920 
   64.0000    63.7910    -2.9150    -1.5910     2.1770    70.5290    14.0580    11.8710    11.9120   -20.4080 
   64.1250    63.9130    -2.9410    -1.5990     2.1500    65.5640    14.0890    11.9770    11.8530   -20.5930 
   64.2500    64.0340    -2.9680    -1.6080     2.1240    61.6970    14.1880    12.1340    11.7720   -20.7640 
   64.3750    64.1560    -2.9940    -1.6170     2.1100    62.1240    14.3660    12.3270    11.8020   -20.9190 
   64.5000    64.2780    -3.0200    -1.6260     2.1150    64.6120    14.5750    12.5100    11.9730   -21.0340 
   64.6250    64.3990    -3.0470    -1.6350     2.1390    66.6360    14.7120    12.6060    12.3330   -21.0430 
   64.7500    64.5210    -3.0730    -1.6440     2.1660    68.3770    14.7020    12.5800    12.4480   -21.0170 
   64.8750    64.6430    -3.1000    -1.6530     2.1850    69.2880    14.5170    12.4220    12.0460   -20.9850 
   65.0000    64.7640    -3.1260    -1.6620     2.1900    67.9480    14.1700    12.1540    11.4800   -20.9420 
   65.1250    64.8860    -3.1530    -1.6710     2.1780    64.9020    13.7210    11.8160    11.4640   -20.8780 
   65.2500    65.0080    -3.1790    -1.6800     2.1500    62.6150    13.3190    11.5060    11.9190   -20.8030 
   65.3750    65.1290    -3.2060    -1.6890     2.1120    61.9860    13.1580    11.3730    12.4050   -20.7280 
   65.5000    65.2510    -3.2320    -1.6980     2.0810    62.4890    13.5240    11.6320    12.3880   -20.6930 
