~V
VERS. 2.00: Ver 2.00
~W
STRT.M 11.0000:
STOP.M 231.0000:
STEP.M 0.1250:
NULL. -999.2500:
UWI. FD10589:
~C
DEPT.M :
TVD. :
DX. :
DY. :
GR.API :
RML.OHMM :
RI. :
RXO.OHMM :
DEN.GM/CC :
SP.MV :
R2M. :
R025. :
~A
# ...
  110.1250   107.1940     8.3780   -17.1040    59.7050    63.8660    59.6360    34.2290     2.1880   -15.3350    26.4500    37.5990 
  110.2500   107.3070     8.4020   -17.1500    61.6560    48.2550    46.7190    30.9400     2.2000   -15.4740    29.5520    35.7900 
  110.3750   107.4210     8.4260   -17.1950    66.2760    33.2240    33.1300    24.4920     2.2090   -15.5730    32.8630    32.1450 
  110.5000   107.5350     8.4490   -17.2410    75.0220    22.3200    22.7530    16.8290     2.2270   -15.6310    35.8300    27.0450 
  110.6250   107.6490     8.4730   -17.2860    84.6880    15.7800    16.2960    12.5660     2.2580   -15.7000    37.6090    21.7910 
  110.7500   107.7630     8.4970   -17.3310    87.7580    12.7800    13.1320    11.0830     2.2930   -15.7440    36.9810    17.9360 
  110.8750   107.8770     8.5200   -17.3770    85.9620    11.5530    11.6290    10.8800     2.3300   -15.7550    34.1830    15.5050 
  111.0000   107.9900     8.5440   -17.4220    85.6590    11.3270    11.1490    11.5680     2.3660   -15.7610    30.0820    14.0380 
  111.1250   108.1040     8.5680   -17.4680    89.4350    11.4900    11.2040    12.3270     2.3850   -15.8090    25.9790    13.1170 
  111.2500   108.2180     8.5910   -17.5130    94.8290    11.5590    11.3440    12.8840     2.3610   -15.9480    23.1840    12.6160 
  111.3750   108.3320     8.6150   -17.5590    97.5000    11.3870    11.3040    11.9860     2.3120   -16.0490    21.7080    12.3440 
  111.5000   108.4460     8.6390   -17.6040    96.2020    11.0680    11.1020    10.7680     2.2720   -16.1290    20.9970    12.1370 
  111.6250   108.5600     8.6620   -17.6500    91.5410    10.7630    10.8730    10.2070     2.2610   -16.2290    20.3840    11.8850 
  111.7500   108.6730     8.6860   -17.6950    86.2370    10.7130    10.8340    10.3510     2.2920   -16.3480    19.5090    11.6690 
  111.8750   108.7870     8.7100   -17.7410    83.2920    11.1020    11.1510    11.6670     2.3570   -16.4630    18.5410    11.6120 
  112.0000   108.9010     8.7340   -17.7860    83.2970    12.1140    11.9730    13.9230     2.4320   -16.5970    17.8310    11.7500 
  112.1250   109.0150     8.7570   -17.8310    83.6660    13.8210    13.3820    15.1120     2.4890   -16.7100    17.7260    12.1170 
  112.2500   109.1290     8.7810   -17.8770    79.4480    16.1140    15.3610    17.8540     2.5130   -16.7050    18.5060    12.8130 
  112.3750   109.2430     8.8050   -17.9220    71.1640    18.3680    17.4160    23.4500     2.5240   -16.7120    19.9660    13.9050 
  112.5000   109.3560     8.8280   -17.9680    63.8280    19.9530    18.9590    29.9320     2.5180   -16.7610    21.9140    15.3480 
  112.6250   109.4700     8.8520   -18.0130    62.3490    20.4790    19.5450    29.4050     2.4820   -16.7700    24.0500    16.8580 
  112.7500   109.5840     8.8760   -18.0590    65.0470    20.0460    19.1680    20.5040     2.4290   -16.7460    25.8050    18.0220 
  112.8750   109.6980     8.8990   -18.1040    66.6520    19.5170    18.5850    14.3800     2.4020   -16.7200    26.6410    18.7420 
  113.0000   109.8120     8.9230   -18.1500    66.3990    19.4720    18.3130    13.1080     2.4130   -16.6850    26.2230    19.1030 
  113.1250   109.9260     8.9470   -18.1950    66.3630    20.1710    18.6360    15.9910     2.4470   -16.7010    24.6660    19.3860 
  113.2500   110.0390     8.9700   -18.2410    65.3400    21.6000    19.6760    25.7160     2.4660   -16.7860    22.6140    19.9410 
  113.3750   110.1530     8.9940   -18.2860    62.1250    23.2590    21.0770    27.3270     2.4510   -16.8780    20.9160    20.7830 
  113.5000   110.2670     9.0180   -18.3320    59.2980    24.7930    22.5030    24.6860     2.4190   -16.9510    19.8580    21.8460 
  113.6250   110.3810     9.0410   -18.3770    59.8580    26.0530    23.7300    23.5650     2.4030   -17.0360    19.2900    23.0180 
  113.7500   110.4950     9.0650   -18.4220    61.2830    27.1750    24.7910    25.0540     2.4220   -17.1380    18.8500    24.1260 
  113.8750   110.6090     9.0890   -18.4680    60.5070    28.4720    25.9550    25.8220     2.4570   -17.2850    18.3820    25.1900 
  114.0000   110.7220     9.1120   -18.5130    59.3050    30.1140    27.3800    26.1500     2.4930   -17.4700    18.0300    26.2830 
  114.1250   110.8360     9.1360   -18.5590    58.1640    32.1520    29.1140    27.9420     2.5260   -17.6080    18.0020    27.4430 
  114.2500   110.9500     9.1600   -18.6040    56.8720    34.5600    31.1310    33.0430     2.5610   -17.7440    18.5490    28.7280 
  114.3750   111.0640     9.1840   -18.6500    55.1190    37.0590    33.2200    38.6480     2.5870   -17.9160    19.6610    30.1180 
  114.5000   111.1780     9.2070   -18.6950    51.9640    39.3720    35.1800    39.7190     2.5950   -18.0880    21.3440    31.5410 
  114.6250   111.2920     9.2310   -18.7410    49.1920    41.2720    36.8590    36.8380     2.5940   -18.2290    23.5670    32.9270 
  114.7500   111.4050     9.2550   -18.7860    48.8410    42.6130    38.1660    34.2120     2.6050   -18.3600    26.2770    34.1020 
  114.8750   111.5190     9.2780   -18.8320    50.5080    43.5550    39.2160    33.8510     2.6300   -18.4970    29.1860    34.9790 
  115.0000   111.6330     9.3020   -18.8770    50.9310    44.1600    40.0480    36.3740     2.6540   -18.6110    32.1040    35.6670 
  115.1250   111.7470     9.3260   -18.9230    49.1340    44.3780    40.6050    41.8060     2.6560   -18.6860    34.8730    36.2550 
  115.2500   111.8610     9.3490   -18.9680    47.4830    43.9750    40.6450    42.5800     2.6100   -18.7540    37.3420    36.5960 
  115.3750   111.9750     9.3730   -19.0130    47.5770    43.0350    40.1730    38.1230     2.5300   -18.8710    39.5520    36.6880 
  115.5000   112.0880     9.3970   -19.0590    49.4960    41.8270    39.3800    32.8640     2.4450   -19.0020    41.5100    36.5820 
  115.6250   112.2020     9.4200   -19.1040    51.9520    40.7560    38.6080    32.3930     2.3850   -19.1180    43.1870    36.3060 
  115.7500   112.3160     9.4440   -19.1500    53.0580    40.2640    38.2520    32.8230     2.3670   -19.2140    44.5330    35.9380 
  115.8750   112.4300     9.4680   -19.1950    53.6880    40.3440    38.3680    31.4850     2.3730   -19.2640    45.6270    35.6290 
  116.0000   112.5440     9.4910   -19.2410    54.6920    40.7750    38.8210    29.8940     2.3910   -19.3050    46.6230    35.4500 
  116.1250   112.6580     9.5150   -19.2860    54.4950    41.1650    39.3080    30.5120     2.4160   -19.3670    47.8570    35.3490 
  116.2500   112.7710     9.5390   -19.3320    52.0950    41.0560    39.4270    31.6350     2.4240   -19.4050    49.7360    35.1740 
  116.3750   112.8850     9.5630   -19.3770    50.2070    40.4550    39.1170    28.8130     2.3990   -19.3970    52.0960    34.9740 
  116.5000   112.9990     9.5860   -19.4230    51.1250    39.6560    38.5780    26.7210     2.3540   -19.4440    54.5490    34.8960 
  116.6250   113.1130     9.6100   -19.4680    52.2650    39.1250    38.1870    27.7200     2.3240   -19.5430    56.5670    34.8620 
  116.7500   113.2270     9.6340   -19.5140    50.7730    39.4360    38.4660    31.9080     2.3310   -19.6320    57.6450    34.7320 
  116.8750   113.3410     9.6570   -19.5590    48.9150    40.5980    39.5030    33.4910     2.3680   -19.6760    58.1300    34.7300 
  117.0000   113.4540     9.6810   -19.6040    48.8880    42.3510    41.1310    32.7890     2.4230   -19.7020    58.5260    34.9810 
  117.1250   113.5680     9.7050   -19.6500    50.7100    44.1640    42.8880    35.6110     2.4780   -19.7250    59.3910    35.3410 
  117.2500   113.6820     9.7280   -19.6950    52.6730    45.2880    44.0650    41.9390     2.5040   -19.6980    61.2660    35.6570 
  117.3750   113.7960     9.7520   -19.7410    53.7900    45.5010    44.4050    42.0870     2.4850   -19.6540    63.7980    35.9340 
  117.5000   113.9100     9.7760   -19.7860    53.9900    44.9520    44.0120    38.4060     2.4430   -19.5630    66.3770    36.1750 
  117.6250   114.0240     9.7990   -19.8320    54.0400    44.0620    43.2390    36.2550     2.4120   -19.4550    68.3830    36.3290 
