~V
VERS. 2.00: Ver 2.00
~W
STRT.M 20.0000:
STOP.M 217.0000:
STEP.M 0.1250:
NULL. -999.2500:
UWI. FD10571:
~C
DEPT.M :
TVD. :
DX. :
DY. :
DEN.GM/CC :
GR.API :
RML.OHMM :
RI. :
RXO.OHMM :
SP.MV :
~A
# ...
  156.8750   148.4730   -34.4340   -18.6080     2.3900    57.2010    46.5780    41.8320    40.8620    -8.4220 
  157.0000   148.5750   -34.4970   -18.6460     2.3550    60.2250    47.6510    43.4440    40.7050    -8.5910 
  157.1250   148.6760   -34.5590   -18.6850     2.3430    61.4220    47.1200    43.5460    40.4900    -8.7870 
  157.2500   148.7770   -34.6210   -18.7230     2.3490    60.2240    45.4930    42.4290    41.5480    -8.9580 
  157.3750   148.8780   -34.6840   -18.7610     2.3580    59.7200    43.4370    40.5660    38.7860    -9.1770 
  157.5000   148.9800   -34.7460   -18.7990     2.3580    61.3500    41.4750    38.4990    34.2090    -9.4460 
  157.6250   149.0810   -34.8090   -18.8370     2.3510    61.5270    39.8460    36.6860    31.4780    -9.7180 
  157.7500   149.1820   -34.8710   -18.8750     2.3500    59.5850    38.5770    35.3060    30.9240    -9.9830 
  157.8750   149.2830   -34.9330   -18.9140     2.3600    58.1920    37.7800    34.4250    30.9450   -10.2430 
  158.0000   149.3850   -34.9960   -18.9520     2.3790    58.4920    37.4680    34.0200    29.9540   -10.4280 
  158.1250   149.4860   -35.0580   -18.9900     2.3970    59.5560    37.5380    34.0610    30.0700   -10.5560 
  158.2500   149.5870   -35.1210   -19.0280     2.4030    60.3250    37.7980    34.3620    33.7470   -10.7130 
  158.3750   149.6890   -35.1830   -19.0660     2.3930    60.6430    38.1510    34.8200    37.4040   -10.8850 
  158.5000   149.7900   -35.2460   -19.1040     2.3670    59.9510    38.5350    35.3490    34.9310   -11.0190 
  158.6250   149.8910   -35.3080   -19.1430     2.3320    59.1770    38.9030    35.8850    30.4970   -11.1130 
  158.7500   149.9920   -35.3700   -19.1810     2.3010    60.2340    39.2300    36.3770    31.5870   -11.1680 
  158.8750   150.0940   -35.4330   -19.2190     2.2830    62.2930    39.4940    36.7860    36.1400   -11.1650 
  159.0000   150.1950   -35.4950   -19.2570     2.2790    64.8480    39.6940    37.1120    38.9540   -11.1680 
  159.1250   150.2960   -35.5580   -19.2950     2.2870    66.4880    39.8670    37.4010    38.3970   -11.2060 
  159.2500   150.3970   -35.6200   -19.3340     2.2970    65.4890    40.0960    37.7270    36.7500   -11.2110 
  159.3750   150.4990   -35.6820   -19.3720     2.3010    62.3330    40.4360    38.1560    35.4450   -11.2220 
  159.5000   150.6000   -35.7450   -19.4100     2.2960    59.8060    40.8810    38.7100    35.2050   -11.2040 
  159.6250   150.7010   -35.8070   -19.4480     2.2840    59.9270    41.2910    39.2900    36.4860   -11.1250 
  159.7500   150.8020   -35.8700   -19.4860     2.2720    59.6730    41.4730    39.6700    36.7830   -11.0720 
  159.8750   150.9040   -35.9320   -19.5240     2.2690    59.3510    41.2950    39.6620    36.3310   -11.0770 
  160.0000   151.0050   -35.9950   -19.5630     2.2780    61.3460    40.7370    39.2060    37.7260   -11.1470 
  160.1250   151.1060   -36.0570   -19.6010     2.2970    64.1230    39.8770    38.3640    38.4360   -11.2360 
  160.2500   151.2070   -36.1190   -19.6390     2.3110    63.1120    38.9600    37.4160    37.6400   -11.3070 
  160.3750   151.3090   -36.1820   -19.6770     2.3100    58.4810    38.1360    36.5450    36.2960   -11.3250 
  160.5000   151.4100   -36.2440   -19.7150     2.2910    54.7990    37.4720    35.8460    34.5260   -11.3750 
  160.6250   151.5110   -36.3070   -19.7530     2.2590    58.0090    36.9530    35.3160    32.9480   -11.5170 
  160.7500   151.6120   -36.3690   -19.7920     2.2310    65.0820    36.4790    34.8570    29.7480   -11.6450 
  160.8750   151.7140   -36.4310   -19.8300     2.2130    68.8280    36.0200    34.4360    27.8970   -11.7310 
  161.0000   151.8150   -36.4940   -19.8680     2.2090    67.4950    35.6070    34.0790    29.1250   -11.7660 
  161.1250   151.9160   -36.5560   -19.9060     2.2150    67.0940    35.3590    33.8920    31.0110   -11.7820 
  161.2500   152.0180   -36.6190   -19.9440     2.2230    70.3580    35.3450    33.9470    32.2040   -11.8550 
  161.3750   152.1190   -36.6810   -19.9820     2.2270    71.7450    35.5970    34.2820    32.8880   -12.0140 
  161.5000   152.2200   -36.7440   -20.0210     2.2250    69.0440    36.0860    34.8670    32.1350   -12.2150 
  161.6250   152.3210   -36.8060   -20.0590     2.2160    65.8510    36.7480    35.6390    30.7260   -12.4120 
  161.7500   152.4230   -36.8680   -20.0970     2.2090    64.0010    37.4470    36.4550    29.7080   -12.5560 
  161.8750   152.5240   -36.9310   -20.1350     2.2090    62.7460    38.0950    37.2040    30.7150   -12.6310 
  162.0000   152.6250   -36.9930   -20.1730     2.2210    64.0290    38.6080    37.7930    33.9060   -12.6700 
  162.1250   152.7260   -37.0560   -20.2120     2.2400    68.5570    38.8130    38.0710    36.0920   -12.7340 
  162.2500   152.8280   -37.1180   -20.2500     2.2560    70.1430    38.5680    37.9030    36.9980   -12.7840 
  162.3750   152.9290   -37.1800   -20.2880     2.2620    67.0990    37.7130    37.1070    36.5640   -12.7430 
  162.5000   153.0300   -37.2430   -20.3260     2.2560    65.0450    36.2010    35.5950    33.8370   -12.5780 
  162.6250   153.1310   -37.3050   -20.3640     2.2400    68.3360    34.1580    33.4570    29.8700   -12.2700 
  162.7500   153.2330   -37.3680   -20.4020     2.2250    71.3510    32.1060    31.2490    25.2910   -11.9650 
  162.8750   153.3340   -37.4300   -20.4410     2.2170    70.3340    30.5270    29.4800    21.8330   -11.7520 
  163.0000   153.4350   -37.4930   -20.4790     2.2160    69.1800    29.8410    28.5770    21.9570   -11.6240 
  163.1250   153.5360   -37.5550   -20.5170     2.2230    70.3140    30.5320    29.0080    25.0300   -11.5310 
  163.2500   153.6380   -37.6170   -20.5550     2.2310    69.1690    32.4370    30.6660    29.0140   -11.4810 
  163.3750   153.7390   -37.6800   -20.5930     2.2350    64.8760    35.3190    33.4180    34.0240   -11.4850 
  163.5000   153.8400   -37.7420   -20.6310     2.2310    61.9190    38.6740    36.8540    37.4570   -11.5600 
  163.6250   153.9410   -37.8050   -20.6700     2.2130    62.8420    41.6050    40.0920    35.2740   -11.8050 
  163.7500   154.0430   -37.8670   -20.7080     2.1890    63.2060    43.3600    42.2000    31.4290   -12.1040 
  163.8750   154.1440   -37.9290   -20.7460     2.1680    62.4450    43.5660    42.6700    30.8710   -12.3770 
  164.0000   154.2450   -37.9920   -20.7840     2.1620    62.5200    42.3220    41.5420    32.7240   -12.5920 
  164.1250   154.3470   -38.0540   -20.8220     2.1870    63.7280    40.0640    39.2610    32.6290   -12.7150 
  164.2500   154.4480   -38.1170   -20.8600     2.2380    64.6400    37.6410    36.7490    31.6860   -12.7310 
  164.3750   154.5490   -38.1790   -20.8990     2.2990    64.3270    35.5200    34.4950    30.9940   -12.7410 
  164.5000   154.6500   -38.2420   -20.9370     2.3470    62.6890    33.9640    32.7790    28.8870   -12.8620 
  164.6250   154.7520   -38.3040   -20.9750     2.3560    61.0770    33.1660    31.8130    25.2790   -13.0400 
  164.7500   154.8530   -38.3660   -21.0130     2.3300    62.0610    32.9500    31.4500    24.0980   -13.2250 
  164.8750   154.9540   -38.4290   -21.0510     2.2850    65.1960    33.1710    31.5730    25.0830   -13.4210 
  165.0000   155.0550   -38.4910   -21.0900     2.2460    67.7640    33.6500    32.0280    27.2860   -13.5810 
  165.1250   155.1570   -38.5540   -21.1280     2.2320    67.5030    34.2080    32.6530    28.3470   -13.6540 
  165.2500   155.2580   -38.6160   -21.1660     2.2340    65.6660    34.6880    33.2500    30.2920   -13.7660 
  165.3750   155.3590   -38.6780   -21.2040     2.2400    63.9480    35.0160    33.7060    32.2780   -13.9050 
  165.5000   155.4600   -38.7410   -21.2420     2.2370    62.8510    35.1640    33.9660    32.3630   -13.9440 
  165.6250   155.5620   -38.8030   -21.2800     2.2240    63.1770    35.1150    34.0130    30.4690   -13.8820 
  165.7500   155.6630   -38.8660   -21.3190     2.2150    64.1980    34.9380    33.9230    28.6440   -13.7590 
  165.8750   155.7640   -38.9280   -21.3570     2.2210    64.5130    34.6890    33.7370    27.0840   -13.5890 
