~V
VERS. 2.00: Ver 2.00
~W
STRT.M 13.0000:
STOP.M 216.0000:
STEP.M 0.1250:
NULL. -999.2500:
UWI. FD10578:
~C
DEPT.M :
TVD. :
DX. :
DY. :
GR.API :
RML.OHMM :
RI. :
RXO.OHMM :
DEN.GM/CC :
SP.MV :
~A
# ...
   76.8750    76.5370     3.0550     3.3010    75.9520     8.8180     7.4870     6.9530     2.3570    -7.1670 
   77.0000    76.6600     3.0730     3.3120    75.9950     9.9400     8.2820     7.5610     2.4680    -7.1050 
   77.1250    76.7830     3.0910     3.3240    74.7030    11.7890     9.6820    10.6130     2.5640    -7.1120 
   77.2500    76.9060     3.1100     3.3360    72.7010    14.0890    11.5600    15.6730     2.6080    -7.1140 
   77.3750    77.0290     3.1280     3.3480    69.7530    16.4150    13.6290    22.2700     2.5830    -7.0970 
   77.5000    77.1520     3.1460     3.3600    64.9540    18.2100    15.3510    22.5790     2.4990    -7.1140 
   77.6250    77.2750     3.1650     3.3720    60.4080    18.8890    16.0160    15.7750     2.3860    -7.0880 
   77.7500    77.3980     3.1830     3.3840    59.0990    18.7160    15.8160    11.6400     2.2860    -7.0480 
   77.8750    77.5210     3.2010     3.3960    60.9240    18.2180    15.2800    11.0780     2.2130    -7.0480 
   78.0000    77.6440     3.2200     3.4080    62.4370    18.0460    14.9790    12.4520     2.1740    -7.0970 
   78.1250    77.7670     3.2380     3.4190    61.6930    19.0070    15.5140    12.9020     2.1840    -7.1670 
   78.2500    77.8890     3.2560     3.4310    58.9680    21.4440    17.1790    13.1810     2.2410    -7.2640 
   78.3750    78.0120     3.2740     3.4430    54.9750    25.5720    20.3470    14.7840     2.3440    -7.3730 
   78.5000    78.1350     3.2930     3.4550    52.9500    30.9400    25.0940    19.1600     2.4790    -7.4750 
   78.6250    78.2580     3.3110     3.4670    54.1730    35.3410    30.1520    31.1690     2.6110    -7.5760 
   78.7500    78.3810     3.3290     3.4790    55.3790    36.1150    32.2550    44.4300     2.7020    -7.7290 
   78.8750    78.5040     3.3480     3.4910    56.4710    32.3130    29.2970    52.2020     2.7260    -7.8630 
   79.0000    78.6270     3.3660     3.5030    60.4710    25.4530    22.8310    41.4910     2.6790    -8.0460 
   79.1250    78.7500     3.3840     3.5150    68.6180    18.7010    16.6280    21.5210     2.5700    -8.2080 
   79.2500    78.8730     3.4030     3.5260    73.7350    14.0380    12.4230    11.1250     2.4410    -8.3530 
   79.3750    78.9960     3.4210     3.5380    72.7740    11.5990    10.1030     8.5850     2.3180    -8.5510 
   79.5000    79.1190     3.4390     3.5500    67.8280    10.8480     9.1490     8.4910     2.2170    -8.6960 
   79.6250    79.2420     3.4580     3.5620    63.0140    11.2560     9.2330     8.9730     2.1530    -8.9050 
   79.7500    79.3650     3.4760     3.5740    60.3090    12.0370     9.8310    10.0110     2.1340    -9.0480 
   79.8750    79.4880     3.4940     3.5860    59.5320    12.7280    10.5570    10.9630     2.1630    -9.2100 
   80.0000    79.6110     3.5130     3.5980    60.4790    13.0240    11.0350    10.9860     2.2290    -9.3550 
   80.1250    79.7340     3.5310     3.6100    63.0410    12.7890    11.0160    10.7080     2.2950    -9.4700 
   80.2500    79.8570     3.5490     3.6220    64.5950    12.2590    10.6680    11.2750     2.3240    -9.6100 
   80.3750    79.9800     3.5670     3.6330    64.6330    11.6250    10.1590    11.0380     2.3070    -9.6780 
   80.5000    80.1030     3.5860     3.6450    64.4380    11.0280     9.6310     9.7800     2.2620    -9.7770 
   80.6250    80.2260     3.6040     3.6570    64.2740    10.5640     9.1790     8.8340     2.2230    -9.8010 
   80.7500    80.3490     3.6220     3.6690    63.6120    10.2410     8.8170     8.6070     2.2100    -9.8610 
   80.8750    80.4720     3.6410     3.6810    63.5080    10.0610     8.5470     8.7170     2.2180    -9.9200 
   81.0000    80.5950     3.6590     3.6930    64.6810    10.0130     8.3780     8.4980     2.2310    -9.9350 
   81.1250    80.7180     3.6770     3.7050    65.1510    10.0830     8.3200     8.1170     2.2280    -9.9550 
   81.2500    80.8410     3.6960     3.7170    62.4720    10.2010     8.3290     8.3660     2.2040    -9.9660 
   81.3750    80.9640     3.7140     3.7290    58.3630    10.3250     8.3760     9.0190     2.1630    -9.9770 
   81.5000    81.0870     3.7320     3.7410    56.8500    10.4260     8.4350     9.0100     2.1160   -10.0060 
   81.6250    81.2100     3.7510     3.7520    58.0710    10.4970     8.4900     8.7020     2.0800   -10.0410 
   81.7500    81.3330     3.7690     3.7640    58.7090    10.5580     8.5420     8.5540     2.0640   -10.0850 
   81.8750    81.4560     3.7870     3.7760    57.9100    10.6270     8.5970     8.5950     2.0690   -10.1020 
   82.0000    81.5790     3.8050     3.7880    57.4050    10.7220     8.6650     8.7140     2.0890   -10.1200 
   82.1250    81.7020     3.8240     3.8000    59.4340    10.8650     8.7620     8.7030     2.1170   -10.1990 
   82.2500    81.8250     3.8420     3.8120    61.6280    11.0600     8.8940     8.7140     2.1450   -10.2650 
   82.3750    81.9480     3.8600     3.8240    63.2630    11.3090     9.0660     8.9090     2.1700   -10.4100 
   82.5000    82.0710     3.8790     3.8360    65.3740    11.5990     9.2730     9.2760     2.1860   -10.5240 
   82.6250    82.1940     3.8970     3.8480    68.1920    11.8990     9.4910     9.7640     2.1840   -10.7070 
   82.7500    82.3170     3.9150     3.8590    70.6100    12.1630     9.6810    10.2420     2.1630   -10.8850 
   82.8750    82.4400     3.9340     3.8710    71.2100    12.3550     9.8110    10.2820     2.1290   -11.0760 
   83.0000    82.5630     3.9520     3.8830    70.5420    12.4660     9.8700     9.8170     2.0990   -11.3420 
   83.1250    82.6860     3.9700     3.8950    71.1030    12.5040     9.8630     9.5220     2.0980   -11.5220 
   83.2500    82.8090     3.9890     3.9070    73.8620    12.5310     9.8440     9.7120     2.1260   -11.7020 
   83.3750    82.9320     4.0070     3.9190    75.5770    12.6210     9.8670    10.2020     2.1640   -11.7970 
   83.5000    83.0550     4.0250     3.9310    72.6910    12.8730    10.0030    10.5320     2.1890   -11.9130 
   83.6250    83.1780     4.0440     3.9430    66.8550    13.4780    10.3910    10.8810     2.1820   -11.9960 
   83.7500    83.3010     4.0620     3.9550    62.7220    14.5110    11.0820    11.0340     2.1640   -12.0360 
   83.8750    83.4240     4.0800     3.9660    60.9820    16.0270    12.1150    11.2820     2.1570   -12.0760 
   84.0000    83.5470     4.0980     3.9780    59.2350    17.9740    13.5010    11.6540     2.1680   -12.0360 
   84.1250    83.6700     4.1170     3.9900    57.3360    19.9960    15.1660    11.8870     2.1930   -12.0140 
   84.2500    83.7930     4.1350     4.0020    57.1540    21.3300    16.5930    11.7790     2.2250   -11.9750 
   84.3750    83.9160     4.1530     4.0140    58.4670    21.2490    17.0380    11.6050     2.2720   -11.8950 
   84.5000    84.0390     4.1720     4.0260    61.1400    19.4520    15.9800    12.7590     2.3380   -11.7810 
   84.6250    84.1620     4.1900     4.0380    67.3110    16.2680    13.5750    18.2680     2.4090   -11.6230 
   84.7500    84.2850     4.2080     4.0500    77.9690    12.9190    10.9280    19.7340     2.4530   -11.4520 
   84.8750    84.4080     4.2270     4.0620    90.9150    10.1560     8.6820    11.4490     2.4470   -11.2800 
   85.0000    84.5310     4.2450     4.0730   100.1130     8.3010     7.0910     6.9060     2.3950   -11.1400 
   85.1250    84.6540     4.2630     4.0850    99.6620     7.4180     6.2130     6.0800     2.3240   -11.0540 
   85.2500    84.7770     4.2820     4.0970    94.3110     7.0940     5.7930     6.3910     2.2660   -10.9550 
   85.3750    84.9000     4.3000     4.1090    92.1670     7.0620     5.6860     6.2330     2.2360   -10.9620 
   85.5000    85.0230     4.3180     4.1210    95.8370     7.0980     5.7370     5.7740     2.2370   -10.9990 
   85.6250    85.1460     4.3360     4.1330    97.4610     7.0590     5.7940     5.7120     2.2680   -11.1020 
   85.7500    85.2690     4.3550     4.1450    96.1810     6.9690     5.8020     5.7600     2.3110   -11.2980 
   85.8750    85.3920     4.3730     4.1570    96.6980     6.9180     5.8120     5.8150     2.3480   -11.4930 
