~V
VERS. 2.00: Ver 2.00
~W
STRT.M 13.0000:
STOP.M 216.0000:
STEP.M 0.1250:
NULL. -999.2500:
UWI. FD10578:
~C
DEPT.M :
TVD. :
DX. :
DY. :
GR.API :
RML.OHMM :
RI. :
RXO.OHMM :
DEN.GM/CC :
SP.MV :
~A
# ...
  131.6250   128.1090    18.6950    10.6820    52.8510    21.8870    20.1580    14.5610     2.3950    -6.7520 
  131.7500   128.2190    18.7490    10.7030    53.7760    21.3050    19.6040    14.8760     2.4280    -6.6750 
  131.8750   128.3300    18.8020    10.7250    53.8710    21.0420    19.2920    14.9920     2.4660    -6.6180 
  132.0000   128.4410    18.8560    10.7460    54.2140    21.2410    19.3650    15.5040     2.4930    -6.4810 
  132.1250   128.5520    18.9090    10.7680    55.6120    21.9390    19.8820    16.9080     2.4960    -6.3850 
  132.2500   128.6630    18.9630    10.7890    57.7280    22.8430    20.6210    19.0630     2.4810    -6.2840 
  132.3750   128.7730    19.0160    10.8110    59.2650    23.6460    21.3220    20.9020     2.4580    -6.1960 
  132.5000   128.8840    19.0700    10.8320    59.1580    24.0320    21.6810    20.4870     2.4400    -6.1120 
  132.6250   128.9950    19.1230    10.8540    58.3580    23.6730    21.3660    19.8210     2.4330    -6.0530 
  132.7500   129.1060    19.1770    10.8750    58.2280    22.7040    20.4770    18.9290     2.4330    -6.0380 
  132.8750   129.2170    19.2300    10.8970    56.8590    21.3520    19.2250    17.0820     2.4330    -5.9830 
  133.0000   129.3280    19.2840    10.9180    53.0450    19.9310    17.9030    14.7060     2.4340    -5.9890 
  133.1250   129.4380    19.3370    10.9400    50.2700    18.7870    16.8260    13.9560     2.4360    -5.9520 
  133.2500   129.5490    19.3910    10.9610    50.8600    18.0520    16.0980    13.8950     2.4400    -5.9010 
  133.3750   129.6600    19.4440    10.9830    52.6160    17.7620    15.7480    14.0610     2.4430    -5.8570 
  133.5000   129.7710    19.4980    11.0040    53.0950    17.8810    15.7600    14.3300     2.4430    -5.8220 
  133.6250   129.8820    19.5510    11.0260    52.4360    18.3640    16.1170    14.8250     2.4420    -5.8090 
  133.7500   129.9920    19.6050    11.0470    52.6770    19.0100    16.6610    15.5490     2.4470    -5.7250 
  133.8750   130.1030    19.6580    11.0690    53.5260    19.6380    17.2460    15.8480     2.4590    -5.6550 
  134.0000   130.2140    19.7120    11.0900    54.4670    20.0340    17.6740    16.3090     2.4730    -5.5940 
  134.1250   130.3250    19.7660    11.1120    54.4350    19.9100    17.6480    17.3680     2.4800    -5.5340 
  134.2500   130.4360    19.8190    11.1330    54.2180    19.2790    17.1240    17.3180     2.4730    -5.5540 
  134.3750   130.5460    19.8730    11.1550    55.1790    18.2830    16.2210    16.0800     2.4570    -5.5670 
  134.5000   130.6570    19.9260    11.1760    57.2430    17.2050    15.2030    13.5230     2.4370    -5.5850 
  134.6250   130.7680    19.9800    11.1980    58.3300    16.4470    14.4240    12.0470     2.4240    -5.5650 
  134.7500   130.8790    20.0330    11.2190    56.5790    16.2110    14.0660    11.6510     2.4230    -5.6460 
  134.8750   130.9900    20.0870    11.2410    53.0180    16.5450    14.1920    12.2810     2.4350    -5.7470 
  135.0000   131.1000    20.1400    11.2620    50.9690    17.3400    14.7570    14.4420     2.4540    -5.7870 
  135.1250   131.2110    20.1940    11.2840    51.0190    18.3520    15.6120    16.9980     2.4730    -5.8680 
  135.2500   131.3220    20.2470    11.3060    52.7420    19.2370    16.4400    17.9100     2.4840    -5.9320 
  135.3750   131.4330    20.3010    11.3270    55.3470    19.8010    17.0200    17.9030     2.4860    -5.9960 
  135.5000   131.5440    20.3540    11.3490    56.9100    19.9970    17.2600    17.9220     2.4800    -6.0240 
  135.6250   131.6540    20.4080    11.3700    55.8220    19.8900    17.1900    16.5690     2.4690    -6.1230 
  135.7500   131.7650    20.4610    11.3920    53.4990    19.6900    17.0140    15.6840     2.4550    -6.1430 
  135.8750   131.8760    20.5150    11.4130    51.8780    19.5010    16.8340    15.0620     2.4410    -6.1690 
  136.0000   131.9870    20.5680    11.4350    50.1230    19.3560    16.6870    14.7870     2.4340    -6.2350 
  136.1250   132.0980    20.6220    11.4560    48.1910    19.2260    16.5490    15.0760     2.4390    -6.2640 
  136.2500   132.2090    20.6750    11.4780    47.4000    19.0600    16.3780    15.0770     2.4500    -6.3190 
  136.3750   132.3190    20.7290    11.4990    47.9940    18.8290    16.1480    15.2050     2.4610    -6.3670 
  136.5000   132.4300    20.7820    11.5210    50.3140    18.5250    15.8600    15.1170     2.4650    -6.4200 
  136.6250   132.5410    20.8360    11.5420    50.6680    18.1360    15.5160    14.3890     2.4640    -6.4240 
  136.7500   132.6520    20.8890    11.5640    47.9190    17.6850    15.1290    13.4530     2.4660    -6.4200 
  136.8750   132.7630    20.9430    11.5850    45.1480    17.1960    14.7130    12.6110     2.4790    -6.4290 
  137.0000   132.8730    20.9960    11.6070    46.0180    16.7330    14.3100    12.5550     2.5000    -6.4370 
  137.1250   132.9840    21.0500    11.6280    49.2640    16.4210    14.0160    12.4870     2.5220    -6.4620 
  137.2500   133.0950    21.1030    11.6500    49.9400    16.3270    13.8950    11.8910     2.5350    -6.4730 
  137.3750   133.2060    21.1570    11.6710    49.9620    16.4590    13.9650    11.5300     2.5360    -6.4510 
  137.5000   133.3170    21.2100    11.6930    51.5750    16.7330    14.1770    12.2240     2.5260    -6.4640 
  137.6250   133.4270    21.2640    11.7140    52.7410    16.9720    14.3970    12.8270     2.5120    -6.4460 
  137.7500   133.5380    21.3170    11.7360    52.6760    17.0320    14.4820    12.3190     2.5010    -6.4550 
  137.8750   133.6490    21.3710    11.7570    52.6740    16.8790    14.3840    11.7480     2.4970    -6.4510 
  138.0000   133.7600    21.4240    11.7790    54.3850    16.5830    14.1430    11.4450     2.5000    -6.4370 
  138.1250   133.8710    21.4780    11.8000    55.4170    16.3000    13.8820    11.4770     2.5030    -6.4220 
  138.2500   133.9810    21.5320    11.8220    54.8950    16.1660    13.7280    11.5770     2.5050    -6.3410 
  138.3750   134.0920    21.5850    11.8430    54.9160    16.2280    13.7300    12.0010     2.5070    -6.2200 
  138.5000   134.2030    21.6390    11.8650    55.9810    16.4640    13.8820    12.2590     2.5140    -6.0420 
  138.6250   134.3140    21.6920    11.8860    56.3420    16.8150    14.1470    12.1810     2.5270    -5.9390 
  138.7500   134.4250    21.7460    11.9080    54.9100    17.1830    14.4500    12.2950     2.5420    -5.8000 
  138.8750   134.5350    21.7990    11.9290    52.2140    17.5180    14.7440    13.0320     2.5530    -5.6620 
  139.0000   134.6460    21.8530    11.9510    50.6430    17.7980    15.0010    14.4150     2.5540    -5.5060 
  139.1250   134.7570    21.9060    11.9720    51.1420    18.0170    15.2070    15.6070     2.5420    -5.3590 
  139.2500   134.8680    21.9600    11.9940    51.5970    18.2010    15.3780    15.9580     2.5220    -5.3080 
  139.3750   134.9790    22.0130    12.0150    51.6990    18.3600    15.5240    15.5150     2.4980    -5.3230 
  139.5000   135.0900    22.0670    12.0370    52.3820    18.5060    15.6550    14.8160     2.4760    -5.3830 
  139.6250   135.2000    22.1200    12.0580    54.0190    18.6650    15.7890    13.5660     2.4710    -5.3870 
  139.7500   135.3110    22.1740    12.0800    53.3470    18.8750    15.9630    13.2090     2.4820    -5.3740 
  139.8750   135.4220    22.2270    12.1010    49.9200    19.1750    16.2130    13.7040     2.5060    -5.3810 
  140.0000   135.5330    22.2810    12.1230    47.7220    19.5710    16.5570    14.3650     2.5300    -5.3920 
  140.1250   135.6440    22.3340    12.1450    48.6080    20.0070    16.9590    15.4850     2.5390    -5.4180 
  140.2500   135.7540    22.3880    12.1660    49.8610    20.3560    17.3090    16.5130     2.5320    -5.3830 
  140.3750   135.8650    22.4410    12.1880    49.9640    20.5010    17.4980    16.8940     2.5140    -5.3280 
  140.5000   135.9760    22.4950    12.2090    49.0640    20.3800    17.4520    15.4980     2.4980    -5.2770 
  140.6250   136.0870    22.5480    12.2310    49.8880    20.0020    17.1540    14.0950     2.4980    -5.1830 
