~V
VERS. 2.00: Ver 2.00
~W
STRT.M 20.0000:
STOP.M 217.0000:
STEP.M 0.1250:
NULL. -999.2500:
UWI. FD10571:
~C
DEPT.M :
TVD. :
DX. :
DY. :
DEN.GM/CC :
GR.API :
RML.OHMM :
RI. :
RXO.OHMM :
SP.MV :
~A
   20.0000    19.9990    -0.1200    -0.1080  -999.2500  -999.2500  -999.2500  -999.2500  -999.2500   217.9770 
   20.1250    20.1240    -0.1200    -0.1090  -999.2500  -999.2500  -999.2500  -999.2500  -999.2500   215.5720 
   20.2500    20.2490    -0.1210    -0.1090  -999.2500  -999.2500  -999.2500  -999.2500  -999.2500   211.6520 
   20.3750    20.3740    -0.1220    -0.1100  -999.2500  -999.2500  -999.2500  -999.2500  -999.2500   206.1780 
   20.5000    20.4990    -0.1230    -0.1110  -999.2500  -999.2500  -999.2500  -999.2500  -999.2500   199.4120 
   20.6250    20.6240    -0.1230    -0.1110  -999.2500  -999.2500  -999.2500  -999.2500  -999.2500   191.2610 
   20.7500    20.7490    -0.1240    -0.1120  -999.2500  -999.2500  -999.2500  -999.2500  -999.2500   182.2450 
   20.8750    20.8740    -0.1250    -0.1130  -999.2500  -999.2500  -999.2500  -999.2500  -999.2500   173.0220 
   21.0000    20.9990    -0.1260    -0.1140  -999.2500  -999.2500  -999.2500  -999.2500  -999.2500   163.9470 
   21.1250    21.1240    -0.1260    -0.1140  -999.2500  -999.2500  -999.2500  -999.2500  -999.2500   155.2450 
   21.2500    21.2490    -0.1270    -0.1150  -999.2500  -999.2500  -999.2500  -999.2500  -999.2500   147.2290 
   21.3750    21.3740    -0.1280    -0.1160  -999.2500  -999.2500  -999.2500  -999.2500  -999.2500   139.9610 
   21.5000    21.4990    -0.1290    -0.1160  -999.2500  -999.2500  -999.2500  -999.2500  -999.2500   132.9320 
   21.6250    21.6240    -0.1290    -0.1170  -999.2500  -999.2500  -999.2500  -999.2500  -999.2500   125.7620 
   21.7500    21.7490    -0.1300    -0.1180  -999.2500  -999.2500  -999.2500  -999.2500  -999.2500   118.3600 
   21.8750    21.8740    -0.1310    -0.1180  -999.2500  -999.2500  -999.2500  -999.2500  -999.2500   110.4250 
   22.0000    21.9990    -0.1320    -0.1190  -999.2500  -999.2500  -999.2500  -999.2500  -999.2500   101.8600 
   22.1250    22.1240    -0.1320    -0.1200  -999.2500  -999.2500  -999.2500  -999.2500  -999.2500    92.7550 
   22.2500    22.2490    -0.1330    -0.1200  -999.2500  -999.2500  -999.2500  -999.2500  -999.2500    83.0990 
   22.3750    22.3740    -0.1340    -0.1210  -999.2500  -999.2500  -999.2500  -999.2500  -999.2500    73.1330 
   22.5000    22.4990    -0.1350    -0.1220     1.9880    12.7050   662.4580     1.7030     0.2100    63.3980 
   22.6250    22.6240    -0.1350    -0.1220     1.9880    12.7050   662.4580     1.7030     0.2100    54.1760 
   22.7500    22.7490    -0.1360    -0.1230     1.9830    50.2320  2575.6600     6.5850     0.8970    45.4630 
   22.8750    22.8740    -0.1370    -0.1240     1.9700    47.0100  2424.1300     6.2730     1.0260    37.5190 
   23.0000    22.9990    -0.1380    -0.1240     1.9570    42.5630  2340.2510     6.1660     1.1490    30.5750 
   23.1250    23.1240    -0.1380    -0.1250     1.9380    41.1330  2315.7520     6.0970     1.1500    24.7460 
   23.2500    23.2490    -0.1390    -0.1260     1.9170    42.9650  2317.6250     6.0310     1.0230    19.9610 
   23.3750    23.3740    -0.1400    -0.1260     1.9020    45.5330  2329.5710     5.9680     0.9210    16.1630 
   23.5000    23.4990    -0.1410    -0.1270     1.8970    46.2370  2344.8530     5.9260     0.9010    13.2270 
   23.6250    23.6240    -0.1410    -0.1280     1.8990    45.5800  2367.5850     5.9350     0.9030    11.4970 
   23.7500    23.7490    -0.1420    -0.1280     1.9010    46.1540  2399.2520     5.9910     0.8930    10.6500 
   23.8750    23.8740    -0.1430    -0.1290     1.9020    47.7720  2424.4620     6.0820     0.9430    10.3640 
   24.0000    23.9990    -0.1440    -0.1300     1.8990    47.1480  2405.9980     6.1870     1.0010    10.5150 
   24.1250    24.1240    -0.1440    -0.1300     1.8920    43.4760  2294.4290     6.3050     1.0360    11.1320 
   24.2500    24.2490    -0.1450    -0.1310     1.8850    39.9380  2119.6930     6.4420     1.1090    12.1130 
   24.3750    24.3740    -0.1460    -0.1320     1.8880    37.6500  1937.8040     6.5580     1.2450    13.3070 
   24.5000    24.4990    -0.1470    -0.1320     1.9130    36.1170  1770.6530     6.5610     1.2580    14.5370 
   24.6250    24.6240    -0.1470    -0.1330     1.9710    35.0860  1527.9640     6.2580     1.1870    15.6470 
   24.7500    24.7490    -0.1480    -0.1340     2.0600    35.1490  1152.1500     5.4970     1.1870    16.6690 
   24.8750    24.8740    -0.1490    -0.1340     2.1830    35.5380   716.2450     4.2200     1.0200    17.7010 
   25.0000    24.9990    -0.1500    -0.1350     2.3460    35.5940   362.9520     2.7270     0.7680    18.8290 
   25.1250    25.1240    -0.1500    -0.1360     2.5330    35.0050   188.4740     1.5690     0.8290    19.9630 
   25.2500    25.2490    -0.1510    -0.1360     2.6820    33.9630   115.5210     0.8620     1.0730    20.7330 
   25.3750    25.3740    -0.1520    -0.1370     2.7230    32.1640    87.1590     0.5090     1.1660    20.7030 
   25.5000    25.4990    -0.1530    -0.1380     2.6070    30.2760    78.5840     0.4130     1.8970    19.4410 
   25.6250    25.6240    -0.1530    -0.1390     2.3370    32.1710    81.3970     0.5760     3.3260    16.2910 
   25.7500    25.7490    -0.1540    -0.1390     2.0370    38.5090    88.3700     1.0000     4.7860    11.6720 
   25.8750    25.8740    -0.1550    -0.1400     1.8150    46.8870    96.0820     1.7450     5.1670     6.2510 
   26.0000    25.9990    -0.1560    -0.1410     1.7300    54.6210   102.4000     2.8260     5.4170     0.5630 
   26.1250    26.1240    -0.1560    -0.1410     1.7850    59.2930   106.0960     4.0720     6.1030    -5.1090 
   26.2500    26.2490    -0.1570    -0.1420     1.8850    61.2580   107.7020     5.1050     7.2160   -10.5630 
   26.3750    26.3740    -0.1580    -0.1430     1.9730    61.9660   107.7910     5.7830     7.8060   -15.4570 
   26.5000    26.4990    -0.1590    -0.1430     2.0220    62.7190   107.1200     6.2050     7.7600   -19.3540 
   26.6250    26.6240    -0.1590    -0.1440     2.0390    64.9080   106.4910     6.5050     7.5370   -21.5330 
   26.7500    26.7490    -0.1600    -0.1450     2.0520    68.1890   106.2960     6.7390     7.4410   -22.4120 
   26.8750    26.8740    -0.1610    -0.1450     2.0690    70.3350   106.4520     6.8960     7.5850   -22.7250 
   27.0000    26.9990    -0.1620    -0.1460     2.0870    68.4000   106.6490     6.9900     7.7590   -23.0630 
   27.1250    27.1240    -0.1620    -0.1470     2.0980    64.2200   106.5620     7.0320     7.9010   -23.6020 
   27.2500    27.2490    -0.1630    -0.1470     2.1020    62.2120   106.2420     7.0410     7.9540   -24.2130 
   27.3750    27.3740    -0.1640    -0.1480     2.1010    62.8480   105.8930     7.0200     7.8970   -24.8340 
   27.5000    27.4990    -0.1650    -0.1490     2.1000    65.1640   105.7440     6.9750     7.6610   -25.3770 
   27.6250    27.6240    -0.1650    -0.1490     2.1030    67.9480   106.0610     6.9100     7.4640   -25.8180 
   27.7500    27.7490    -0.1660    -0.1500     2.1120    68.3000   106.8520     6.8410     7.5210   -26.1670 
   27.8750    27.8740    -0.1670    -0.1510     2.1230    66.1920   107.9990     6.7830     7.6660   -26.3980 
   28.0000    27.9990    -0.1680    -0.1510     2.1340    64.5920   109.1750     6.7450     7.6060   -26.5090 
   28.1250    28.1240    -0.1680    -0.1520     2.1400    64.9780   109.7460     6.7280     7.4140   -26.4770 
   28.2500    28.2490    -0.1690    -0.1530     2.1380    64.4860   109.3600     6.7200     7.3760   -26.3630 
   28.3750    28.3740    -0.1700    -0.1530     2.1290    63.3470   108.0330     6.7220     7.3670   -26.2010 
   28.5000    28.4990    -0.1710    -0.1540     2.1210    62.7250   106.2580     6.7490     7.2670   -26.1100 
   28.6250    28.6240    -0.1710    -0.1550     2.1230    62.9000   104.9960     6.8310     7.2040   -26.1650 
   28.7500    28.7490    -0.1720    -0.1550     2.1300    61.9260   104.8360     6.9710     7.2980   -26.2030 
   28.8750    28.8740    -0.1730    -0.1560     2.1260    60.2050   105.6930     7.1530     7.4800   -26.1650 
   29.0000    28.9990    -0.1740    -0.1570     2.0970    59.9170   106.7300     7.3270     7.6050   -26.0960 
