~V
VERS. 2.00: Ver 2.00
~W
STRT.M 11.0000:
STOP.M 231.0000:
STEP.M 0.1250:
NULL. -999.2500:
UWI. FD10589:
~C
DEPT.M :
TVD. :
DX. :
DY. :
GR.API :
RML.OHMM :
RI. :
RXO.OHMM :
DEN.GM/CC :
SP.MV :
R2M. :
R025. :
~A
# ...
   79.6250    78.8280     3.4090    -7.5040    56.1260    22.0730    21.0130    14.5410     2.1160   -16.3820    37.4900    20.2350 
   79.7500    78.9490     3.4230    -7.5310    58.1270    21.4640    20.4640    13.5090     2.1210   -16.4540    37.1070    19.9480 
   79.8750    79.0700     3.4370    -7.5590    58.8020    20.6690    19.7400    12.3220     2.1260   -16.5440    36.7450    19.6390 
   80.0000    79.1910     3.4510    -7.5860    57.0200    19.8350    18.9560    11.8640     2.1330   -16.6330    36.3360    19.2810 
   80.1250    79.3120     3.4650    -7.6140    54.6050    19.1700    18.2840    12.2070     2.1370   -16.6990    35.8250    18.8800 
   80.2500    79.4330     3.4790    -7.6410    54.3050    18.9100    17.9420    12.9080     2.1390   -16.6800    35.1650    18.5140 
   80.3750    79.5540     3.4930    -7.6690    55.7580    19.0480    17.9580    13.2690     2.1390   -16.6670    34.3860    18.2480 
   80.5000    79.6750     3.5070    -7.6960    56.8540    19.5280    18.3080    13.4940     2.1390   -16.6690    33.5950    18.1620 
   80.6250    79.7960     3.5210    -7.7240    56.6630    20.2280    18.8970    13.7300     2.1360   -16.6300    32.9390    18.2780 
   80.7500    79.9160     3.5350    -7.7510    57.3310    20.9670    19.5750    13.6920     2.1280   -16.5580    32.5600    18.5320 
   80.8750    80.0370     3.5490    -7.7790    60.1470    21.5710    20.1710    13.2830     2.1210   -16.4800    32.4520    18.8630 
   81.0000    80.1580     3.5630    -7.8060    62.7270    21.9790    20.6050    13.1670     2.1190   -16.3930    32.5380    19.2400 
   81.1250    80.2790     3.5760    -7.8340    62.1940    22.2170    20.8710    13.7170     2.1200   -16.2930    32.6540    19.5610 
   81.2500    80.4000     3.5900    -7.8610    58.1910    22.3600    21.0130    14.5230     2.1190   -16.2820    32.7000    19.7800 
   81.3750    80.5210     3.6040    -7.8890    55.2370    22.4860    21.1030    14.9910     2.1170   -16.3720    32.7090    19.9100 
   81.5000    80.6420     3.6180    -7.9160    56.4930    22.5900    21.1490    15.2250     2.1170   -16.4660    32.7170    19.9340 
   81.6250    80.7630     3.6320    -7.9440    60.7210    22.6320    21.1320    15.0580     2.1220   -16.5540    32.7910    19.9270 
   81.7500    80.8840     3.6460    -7.9710    62.8670    22.5390    21.0260    14.5180     2.1280   -16.6380    32.9810    19.9770 
   81.8750    81.0050     3.6600    -7.9990    61.1270    22.3170    20.8390    14.4120     2.1320   -16.6790    33.2080    20.0070 
   82.0000    81.1260     3.6740    -8.0260    58.5460    22.0110    20.5830    14.8550     2.1330   -16.6690    33.4220    19.9490 
   82.1250    81.2470     3.6880    -8.0540    57.4280    21.7030    20.2900    15.5260     2.1310   -16.6510    33.5840    19.7980 
   82.2500    81.3680     3.7020    -8.0810    55.9160    21.4860    20.0110    16.3180     2.1270   -16.6310    33.6020    19.5660 
   82.3750    81.4890     3.7160    -8.1090    53.4050    21.3660    19.7790    17.4180     2.1260   -16.6010    33.4810    19.3530 
   82.5000    81.6100     3.7300    -8.1360    51.7920    21.2930    19.5880    19.0100     2.1270   -16.5900    33.2540    19.1890 
   82.6250    81.7310     3.7440    -8.1640    53.0250    21.1720    19.3920    20.5060     2.1280   -16.5820    32.9640    19.0250 
   82.7500    81.8520     3.7570    -8.1910    56.6300    20.8840    19.1120    20.9970     2.1310   -16.5680    32.7350    18.8530 
   82.8750    81.9730     3.7710    -8.2180    59.6190    20.4290    18.7230    20.3540     2.1380   -16.5670    32.6390    18.6280 
   83.0000    82.0940     3.7850    -8.2460    60.9030    19.8510    18.2410    18.8030     2.1490   -16.5600    32.6550    18.2830 
   83.1250    82.2150     3.7990    -8.2730    60.9970    19.2340    17.7250    17.1560     2.1620   -16.5380    32.7110    17.8700 
   83.2500    82.3350     3.8130    -8.3010    61.2030    18.7180    17.2820    16.7080     2.1690   -16.4600    32.6600    17.4660 
   83.3750    82.4560     3.8270    -8.3280    62.3300    18.3880    16.9800    17.5370     2.1730   -16.3550    32.4090    17.1000 
   83.5000    82.5770     3.8410    -8.3560    63.4730    18.2580    16.8320    19.3610     2.1750   -16.2630    31.9790    16.8170 
   83.6250    82.6980     3.8550    -8.3830    62.7820    18.2670    16.7960    20.7910     2.1770   -16.1890    31.4340    16.6390 
   83.7500    82.8190     3.8690    -8.4110    61.4370    18.2540    16.7570    21.6020     2.1780   -16.1710    30.8290    16.5280 
   83.8750    82.9400     3.8830    -8.4380    60.8560    18.0470    16.5760    20.9160     2.1760   -16.1920    30.2770    16.4150 
   84.0000    83.0610     3.8970    -8.4660    61.5530    17.5760    16.1880    19.4740     2.1740   -16.2540    29.8630    16.2590 
   84.1250    83.1820     3.9110    -8.4930    63.9700    16.8970    15.6320    17.8120     2.1790   -16.3220    29.6100    16.0390 
   84.2500    83.3030     3.9250    -8.5210    67.4780    16.1830    15.0470    16.6560     2.1900   -16.3830    29.4820    15.7390 
   84.3750    83.4240     3.9380    -8.5480    70.0920    15.6410    14.6020    17.1000     2.2000   -16.3980    29.2890    15.3400 
   84.5000    83.5450     3.9520    -8.5760    70.5000    15.3880    14.3980    17.9780     2.2040   -16.3720    28.8530    14.9190 
   84.6250    83.6660     3.9660    -8.6030    69.5920    15.4300    14.4520    19.1590     2.1980   -16.3460    28.1260    14.6570 
   84.7500    83.7870     3.9800    -8.6310    68.3990    15.6960    14.7120    19.3930     2.1870   -16.2990    27.1690    14.6550 
   84.8750    83.9080     3.9940    -8.6580    67.4680    16.0070    15.0120    18.5960     2.1770   -16.2720    26.1720    14.8050 
   85.0000    84.0290     4.0080    -8.6860    67.5290    16.2500    15.2410    18.0120     2.1690   -16.2760    25.2690    15.0080 
   85.1250    84.1500     4.0220    -8.7130    67.3490    16.3560    15.3240    18.1010     2.1640   -16.3140    24.5050    15.1010 
   85.2500    84.2710     4.0360    -8.7410    65.7980    16.2870    15.2180    18.9640     2.1630   -16.3740    23.8770    14.9980 
   85.3750    84.3920     4.0500    -8.7680    63.4750    16.0970    14.9800    19.7780     2.1600   -16.4320    23.3420    14.8970 
   85.5000    84.5130     4.0640    -8.7960    60.8920    15.7850    14.6310    19.5400     2.1520   -16.4760    22.8340    14.8880 
   85.6250    84.6330     4.0780    -8.8230    60.0970    15.3550    14.1860    18.5470     2.1450   -16.5510    22.2720    14.9500 
   85.7500    84.7540     4.0920    -8.8510    62.1280    14.9750    13.7850    17.8880     2.1470   -16.6420    21.6080    15.0540 
   85.8750    84.8750     4.1050    -8.8780    65.3110    14.9950    13.7010    16.9760     2.1580   -16.6900    20.9020    15.2000 
   86.0000    84.9960     4.1190    -8.9060    67.5640    15.7510    14.2030    16.6650     2.1820   -16.7110    20.3100    15.4090 
   86.1250    85.1170     4.1330    -8.9330    69.0480    17.4640    15.4890    17.2210     2.2330   -16.7450    20.1490    15.7230 
   86.2500    85.2380     4.1470    -8.9610    69.7940    20.2110    17.7420    19.0910     2.3320   -16.7730    21.1340    16.2110 
   86.3750    85.3590     4.1610    -8.9880    68.5710    23.1550    20.4170    20.6670     2.4580   -16.8140    23.7180    16.9150 
   86.5000    85.4800     4.1750    -9.0160    67.7820    25.0420    22.4700    24.8760     2.5630   -16.8820    28.1130    17.8610 
   86.6250    85.6010     4.1890    -9.0430    71.0450    24.6440    22.6200    22.8200     2.5910   -16.9510    33.8090    18.8460 
   86.7500    85.7220     4.2030    -9.0700    75.4460    21.5520    20.2060    20.5500     2.5450   -16.9980    39.2620    19.2120 
   86.8750    85.8430     4.2170    -9.0980    77.9860    17.5470    16.7720    18.2430     2.4850   -17.0270    42.7700    18.4380 
   87.0000    85.9640     4.2310    -9.1250    79.5990    13.9510    13.5170    13.8240     2.4250   -17.0510    43.3160    16.5810 
   87.1250    86.0850     4.2450    -9.1530    83.3930    11.4380    11.0650    10.0430     2.3690   -17.0590    40.7710    14.4080 
