~V
VERS. 2.00: Ver 2.00
~W
STRT.M 11.0000:
STOP.M 231.0000:
STEP.M 0.1250:
NULL. -999.2500:
UWI. FD10589:
~C
DEPT.M :
TVD. :
DX. :
DY. :
GR.API :
RML.OHMM :
RI. :
RXO.OHMM :
DEN.GM/CC :
SP.MV :
R2M. :
R025. :
~A
# ...
   56.7500    56.6060     1.1130    -2.9010    72.5290     6.6720     4.9980     6.9740     2.2800   -17.5550     7.5340     5.6860 
   56.8750    56.7300     1.1170    -2.9120    70.1300     6.8610     5.1010     7.1560     2.2890   -17.6110     7.2090     5.6960 
   57.0000    56.8550     1.1210    -2.9230    67.9670     7.0780     5.2420     7.7290     2.2850   -17.6900     6.9260     5.7850 
   57.1250    56.9790     1.1250    -2.9340    66.2150     7.2410     5.3620     8.3230     2.2690   -17.8490     6.6930     5.9120 
   57.2500    57.1030     1.1300    -2.9450    64.5960     7.2680     5.3990     8.0270     2.2510   -18.0120     6.5060     6.0280 
   57.3750    57.2280     1.1340    -2.9570    63.6810     7.1890     5.3630     7.7180     2.2360   -18.1350     6.3420     6.0960 
   57.5000    57.3520     1.1380    -2.9680    64.2180     7.0780     5.2880     7.4500     2.2220   -18.3000     6.1960     6.1140 
   57.6250    57.4760     1.1420    -2.9790    66.3980     7.0280     5.2270     7.4770     2.2040   -18.5370     6.0760     6.1080 
   57.7500    57.6010     1.1470    -2.9900    67.1430     7.1200     5.2300     7.3320     2.1850   -18.8210     5.9790     6.0720 
   57.8750    57.7250     1.1510    -3.0010    65.8040     7.2760     5.2730     7.6640     2.1780   -19.0590     5.8890     6.0430 
   58.0000    57.8490     1.1550    -3.0120    64.6670     7.3530     5.2940     8.0800     2.1850   -19.2460     5.8250     6.1220 
   58.1250    57.9740     1.1600    -3.0230    65.3150     7.2300     5.2320     8.6010     2.1990   -19.4700     5.8310     6.3280 
   58.2500    58.0980     1.1640    -3.0340    67.7440     6.9360     5.0980     8.8390     2.2100   -19.7340     5.9390     6.5730 
   58.3750    58.2220     1.1680    -3.0450    70.8870     6.7840     5.0450     8.6660     2.2200   -19.9330     6.0980     6.7120 
   58.5000    58.3470     1.1720    -3.0560    73.7970     7.1390     5.2680     8.0220     2.2340   -20.0730     6.2370     6.6940 
   58.6250    58.4710     1.1770    -3.0670    74.1370     8.3340     5.9760     8.2280     2.2540   -20.1950     6.3070     6.6790 
   58.7500    58.5960     1.1810    -3.0780    71.1280    10.7180     7.4670    10.7210     2.2890   -20.3330     6.3540     7.1090 
   58.8750    58.7200     1.1850    -3.0890    66.8690    13.8620     9.6310    16.6180     2.3470   -20.4840     6.5350     8.1710 
   59.0000    58.8440     1.1890    -3.1000    62.7160    16.9230    12.0440    24.2600     2.4190   -20.6120     6.9860     9.8710 
   59.1250    58.9690     1.1940    -3.1110    58.9200    18.6280    13.7790    26.4840     2.4640   -20.7370     7.7730    11.8940 
   59.2500    59.0930     1.1980    -3.1220    54.8720    17.7820    13.6670    19.2810     2.4090   -20.9670     8.8090    13.2620 
   59.3750    59.2170     1.2020    -3.1340    51.0620    15.4560    12.2480    13.7780     2.2830   -21.2830     9.7570    13.4140 
   59.5000    59.3420     1.2060    -3.1450    49.5170    12.9090    10.4250    11.9670     2.1550   -21.6030    10.3290    12.6240 
   59.6250    59.4660     1.2110    -3.1560    51.7530    10.9530     8.8480    11.8270     2.0750   -21.8950    10.3530    11.5190 
   59.7500    59.5900     1.2150    -3.1670    54.5420     9.8940     7.8250    11.5550     2.0630   -22.1180     9.8170    10.5390 
   59.8750    59.7150     1.2190    -3.1780    55.3370     9.4230     7.2390    11.0030     2.0890   -22.2760     9.0670     9.7910 
   60.0000    59.8390     1.2240    -3.1890    56.4030     9.3330     6.9880    10.4090     2.1260   -22.4070     8.3350     9.2650 
   60.1250    59.9600     1.2370    -3.2160    58.6350     9.4700     6.9760    10.0170     2.1540   -22.4980     7.7620     8.9140 
   60.2500    60.0810     1.2510    -3.2440    59.5480     9.7520     7.1450     9.8690     2.1580   -22.5060     7.4090     8.7020 
   60.3750    60.2020     1.2650    -3.2710    58.7750    10.1040     7.4170    10.3880     2.1470   -22.4980     7.2090     8.5910 
   60.5000    60.3230     1.2790    -3.2990    59.8160    10.4790     7.7550    10.9630     2.1330   -22.5170     7.1410     8.6260 
   60.6250    60.4440     1.2930    -3.3260    63.5360    10.8130     8.1120    11.1130     2.1280   -22.5210     7.1850     8.8270 
   60.7500    60.5650     1.3070    -3.3540    65.8920    11.0100     8.3960    10.7380     2.1370   -22.5140     7.3220     9.1160 
   60.8750    60.6860     1.3210    -3.3810    66.4780    11.0470     8.5440    10.3820     2.1520   -22.5640     7.5430     9.3870 
   61.0000    60.8070     1.3350    -3.4090    65.5070    10.9470     8.5370    10.0510     2.1660   -22.6360     7.8970     9.5590 
   61.1250    60.9280     1.3490    -3.4360    62.5200    10.7920     8.4190     9.7730     2.1720   -22.6300     8.4150     9.5600 
   61.2500    61.0490     1.3630    -3.4640    58.8550    10.7070     8.2790     9.5380     2.1640   -22.5490     9.0600     9.4400 
   61.3750    61.1700     1.3770    -3.4910    58.8890    10.7480     8.1890     9.4440     2.1510   -22.4950     9.6890     9.3350 
   61.5000    61.2900     1.3910    -3.5190    62.5330    10.9000     8.1620     9.3870     2.1450   -22.4510    10.1820     9.2180 
   61.6250    61.4110     1.4050    -3.5460    64.7880    11.0860     8.1700     9.3370     2.1510   -22.4210    10.4890     9.1190 
   61.7500    61.5320     1.4180    -3.5740    64.4250    11.1710     8.1520     9.4500     2.1640   -22.4530    10.6370     9.1820 
   61.8750    61.6530     1.4320    -3.6010    64.9700    11.0980     8.0710     9.4230     2.1690   -22.4850    10.6890     9.3510 
   62.0000    61.7740     1.4460    -3.6290    64.9660    10.9230     7.9500     8.9590     2.1620   -22.4710    10.6430     9.5430 
   62.1250    61.8950     1.4600    -3.6560    62.4200    10.8180     7.8850     8.7870     2.1460   -22.4440    10.4910     9.7340 
   62.2500    62.0160     1.4740    -3.6840    59.2920    11.1590     8.1010     9.2720     2.1360   -22.4560    10.2310     9.9410 
   62.3750    62.1370     1.4880    -3.7110    58.3480    12.2740     8.8090    10.0680     2.1450   -22.4590     9.9430    10.3040 
   62.5000    62.2580     1.5020    -3.7380    57.8240    14.5450    10.2890    12.1720     2.1890   -22.4570     9.7200    10.9960 
   62.6250    62.3790     1.5160    -3.7660    56.9600    18.3560    12.8790    17.1560     2.2820   -22.4490     9.6780    12.1180 
   62.7500    62.5000     1.5300    -3.7930    57.0110    24.2660    17.2040    26.6500     2.4250   -22.4260    10.0440    14.0130 
   62.8750    62.6210     1.5440    -3.8210    57.0970    31.4860    22.9460    33.5900     2.5730   -22.4330    10.9080    16.7270 
   63.0000    62.7420     1.5580    -3.8480    57.0040    38.1300    28.8580    42.1130     2.6740   -22.5320    12.3040    19.9180 
   63.1250    62.8630     1.5720    -3.8760    58.1180    41.0640    32.3420    50.7520     2.7010   -22.7350    14.1470    22.8220 
   63.2500    62.9840     1.5860    -3.9030    59.2170    37.3140    30.4100    48.6430     2.6600   -22.9860    16.2210    24.2660 
   63.3750    63.1050     1.5990    -3.9310    57.9750    29.9910    25.1240    36.7930     2.5850   -23.2500    18.1670    23.8970 
   63.5000    63.2260     1.6130    -3.9580    56.6570    22.4590    19.2080    23.0780     2.4780   -23.5460    19.6970    21.8610 
   63.6250    63.3470     1.6270    -3.9860    58.0680    16.6780    14.3940    14.4270     2.3500   -23.8810    20.5170    18.8440 
   63.7500    63.4680     1.6410    -4.0130    60.1250    13.3200    11.3470    10.6770     2.2410   -24.2320    20.1800    15.8500 
   63.8750    63.5880     1.6550    -4.0410    58.8270    11.5410     9.5200     9.3850     2.1750   -24.5880    18.8430    13.5360 
   64.0000    63.7090     1.6690    -4.0680    54.3940    10.8300     8.5710     9.2240     2.1460   -24.9410    16.8160    11.9620 
   64.1250    63.8300     1.6830    -4.0960    50.2680    10.7710     8.2330     9.2770     2.1350   -25.2710    14.5800    10.9130 
   64.2500    63.9510     1.6970    -4.1230    49.3420    11.0290     8.3120     9.3660     2.1230   -25.5600    12.7350    10.2900 
