~V
VERS. 2.00: Ver 2.00
~W
STRT.M 20.0000:
STOP.M 217.0000:
STEP.M 0.1250:
NULL. -999.2500:
UWI. FD10571:
~C
DEPT.M :
TVD. :
DX. :
DY. :
DEN.GM/CC :
GR.API :
RML.OHMM :
RI. :
RXO.OHMM :
SP.MV :
~A
# ...
   74.7500    74.2540    -5.1920    -2.3570     2.2910    85.0500    12.4580    11.1240    10.6090   -17.0020 
   74.8750    74.3760    -5.2180    -2.3660     2.2940    87.2890    10.6310     9.4390     7.9640   -16.8970 
   75.0000    74.4970    -5.2450    -2.3750     2.2850    85.1110     9.2910     8.1920     7.2940   -16.8270 
   75.1250    74.6190    -5.2710    -2.3840     2.2640    81.7370     8.6670     7.5410     7.3320   -16.8220 
   75.2500    74.7410    -5.2980    -2.3930     2.2530    78.4860     8.7190     7.4240     7.3950   -16.8740 
   75.3750    74.8620    -5.3240    -2.4020     2.2710    76.3540     9.4980     7.8810     7.9600   -16.9360 
   75.5000    74.9840    -5.3510    -2.4100     2.3230    76.4210    11.0510     8.9680    10.3950   -16.9840 
   75.6250    75.1060    -5.3770    -2.4190     2.3910    75.2650    13.5480    10.8690    12.8730   -16.9340 
   75.7500    75.2270    -5.4040    -2.4280     2.4320    70.3330    16.8220    13.5360    16.0440   -16.7600 
   75.8750    75.3490    -5.4300    -2.4370     2.4220    65.2390    20.6990    16.9330    22.2230   -16.5210 
   76.0000    75.4710    -5.4570    -2.4460     2.3660    63.6850    24.8250    20.7950    27.9230   -16.2370 
   76.1250    75.5920    -5.4830    -2.4550     2.2890    63.8630    28.6350    24.5230    27.8620   -15.8470 
   76.2500    75.7140    -5.5100    -2.4640     2.2250    63.2670    31.7990    27.6210    29.2610   -15.3720 
   76.3750    75.8360    -5.5360    -2.4730     2.1850    63.0330    34.2470    29.9460    31.9120   -14.8380 
   76.5000    75.9570    -5.5620    -2.4820     2.1630    62.7370    36.0780    31.5690    33.2940   -14.2790 
   76.6250    76.0790    -5.5890    -2.4910     2.1570    61.5220    37.3290    32.5400    32.9440   -13.7500 
   76.7500    76.2010    -5.6150    -2.5000     2.1580    60.5840    38.0820    33.0100    35.3290   -13.3220 
   76.8750    76.3220    -5.6420    -2.5080     2.1650    61.9360    38.2940    32.9720    38.7220   -13.0100 
   77.0000    76.4440    -5.6680    -2.5170     2.1730    66.3910    37.9920    32.5110    36.8290   -12.7980 
   77.1250    76.5660    -5.6950    -2.5260     2.1780    69.7260    37.2970    31.8350    30.1800   -12.7000 
   77.2500    76.6870    -5.7210    -2.5350     2.1780    69.0420    36.4950    31.2050    26.7680   -12.6490 
   77.3750    76.8090    -5.7480    -2.5440     2.1740    66.1130    35.6940    30.7070    29.1700   -12.6610 
   77.5000    76.9310    -5.7740    -2.5530     2.1690    63.9190    34.8460    30.2640    31.9810   -12.7630 
   77.6250    77.0520    -5.8010    -2.5620     2.1660    63.5340    33.7290    29.6200    30.0310   -12.9250 
   77.7500    77.1740    -5.8270    -2.5710     2.1660    64.4140    32.2660    28.6390    25.5330   -13.0800 
   77.8750    77.2960    -5.8540    -2.5800     2.1670    67.1210    30.5450    27.3640    23.7090   -13.1970 
   78.0000    77.4170    -5.8800    -2.5890     2.1670    69.4950    28.8120    25.9980    21.9010   -13.3110 
   78.1250    77.5390    -5.9070    -2.5980     2.1660    68.5910    27.4360    24.8740    18.8610   -13.3890 
   78.2500    77.6610    -5.9330    -2.6060     2.1630    66.8160    26.5490    24.1410    17.6570   -13.4180 
   78.3750    77.7820    -5.9600    -2.6150     2.1610    66.0090    26.1350    23.7940    18.6040   -13.4250 
   78.5000    77.9040    -5.9860    -2.6240     2.1600    65.0320    26.0730    23.7390    19.7970   -13.3820 
   78.6250    78.0260    -6.0130    -2.6330     2.1610    62.7950    26.2220    23.8990    20.3940   -13.2570 
   78.7500    78.1470    -6.0390    -2.6420     2.1600    62.4870    26.4110    24.1370    20.2250   -13.0940 
   78.8750    78.2690    -6.0660    -2.6510     2.1600    66.0470    26.5440    24.3320    20.5900   -12.9300 
   79.0000    78.3900    -6.0920    -2.6600     2.1580    69.8230    26.5680    24.3780    21.8950   -12.7630 
   79.1250    78.5120    -6.1190    -2.6690     2.1570    68.3050    26.5210    24.2740    22.6910   -12.5950 
   79.2500    78.6340    -6.1450    -2.6780     2.1590    64.5090    26.6140    24.2190    22.5080   -12.4390 
   79.3750    78.7550    -6.1720    -2.6870     2.1650    63.0410    27.1400    24.4670    20.9670   -12.2720 
   79.5000    78.8770    -6.1980    -2.6960     2.1730    64.2990    28.4110    25.3090    20.2740   -12.0580 
   79.6250    78.9990    -6.2240    -2.7040     2.1800    65.2750    30.7170    27.0860    22.4300   -11.8270 
   79.7500    79.1200    -6.2510    -2.7130     2.1830    64.7400    33.5830    29.5130    27.5590   -11.5920 
   79.8750    79.2420    -6.2770    -2.7220     2.1800    63.5910    36.2500    31.9990    33.1530   -11.3350 
   80.0000    79.3640    -6.3040    -2.7310     2.1730    61.9960    37.7820    33.6690    37.7290   -11.0760 
   80.1250    79.4850    -6.3300    -2.7400     2.1660    61.1310    37.2310    33.5080    34.1170   -10.9080 
   80.2500    79.6070    -6.3570    -2.7490     2.1580    61.0850    35.0930    31.8280    27.6540   -10.8510 
   80.3750    79.7290    -6.3830    -2.7580     2.1480    60.5260    32.1420    29.3090    22.9900   -10.8910 
   80.5000    79.8500    -6.4100    -2.7670     2.1360    59.2180    29.2020    26.7080    21.6130   -11.0190 
   80.6250    79.9720    -6.4360    -2.7760     2.1280    59.2880    26.9070    24.6160    21.6070   -11.1380 
   80.7500    80.0940    -6.4630    -2.7850     2.1300    61.8540    25.2840    23.1330    20.5930   -11.1930 
   80.8750    80.2150    -6.4890    -2.7940     2.1440    64.3850    24.2390    22.2410    18.9380   -11.2750 
   81.0000    80.3370    -6.5160    -2.8030     2.1660    64.5890    23.6370    21.8350    18.0390   -11.4170 
   81.1250    80.4590    -6.5420    -2.8110     2.1850    63.8930    23.3600    21.7780    19.1780   -11.5600 
   81.2500    80.5800    -6.5690    -2.8200     2.1920    62.8150    23.2030    21.8180    20.1490   -11.6450 
   81.3750    80.7020    -6.5950    -2.8290     2.1860    60.6460    23.0460    21.8130    19.6550   -11.6930 
   81.5000    80.8240    -6.6220    -2.8380     2.1700    60.1380    22.8030    21.6700    18.4780   -11.7230 
   81.6250    80.9450    -6.6480    -2.8470     2.1520    64.8900    22.4280    21.3430    17.7450   -11.7360 
   81.7500    81.0670    -6.6750    -2.8560     2.1430    70.3440    21.9870    20.9140    17.3630   -11.8340 
   81.8750    81.1890    -6.7010    -2.8650     2.1460    71.0350    21.5670    20.4610    17.1260   -12.0060 
   82.0000    81.3100    -6.7280    -2.8740     2.1610    67.2920    21.2580    20.0570    16.8690   -12.1720 
   82.1250    81.4320    -6.7540    -2.8830     2.1830    64.3520    21.1560    19.7840    16.5960   -12.2660 
   82.2500    81.5540    -6.7810    -2.8920     2.2010    63.4150    21.2560    19.6810    16.0490   -12.3530 
   82.3750    81.6750    -6.8070    -2.9010     2.2100    63.6800    21.5580    19.7910    15.2790   -12.4460 
   82.5000    81.7970    -6.8340    -2.9090     2.2080    64.8540    22.0490    20.1340    15.6810   -12.5280 
   82.6250    81.9190    -6.8600    -2.9180     2.1990    66.7750    22.6960    20.7010    16.8590   -12.5950 
   82.7500    82.0400    -6.8860    -2.9270     2.1910    67.6860    23.3700    21.3490    17.4050   -12.5710 
   82.8750    82.1620    -6.9130    -2.9360     2.1870    66.1180    23.9570    21.9500    18.0720   -12.4070 
   83.0000    82.2840    -6.9390    -2.9450     2.1860    63.8270    24.3700    22.3880    19.4450   -12.1290 
   83.1250    82.4050    -6.9660    -2.9540     2.1830    65.1450    24.5550    22.5750    19.4980   -11.7820 
   83.2500    82.5270    -6.9920    -2.9630     2.1770    67.6710    24.5940    22.5860    19.1870   -11.4000 
   83.3750    82.6490    -7.0190    -2.9720     2.1710    68.0320    24.5480    22.5030    18.8540   -11.0280 
   83.5000    82.7700    -7.0450    -2.9810     2.1680    65.9500    24.4610    22.3990    18.8370   -10.6840 
   83.6250    82.8920    -7.0720    -2.9900     2.1700    63.9250    24.3620    22.3210    19.4320   -10.4170 
   83.7500    83.0140    -7.0980    -2.9990     2.1730    62.3650    24.2740    22.2700    19.7180   -10.2500 
