~V
VERS. 2.00: Ver 2.00
~W
STRT.M 11.0000:
STOP.M 231.0000:
STEP.M 0.1250:
NULL. -999.2500:
UWI. FD10589:
~C
DEPT.M :
TVD. :
DX. :
DY. :
GR.API :
RML.OHMM :
RI. :
RXO.OHMM :
DEN.GM/CC :
SP.MV :
R2M. :
R025. :
~A
# ...
   26.2500    26.2440     0.1750    -0.4680    88.4530     7.2990     5.5160     5.3520     2.1980   -24.0800     7.6950     5.1950 
   26.3750    26.3690     0.1760    -0.4700    98.0900     6.3420     4.9180     4.4400     2.2520   -23.0680     7.7150     4.8540 
   26.5000    26.4940     0.1770    -0.4720   104.6600     4.8860     4.4700     4.0030     2.2810   -22.0330     7.6200     4.4100 
   26.6250    26.6190     0.1770    -0.4740   107.4470     4.3540     4.2450     3.9780     2.2800   -21.0380     7.4070     4.0060 
   26.7500    26.7440     0.1780    -0.4770   105.5580     4.4570     4.2500     4.1820     2.2630   -20.1770     7.1300     3.7670 
   26.8750    26.8690     0.1790    -0.4790   101.0530     4.6410     4.3480     4.4120     2.2540   -19.4690     6.8920     3.6350 
   27.0000    26.9940     0.1800    -0.4810    95.7730     4.6280     4.4350     4.5560     2.2580   -18.9250     6.7470     3.5840 
   27.1250    27.1190     0.1810    -0.4830    92.8080     4.4010     4.4430     4.5480     2.2740   -18.5650     6.6740     3.5890 
   27.2500    27.2440     0.1820    -0.4860    94.6630     4.1340     4.3520     4.4470     2.2880   -18.3240     6.5630     3.6130 
   27.3750    27.3690     0.1820    -0.4880    98.5110     3.9760     4.2130     4.3260     2.2900   -18.1190     6.3480     3.6490 
   27.5000    27.4940     0.1830    -0.4900   101.4350     3.9970     4.0830     4.2710     2.2750   -17.9920     6.0540     3.6710 
   27.6250    27.6190     0.1840    -0.4920   101.3480     4.2810     4.0310     4.2260     2.2460   -17.9720     5.7640     3.6450 
   27.7500    27.7440     0.1850    -0.4940    97.8890     4.9780     4.1540     4.3160     2.2240   -18.0220     5.5680     3.5980 
   27.8750    27.8690     0.1860    -0.4970    93.3580     5.9890     4.4540     4.4270     2.2280   -18.1180     5.4420     3.6190 
   28.0000    27.9940     0.1870    -0.4990    88.1300     7.0790     4.8910     5.0100     2.2610   -18.2550     5.3370     3.7800 
   28.1250    28.1190     0.1870    -0.5010    82.8190     7.8870     5.3600     6.4470     2.3160   -18.3980     5.2320     4.0950 
   28.2500    28.2440     0.1880    -0.5030    80.4900     8.0580     5.6650     7.7280     2.3630   -18.5820     5.1810     4.5590 
   28.3750    28.3690     0.1890    -0.5060    80.9150     7.8600     5.7270     7.1990     2.3750   -18.8580     5.2250     5.0460 
   28.5000    28.4940     0.1900    -0.5080    82.0090     7.5830     5.6220     5.9750     2.3500   -19.1380     5.3150     5.4520 
   28.6250    28.6190     0.1910    -0.5100    82.8490     7.3260     5.5450     5.4070     2.3120   -19.3790     5.3310     5.7110 
   28.7500    28.7440     0.1920    -0.5120    82.2790     7.1000     5.7840     5.5570     2.2960   -19.6520     5.1390     5.8360 
   28.8750    28.8690     0.1920    -0.5140    78.0000     7.4040     6.4850     6.4620     2.3150   -20.0130     4.8130     5.9880 
   29.0000    28.9940     0.1930    -0.5170    70.0370     8.1430     7.7070     9.0420     2.3700   -20.4620     4.5270     6.3060 
   29.1250    29.1190     0.1940    -0.5190    62.7510     9.4520     9.3020    14.1650     2.4430   -20.9950     4.4920     6.9490 
   29.2500    29.2440     0.1950    -0.5210    60.0090    10.7400    10.7130    17.9500     2.4830   -21.6020     4.8790     7.9800 
   29.3750    29.3690     0.1960    -0.5230    59.7630    11.1090    11.2880    17.1290     2.4540   -22.3070     5.4980     9.0200 
   29.5000    29.4940     0.1970    -0.5260    59.5060     9.9920    10.8360    13.4560     2.3670   -23.1080     6.1160     9.6490 
   29.6250    29.6190     0.1970    -0.5280    58.4530     8.7160     9.7100     9.7770     2.2600   -23.8990     6.5380     9.6090 
   29.7500    29.7440     0.1980    -0.5300    57.5540     8.0480     8.5040     8.3710     2.1660   -24.6360     6.6070     9.0050 
   29.8750    29.8690     0.1990    -0.5320    57.1410     7.8700     7.5900     8.0940     2.1030   -25.3570     6.4160     8.3560 
   30.0000    29.9940     0.2000    -0.5350    57.4510     7.6480     7.0310     8.0690     2.0780   -26.0060     6.0900     7.8840 
   30.1250    30.1180     0.2040    -0.5460    58.3240     7.3280     6.7780     7.9770     2.0830   -26.5100     5.7590     7.5700 
   30.2500    30.2420     0.2080    -0.5570    59.6120     7.2660     6.7710     7.9320     2.1010   -26.8010     5.5350     7.3340 
   30.3750    30.3670     0.2130    -0.5680    60.3650     7.2090     6.8650     7.9510     2.1140   -26.9030     5.4470     7.1430 
   30.5000    30.4910     0.2170    -0.5790    59.1470     7.1740     6.9780     8.0170     2.1210   -26.9230     5.5010     7.0070 
   30.6250    30.6150     0.2210    -0.5900    56.9200     7.2440     7.0510     7.9110     2.1230   -26.9730     5.6750     6.9140 
   30.7500    30.7400     0.2250    -0.6010    57.2460     7.2560     7.0440     7.7940     2.1210   -27.0210     5.9260     6.8290 
   30.8750    30.8640     0.2300    -0.6120    59.8260     7.2500     6.9820     7.6900     2.1140   -27.0240     6.1910     6.7700 
   31.0000    30.9880     0.2340    -0.6230    61.5310     7.1830     6.8920     7.6400     2.1080   -27.0450     6.4290     6.7660 
   31.1250    31.1130     0.2380    -0.6340    60.4930     7.1340     6.7990     7.6110     2.1120   -27.1180     6.6360     6.7750 
   31.2500    31.2370     0.2430    -0.6450    59.0640     7.0210     6.7080     7.7110     2.1310   -27.2600     6.8740     6.7490 
   31.3750    31.3620     0.2470    -0.6560    58.3210     6.9490     6.6240     7.6780     2.1520   -27.4260     7.2200     6.7140 
   31.5000    31.4860     0.2510    -0.6670    57.0950     6.9360     6.5640     7.6070     2.1630   -27.5830     7.6950     6.6850 
   31.6250    31.6100     0.2550    -0.6780    55.9130     6.9400     6.5540     7.5190     2.1590   -27.7150     8.2430     6.6590 
   31.7500    31.7350     0.2600    -0.6890    56.0760     6.9900     6.6150     7.5430     2.1460   -27.8170     8.7520     6.6320 
   31.8750    31.8590     0.2640    -0.7000    58.0010     7.1640     6.7090     7.7810     2.1360   -27.9010     9.1190     6.5990 
   32.0000    31.9830     0.2680    -0.7110    59.4800     7.3990     6.7940     8.1760     2.1340   -27.9610     9.3030     6.5920 
   32.1250    32.1080     0.2720    -0.7230    58.2070     7.4950     6.8440     8.4500     2.1370   -27.9340     9.3400     6.6360 
   32.2500    32.2320     0.2770    -0.7340    55.7650     7.5870     6.8700     8.3550     2.1370   -27.7650     9.3030     6.6940 
   32.3750    32.3560     0.2810    -0.7450    55.4030     7.5860     6.9190     8.1550     2.1330   -27.5760     9.2600     6.7080 
   32.5000    32.4810     0.2850    -0.7560    55.8390     7.5070     6.9990     7.9040     2.1280   -27.3770     9.2160     6.6760 
   32.6250    32.6050     0.2890    -0.7670    54.7140     7.3640     7.0660     7.6700     2.1200   -27.1080     9.1500     6.6300 
   32.7500    32.7290     0.2940    -0.7780    55.3440     7.1550     6.9750     7.5670     2.1040   -26.7450     9.0450     6.5730 
   32.8750    32.8540     0.2980    -0.7890    60.7650     6.8540     6.6270     7.5490     2.0760   -26.3020     8.9370     6.4510 
   33.0000    32.9780     0.3020    -0.8000    68.5450     6.6420     5.9980     7.2370     2.0370   -25.7360     8.8590     6.2470 
   33.1250    33.1030     0.3060    -0.8110    76.1590     6.4470     5.1980     6.3180     2.0090   -25.0990     8.8250     5.9790 
   33.2500    33.2270     0.3110    -0.8220    82.6200     5.9760     4.4580     5.0990     2.0320   -24.5560     8.8020     5.5970 
   33.3750    33.3510     0.3150    -0.8330    86.9860     5.7400     3.9620     4.6260     2.0920   -24.1370     8.7290     5.0970 
   33.5000    33.4760     0.3190    -0.8440    87.9770     5.5520     3.7900     4.6710     2.1480   -23.8150     8.5830     4.5900 
   33.6250    33.6000     0.3240    -0.8550    85.4490     5.4990     3.9620     5.1080     2.1570   -23.6330     8.3860     4.2540 
   33.7500    33.7240     0.3280    -0.8660    79.0150     5.7230     4.4770     6.0050     2.1210   -23.6710     8.2010     4.2880 
