~V
VERS. 2.00: Ver 2.00
~W
STRT.M 11.0000:
STOP.M 231.0000:
STEP.M 0.1250:
NULL. -999.2500:
UWI. FD10589:
~C
DEPT.M :
TVD. :
DX. :
DY. :
GR.API :
RML.OHMM :
RI. :
RXO.OHMM :
DEN.GM/CC :
SP.MV :
R2M. :
R025. :
~A
# ...
  155.8750   146.0370    16.6910   -39.4200    61.1040    28.8080    26.5070    17.2090     2.2450   -21.2690    34.3750    25.8110 
  156.0000   146.1360    16.7100   -39.4940    59.8830    28.7950    26.5640    18.3320     2.2460   -21.3090    36.1700    25.7190 
  156.1250   146.2350    16.7290   -39.5680    58.3800    28.7520    26.5730    19.0420     2.2450   -21.3600    38.0800    25.6420 
  156.2500   146.3340    16.7470   -39.6420    58.7900    28.7160    26.5660    19.0070     2.2490   -21.3800    39.8100    25.5690 
  156.3750   146.4330    16.7660   -39.7150    58.9970    28.7010    26.5990    18.7960     2.2580   -21.3590    41.2980    25.4590 
  156.5000   146.5320    16.7850   -39.7890    57.7360    28.7100    26.7100    18.4190     2.2700   -21.3810    42.5700    25.3840 
  156.6250   146.6310    16.8030   -39.8630    57.7470    28.7690    26.9100    17.8780     2.2820   -21.4930    43.6050    25.3910 
  156.7500   146.7310    16.8220   -39.9370    59.4080    28.9330    27.1910    18.1590     2.2910   -21.6160    44.3620    25.4120 
  156.8750   146.8300    16.8400   -40.0110    59.9060    29.1990    27.5130    18.6770     2.2930   -21.7060    44.8650    25.4910 
  157.0000   146.9290    16.8590   -40.0850    58.7500    29.5550    27.8770    18.6760     2.2860   -21.7360    45.0370    25.6980 
  157.1250   147.0280    16.8780   -40.1590    58.7090    29.9650    28.2920    18.1430     2.2730   -21.7300    44.8900    25.9570 
  157.2500   147.1270    16.8960   -40.2320    61.0930    30.3610    28.7540    17.6930     2.2640   -21.7860    44.5910    26.1880 
  157.3750   147.2260    16.9150   -40.3060    62.7510    30.7090    29.2250    16.7650     2.2600   -21.8880    44.3490    26.4160 
  157.5000   147.3250    16.9330   -40.3800    62.1730    31.0240    29.6830    15.3460     2.2610   -21.9400    44.3080    26.5820 
  157.6250   147.4240    16.9520   -40.4540    61.0680    31.3430    30.1240    14.5740     2.2610   -21.9120    44.5760    26.6430 
  157.7500   147.5230    16.9710   -40.5280    61.7780    31.6660    30.5240    15.4310     2.2550   -21.8690    45.1320    26.7250 
  157.8750   147.6220    16.9890   -40.6020    62.5360    31.8770    30.7900    17.2370     2.2470   -21.8410    45.7910    26.8590 
  158.0000   147.7220    17.0080   -40.6750    61.6750    31.7780    30.7490    18.9840     2.2430   -21.8040    46.4900    26.9450 
  158.1250   147.8210    17.0270   -40.7490    60.1610    31.1910    30.2440    20.0160     2.2490   -21.7640    47.1520    26.9290 
  158.2500   147.9200    17.0450   -40.8230    59.7500    30.0730    29.2290    20.0290     2.2630   -21.7030    47.6610    26.7330 
  158.3750   148.0190    17.0640   -40.8970    60.4360    28.7850    28.0270    19.3280     2.2780   -21.6810    47.9980    26.3850 
  158.5000   148.1180    17.0820   -40.9710    61.1080    27.6880    26.9510    18.2000     2.2860   -21.7650    48.0760    25.9910 
  158.6250   148.2170    17.1010   -41.0450    60.4830    27.0880    26.2730    17.2120     2.2870   -21.8790    47.8000    25.6280 
  158.7500   148.3160    17.1200   -41.1180    60.8820    27.2280    26.2420    17.3640     2.2770   -21.9270    47.2090    25.3740 
  158.8750   148.4150    17.1380   -41.1920    62.6200    27.9140    26.7510    18.3790     2.2600   -21.9330    46.5120    25.3380 
  159.0000   148.5140    17.1570   -41.2660    62.6330    28.9400    27.6800    19.0090     2.2400   -21.9660    45.8070    25.5570 
  159.1250   148.6130    17.1750   -41.3400    59.9080    30.0510    28.8350    19.5100     2.2240   -22.0300    45.1890    25.9290 
  159.2500   148.7120    17.1940   -41.4140    59.2240    30.9890    29.9600    20.0550     2.2140   -22.1080    44.7250    26.4030 
  159.3750   148.8120    17.2130   -41.4880    60.1160    31.6920    30.8830    20.4750     2.2120   -22.1730    44.4290    26.8410 
  159.5000   148.9110    17.2310   -41.5620    58.6860    32.1710    31.5470    20.9600     2.2160   -22.1560    44.4820    27.0540 
  159.6250   149.0100    17.2500   -41.6350    55.5230    32.4150    31.9190    21.3100     2.2210   -22.1200    45.0680    27.0610 
  159.7500   149.1090    17.2690   -41.7090    56.8220    32.3290    31.9110    21.1690     2.2220   -22.1720    46.1490    27.0790 
  159.8750   149.2080    17.2870   -41.7830    59.9690    31.9530    31.5910    20.9420     2.2180   -22.3000    47.3170    27.1470 
  160.0000   149.3070    17.3060   -41.8570    61.3510    31.3390    31.0240    21.0320     2.2130   -22.4550    48.2700    27.2170 
  160.1250   149.4060    17.3240   -41.9310    61.0070    30.5890    30.3130    21.5270     2.2120   -22.6070    48.8180    27.2300 
  160.2500   149.5050    17.3430   -42.0050    61.1720    29.8610    29.6070    22.0240     2.2210   -22.7120    49.0430    26.9940 
  160.3750   149.6040    17.3620   -42.0780    61.2350    29.2990    29.0500    21.7970     2.2350   -22.7930    49.2930    26.5610 
  160.5000   149.7030    17.3800   -42.1520    60.2430    28.9760    28.7160    21.0900     2.2440   -22.8780    49.6340    26.1760 
  160.6250   149.8020    17.3990   -42.2260    59.9880    28.9090    28.6170    20.7910     2.2420   -22.9240    49.9510    25.9850 
  160.7500   149.9020    17.4170   -42.3000    61.2140    29.0400    28.7060    21.2500     2.2310   -22.9430    50.1070    25.9430 
  160.8750   150.0010    17.4360   -42.3740    62.3470    29.1480    28.8000    22.1700     2.2210   -22.9470    50.0380    25.9020 
  161.0000   150.1000    17.4550   -42.4480    63.2190    29.0250    28.7160    22.3370     2.2170   -22.9240    49.7580    25.7700 
  161.1250   150.1990    17.4730   -42.5220    65.2220    28.5400    28.3230    20.7430     2.2220   -22.8920    49.3720    25.5540 
  161.2500   150.2980    17.4920   -42.5950    66.8050    27.7040    27.5890    18.9100     2.2390   -22.8350    48.8580    25.3840 
  161.3750   150.3970    17.5110   -42.6690    66.1540    26.8320    26.7640    18.1550     2.2670   -22.7320    48.1670    25.2580 
  161.5000   150.4960    17.5290   -42.7430    64.1110    26.2250    26.1100    18.1000     2.3090   -22.6390    47.3910    25.0600 
  161.6250   150.5950    17.5480   -42.8170    61.5840    26.1320    25.8610    18.2990     2.3540   -22.6160    46.6520    24.7790 
  161.7500   150.6940    17.5660   -42.8910    59.0500    26.7400    26.2330    18.5170     2.3720   -22.5760    46.0170    24.5570 
  161.8750   150.7930    17.5850   -42.9650    57.1020    27.8100    27.0700    19.1840     2.3540   -22.4660    45.5350    24.6270 
  162.0000   150.8920    17.6040   -43.0380    56.1430    29.0670    28.1630    20.5690     2.3230   -22.3460    45.2400    25.0830 
  162.1250   150.9920    17.6220   -43.1120    55.4750    30.2000    29.2430    23.0650     2.3080   -22.2610    45.1510    25.7180 
  162.2500   151.0910    17.6410   -43.1860    55.3570    30.9180    30.0290    25.5150     2.3120   -22.2860    45.3720    26.2120 
  162.3750   151.1900    17.6600   -43.2600    56.9570    31.3000    30.5160    25.9310     2.3020   -22.3550    45.7960    26.6140 
  162.5000   151.2890    17.6780   -43.3340    58.9430    31.5490    30.8230    24.5580     2.2630   -22.4000    46.2040    27.0210 
  162.6250   151.3880    17.6970   -43.4080    58.6710    31.8710    31.1020    23.7290     2.2140   -22.4360    46.4590    27.4050 
  162.7500   151.4870    17.7150   -43.4810    56.6300    32.3620    31.4280    23.9720     2.1830   -22.4850    46.6180    27.7170 
  162.8750   151.5860    17.7340   -43.5550    55.3010    32.8830    31.7370    25.1060     2.1720   -22.5670    46.8280    27.9570 
  163.0000   151.6850    17.7530   -43.6290    56.3360    33.2880    31.9460    26.3520     2.1720   -22.6900    47.1750    28.1250 
  163.1250   151.7840    17.7710   -43.7030    59.3100    33.5200    32.0400    26.7860     2.1750   -22.7830    47.6140    28.3080 
  163.2500   151.8830    17.7900   -43.7770    61.6490    33.6880    32.1360    25.0780     2.1790   -22.7840    47.9050    28.5290 
  163.3750   151.9820    17.8080   -43.8510    61.4100    33.9910    32.4100    23.4950     2.1860   -22.8280    47.9860    28.6410 
