~V
VERS. 2.00: Ver 2.00
~W
STRT.M 20.0000:
STOP.M 217.0000:
STEP.M 0.1250:
NULL. -999.2500:
UWI. FD10571:
~C
DEPT.M :
TVD. :
DX. :
DY. :
DEN.GM/CC :
GR.API :
RML.OHMM :
RI. :
RXO.OHMM :
SP.MV :
~A
# ...
  120.3750   117.1440   -18.7640    -8.5460     2.5430    54.0300    65.0810    60.9640    47.1790   -11.2820 
  120.5000   117.2530   -18.8150    -8.5800     2.5510    55.6470    65.1310    61.0310    42.2730   -11.2390 
  120.6250   117.3610   -18.8670    -8.6130     2.5750    53.4020    66.2290    62.0800    43.2940   -11.1420 
  120.7500   117.4700   -18.9190    -8.6470     2.6120    51.8850    68.3770    64.1700    49.0920   -10.9900 
  120.8750   117.5790   -18.9700    -8.6810     2.6560    53.8140    71.2220    67.0590    58.9390   -10.7960 
  121.0000   117.6870   -19.0220    -8.7140     2.6980    56.2580    73.9870    70.0900    62.6960   -10.5920 
  121.1250   117.7960   -19.0730    -8.7480     2.7150    55.1720    75.3630    71.9690    65.6630   -10.4510 
  121.2500   117.9050   -19.1250    -8.7810     2.6940    54.5570    74.7640    71.9090    70.9070   -10.3390 
  121.3750   118.0130   -19.1770    -8.8150     2.6330    56.3390    72.1870    69.7590    76.8140   -10.1630 
  121.5000   118.1220   -19.2280    -8.8490     2.5510    58.6310    68.2570    66.0630    66.4440    -9.9440 
  121.6250   118.2310   -19.2800    -8.8820     2.4860    58.3060    64.0290    61.8630    44.1470    -9.7690 
  121.7500   118.3390   -19.3320    -8.9160     2.4670    56.9600    60.5070    58.2970    34.2720    -9.6560 
  121.8750   118.4480   -19.3830    -8.9490     2.4940    56.4850    58.1230    55.8780    33.3330    -9.5470 
  122.0000   118.5570   -19.4350    -8.9830     2.5490    56.9060    56.9110    54.6770    37.6520    -9.4240 
  122.1250   118.6660   -19.4870    -9.0170     2.5950    58.1390    56.7310    54.5970    40.7670    -9.2760 
  122.2500   118.7740   -19.5380    -9.0500     2.6030    57.9540    57.0430    55.0900    46.1390    -9.1220 
  122.3750   118.8830   -19.5900    -9.0840     2.5660    56.9230    57.5620    55.8190    47.2180    -8.9940 
  122.5000   118.9920   -19.6410    -9.1170     2.4990    56.4150    58.1060    56.5600    39.1880    -8.8330 
  122.6250   119.1000   -19.6930    -9.1510     2.4330    55.9060    58.5210    57.1630    34.4140    -8.5700 
  122.7500   119.2090   -19.7450    -9.1850     2.3980    53.7270    58.7000    57.5060    35.6310    -8.1960 
  122.8750   119.3180   -19.7960    -9.2180     2.4080    51.2080    58.5750    57.4960    44.3970    -7.8280 
  123.0000   119.4260   -19.8480    -9.2520     2.4560    50.5840    58.1820    57.1900    53.1460    -7.5240 
  123.1250   119.5350   -19.9000    -9.2850     2.5210    49.7450    57.6440    56.7480    52.3450    -7.2650 
  123.2500   119.6440   -19.9510    -9.3190     2.5690    47.9020    57.0910    56.2950    44.2090    -6.9900 
  123.3750   119.7520   -20.0030    -9.3530     2.5770    47.0550    56.5320    55.8190    45.7880    -6.6980 
  123.5000   119.8610   -20.0550    -9.3860     2.5450    48.0200    55.9360    55.2820    53.3130    -6.4270 
  123.6250   119.9700   -20.1060    -9.4200     2.4960    49.4090    55.3850    54.7080    49.4530    -6.1850 
  123.7500   120.0790   -20.1580    -9.4530     2.4720    48.9360    55.1580    54.3370    39.5310    -6.0500 
  123.8750   120.1870   -20.2090    -9.4870     2.4950    49.2720    55.6270    54.5740    34.5000    -6.0110 
  124.0000   120.2960   -20.2610    -9.5210     2.5660    51.2570    57.0490    55.8110    36.9630    -6.0000 
  124.1250   120.4050   -20.3130    -9.5540     2.6510    52.5180    59.3140    58.1930    45.7790    -5.9770 
  124.2500   120.5130   -20.3640    -9.5880     2.7000    51.7810    61.3850    60.7390    54.1980    -5.9890 
  124.3750   120.6220   -20.4160    -9.6210     2.6820    50.2390    62.1390    62.1630    58.9820    -6.0500 
  124.5000   120.7310   -20.4680    -9.6550     2.5950    49.0700    60.7900    61.3480    61.4290    -6.1500 
  124.6250   120.8390   -20.5190    -9.6890     2.4780    49.2410    57.2350    57.9270    52.8150    -6.2920 
  124.7500   120.9480   -20.5710    -9.7220     2.3950    51.4880    52.9720    53.5850    42.0650    -6.4170 
  124.8750   121.0570   -20.6230    -9.7560     2.3790    54.5720    49.1760    49.6860    33.8210    -6.4820 
  125.0000   121.1650   -20.6740    -9.7890     2.4270    56.0060    46.5690    47.0360    31.8690    -6.5130 
  125.1250   121.2740   -20.7260    -9.8230     2.5020    55.9800    45.4550    45.9880    37.9080    -6.5980 
  125.2500   121.3830   -20.7770    -9.8570     2.5580    56.6650    45.2230    45.9440    43.3530    -6.7190 
  125.3750   121.4920   -20.8290    -9.8900     2.5730    58.3490    45.3820    46.3960    40.4280    -6.8940 
  125.5000   121.6000   -20.8810    -9.9240     2.5510    60.0470    45.5260    46.8630    35.8070    -7.0820 
  125.6250   121.7090   -20.9320    -9.9570     2.5040    59.8070    45.4050    46.9970    35.0370    -7.2350 
  125.7500   121.8180   -20.9840    -9.9910     2.4610    57.9570    45.0380    46.8120    38.0030    -7.2850 
  125.8750   121.9260   -21.0360   -10.0240     2.4370    56.2060    44.4330    46.3280    38.0430    -7.2490 
  126.0000   122.0350   -21.0870   -10.0580     2.4420    55.5130    43.5430    45.4750    35.2510    -7.1820 
  126.1250   122.1440   -21.1390   -10.0920     2.4680    54.2580    42.2820    44.0840    37.0880    -7.0890 
  126.2500   122.2520   -21.1910   -10.1250     2.4980    52.6710    40.8390    42.3690    39.2690    -6.9900 
  126.3750   122.3610   -21.2420   -10.1590     2.5220    52.7460    39.5020    40.6870    36.8850    -6.9380 
  126.5000   122.4700   -21.2940   -10.1920     2.5390    54.4310    38.6150    39.4380    33.4300    -6.9470 
  126.6250   122.5780   -21.3450   -10.2260     2.5510    56.0180    38.5850    39.0670    30.7430    -6.9270 
  126.7500   122.6870   -21.3970   -10.2600     2.5590    55.5260    39.3850    39.5720    31.2480    -6.9150 
  126.8750   122.7960   -21.4490   -10.2930     2.5620    54.3730    40.9220    40.8830    35.9630    -6.9130 
  127.0000   122.9050   -21.5000   -10.3270     2.5620    53.4520    42.9930    42.7920    40.3570    -6.8540 
  127.1250   123.0130   -21.5520   -10.3600     2.5730    52.8040    45.3690    45.0640    40.4970    -6.7830 
  127.2500   123.1220   -21.6040   -10.3940     2.6060    53.0960    47.7550    47.4210    40.8740    -6.7260 
  127.3750   123.2310   -21.6550   -10.4280     2.6550    52.8810    49.9540    49.6780    44.6780    -6.5570 
  127.5000   123.3390   -21.7070   -10.4610     2.7050    49.5850    51.7510    51.6080    45.8250    -6.2990 
  127.6250   123.4480   -21.7580   -10.4950     2.7250    44.7210    52.7710    52.8070    47.9870    -6.0640 
  127.7500   123.5570   -21.8100   -10.5280     2.7110    44.4130    52.9250    53.0950    49.2410    -5.8510 
  127.8750   123.6650   -21.8620   -10.5620     2.6750    48.8060    52.2010    52.4010    46.3490    -5.6320 
  128.0000   123.7740   -21.9130   -10.5960     2.6400    52.7690    50.7460    50.9160    38.5710    -5.4310 
  128.1250   123.8830   -21.9650   -10.6290     2.6320    53.3470    48.6770    48.8620    35.6790    -5.2690 
  128.2500   123.9910   -22.0170   -10.6630     2.6510    53.2430    46.1770    46.4090    37.7800    -5.1070 
  128.3750   124.1000   -22.0680   -10.6960     2.6810    53.4500    43.2830    43.5380    39.8320    -5.0200 
  128.5000   124.2090   -22.1200   -10.7300     2.7010    53.0660    40.1190    40.3630    39.5710    -5.0460 
  128.6250   124.3180   -22.1720   -10.7640     2.6910    52.5390    36.9750    37.1800    35.0470    -5.1830 
  128.7500   124.4260   -22.2230   -10.7970     2.6620    53.4340    34.1870    34.3030    28.1370    -5.3810 
  128.8750   124.5350   -22.2750   -10.8310     2.6290    54.8600    31.9820    31.9620    23.3810    -5.6160 
  129.0000   124.6440   -22.3260   -10.8640     2.6110    54.4520    30.4820    30.3140    22.8050    -5.8580 
  129.1250   124.7520   -22.3780   -10.8980     2.6230    52.1520    29.7920    29.5030    25.2080    -5.9750 
  129.2500   124.8610   -22.4300   -10.9320     2.6570    51.0760    29.6720    29.2990    24.9240    -6.0360 
  129.3750   124.9700   -22.4810   -10.9650     2.7000    51.0770    29.9330    29.5140    24.9620    -6.1120 
