~V
VERS. 2.00: Ver 2.00
~W
STRT.M 13.0000:
STOP.M 216.0000:
STEP.M 0.1250:
NULL. -999.2500:
UWI. FD10578:
~C
DEPT.M :
TVD. :
DX. :
DY. :
GR.API :
RML.OHMM :
RI. :
RXO.OHMM :
DEN.GM/CC :
SP.MV :
~A
# ...
  149.8750   144.2870    26.5080    13.8230    50.4330    15.7690    13.0940    13.0770     2.5400   -13.6930 
  150.0000   144.3970    26.5620    13.8440    47.2280    15.8090    13.1450    12.6590     2.5670   -13.7590 
  150.1250   144.5020    26.6240    13.8730    46.8230    15.7820    13.1470    12.6460     2.5730   -13.8420 
  150.2500   144.6060    26.6860    13.9030    47.9670    15.6530    13.0520    12.4530     2.5560   -13.9340 
  150.3750   144.7110    26.7480    13.9320    47.7970    15.4450    12.8760    11.7380     2.5190   -14.0400 
  150.5000   144.8150    26.8100    13.9610    46.4340    15.2190    12.6750    11.0250     2.4740   -14.0580 
  150.6250   144.9200    26.8720    13.9900    45.5880    15.0650    12.5280    11.1310     2.4420   -14.1410 
  150.7500   145.0240    26.9340    14.0200    46.2250    15.0330    12.4830    12.0400     2.4360   -14.2070 
  150.8750   145.1290    26.9950    14.0490    48.5340    15.1580    12.5690    12.8100     2.4550   -14.3260 
  151.0000   145.2330    27.0570    14.0780    51.5310    15.4570    12.8050    12.9750     2.4880   -14.4090 
  151.1250   145.3380    27.1190    14.1080    53.3100    15.9300    13.2070    13.1830     2.5210   -14.4420 
  151.2500   145.4420    27.1810    14.1370    52.5330    16.4660    13.6870    13.8700     2.5400   -14.4930 
  151.3750   145.5470    27.2430    14.1660    50.4580    16.9490    14.1400    14.8360     2.5410   -14.5170 
  151.5000   145.6510    27.3050    14.1950    48.7470    17.2730    14.4650    15.0950     2.5290   -14.5760 
  151.6250   145.7560    27.3670    14.2250    48.7230    17.3590    14.5690    13.9160     2.5160   -14.5890 
  151.7500   145.8600    27.4290    14.2540    50.6800    17.3020    14.5210    12.2590     2.5140   -14.6460 
  151.8750   145.9650    27.4910    14.2830    53.7640    17.2180    14.4180    11.6200     2.5250   -14.6310 
  152.0000   146.0690    27.5530    14.3120    55.3780    17.2090    14.3620    12.2660     2.5410   -14.6380 
  152.1250   146.1740    27.6150    14.3420    53.2730    17.3360    14.4230    13.2880     2.5460   -14.6950 
  152.2500   146.2790    27.6770    14.3710    50.7490    17.5420    14.5670    13.1450     2.5330   -14.7470 
  152.3750   146.3830    27.7390    14.4000    49.7350    17.7690    14.7500    12.8800     2.5050   -14.8530 
  152.5000   146.4880    27.8010    14.4300    50.1270    17.9820    14.9350    13.0960     2.4760   -14.9100 
  152.6250   146.5920    27.8630    14.4590    50.6700    18.1960    15.1240    13.2510     2.4620   -14.9830 
  152.7500   146.6970    27.9240    14.4880    50.6890    18.4570    15.3630    13.3390     2.4680   -15.0810 
  152.8750   146.8010    27.9860    14.5170    48.7090    18.7970    15.6910    13.8130     2.4890   -15.2000 
  153.0000   146.9060    28.0480    14.5470    45.7460    19.2130    16.1080    14.9930     2.5140   -15.3410 
  153.1250   147.0100    28.1100    14.5760    46.2430    19.6610    16.5820    16.5140     2.5300   -15.4070 
  153.2500   147.1150    28.1720    14.6050    49.2800    20.0490    17.0320    17.7820     2.5340   -15.4810 
  153.3750   147.2190    28.2340    14.6340    51.0150    20.2870    17.3720    18.0320     2.5270   -15.5430 
  153.5000   147.3240    28.2960    14.6640    49.4330    20.2930    17.5170    17.5200     2.5150   -15.6040 
  153.6250   147.4280    28.3580    14.6930    46.6950    19.9910    17.3780    17.6540     2.5110   -15.6700 
  153.7500   147.5330    28.4200    14.7220    45.5040    19.4790    17.0230    17.2150     2.5170   -15.6480 
  153.8750   147.6370    28.4820    14.7520    46.3720    18.8570    16.5400    16.4330     2.5340   -15.6590 
  154.0000   147.7420    28.5440    14.7810    49.0220    18.2340    16.0290    15.8130     2.5520   -15.6310 
  154.1250   147.8460    28.6060    14.8100    50.9470    17.6970    15.5660    14.7010     2.5530   -15.6570 
  154.2500   147.9510    28.6680    14.8390    50.7220    17.2520    15.1640    13.9720     2.5340   -15.7190 
  154.3750   148.0550    28.7300    14.8690    48.8030    16.8890    14.8210    13.4810     2.5040   -15.7800 
  154.5000   148.1600    28.7920    14.8980    48.3180    16.6040    14.5410    13.1060     2.4810   -15.9210 
  154.6250   148.2640    28.8530    14.9270    53.2150    16.4390    14.3690    12.8350     2.4840   -16.0570 
  154.7500   148.3690    28.9150    14.9570    59.8530    16.4290    14.3380    12.7620     2.5020   -16.2590 
  154.8750   148.4730    28.9770    14.9860    64.8770    16.6180    14.4890    13.4910     2.5120   -16.4680 
  155.0000   148.5780    29.0390    15.0150    67.8930    17.0340    14.8460    14.5140     2.4930   -16.7730 
  155.1250   148.6820    29.1010    15.0440    69.5610    17.7060    15.4360    15.2010     2.4380   -17.0520 
  155.2500   148.7870    29.1630    15.0740    70.5500    18.5600    16.1920    16.0360     2.3700   -17.2920 
  155.3750   148.8910    29.2250    15.1030    70.1050    19.5510    17.0650    16.9960     2.3100   -17.5640 
  155.5000   148.9960    29.2870    15.1320    69.1170    20.6370    18.0110    17.7370     2.2700   -17.7930 
  155.6250   149.1000    29.3490    15.1610    69.4090    21.7970    19.0110    18.9440     2.2500   -18.0300 
  155.7500   149.2050    29.4110    15.1910    69.1610    22.9850    20.0460    21.0230     2.2400   -18.2500 
  155.8750   149.3090    29.4730    15.2200    67.2620    24.1530    21.0860    24.0110     2.2370   -18.4430 
  156.0000   149.4140    29.5350    15.2490    65.6010    25.2330    22.0650    26.0820     2.2380   -18.5750 
  156.1250   149.5180    29.5970    15.2790    68.3500    26.1310    22.8870    27.4580     2.2430   -18.6760 
  156.2500   149.6230    29.6590    15.3080    72.1780    26.8570    23.5490    27.1750     2.2500   -18.7820 
  156.3750   149.7270    29.7210    15.3370    71.2250    27.4680    24.0830    25.4820     2.2560   -18.8670 
  156.5000   149.8320    29.7820    15.3660    67.8630    28.0780    24.5870    24.7420     2.2650   -18.9350 
  156.6250   149.9360    29.8440    15.3960    66.5970    28.8650    25.2360    26.2870     2.2860   -18.9840 
  156.7500   150.0410    29.9060    15.4250    65.2780    29.9050    26.1340    29.1860     2.3180   -18.9930 
  156.8750   150.1450    29.9680    15.4540    62.4810    31.1850    27.2990    31.3920     2.3530   -19.0150 
  157.0000   150.2500    30.0300    15.4830    59.5050    32.5920    28.6560    31.2260     2.3720   -19.0410 
  157.1250   150.3540    30.0920    15.5130    59.6880    33.9070    30.0220    30.9600     2.3580   -19.0670 
  157.2500   150.4590    30.1540    15.5420    62.1190    34.9560    31.1800    31.7050     2.3220   -19.1380 
  157.3750   150.5630    30.2160    15.5710    65.5260    35.6760    32.0290    30.8410     2.2790   -19.1750 
  157.5000   150.6680    30.2780    15.6010    68.7600    36.1140    32.5940    29.8910     2.2460   -19.2520 
  157.6250   150.7720    30.3400    15.6300    69.5790    36.3960    32.9720    29.8700     2.2330   -19.2890 
  157.7500   150.8770    30.4020    15.6590    67.6400    36.6850    33.3290    31.1790     2.2340   -19.3750 
  157.8750   150.9810    30.4640    15.6880    63.4550    37.0240    33.7290    33.6570     2.2420   -19.4470 
  158.0000   151.0860    30.5260    15.7180    59.6450    37.3530    34.1360    36.6020     2.2510   -19.4630 
  158.1250   151.1900    30.5880    15.7470    58.7240    37.4950    34.3710    37.0600     2.2630   -19.5050 
  158.2500   151.2950    30.6500    15.7760    59.2840    37.3720    34.3390    34.0670     2.2760   -19.5070 
  158.3750   151.3990    30.7110    15.8060    60.3290    37.0280    34.0710    28.9770     2.2880   -19.5350 
  158.5000   151.5040    30.7730    15.8350    62.0850    36.6450    33.7350    24.7900     2.2980   -19.5070 
  158.6250   151.6080    30.8350    15.8640    63.1400    36.5650    33.6520    22.3310     2.3000   -19.4540 
  158.7500   151.7130    30.8970    15.8930    62.9870    37.0020    34.0470    22.4210     2.2960   -19.3880 
  158.8750   151.8170    30.9590    15.9230    63.0870    38.0350    35.0400    24.7010     2.2860   -19.3090 
