~V
VERS. 2.00: Ver 2.00
~W
STRT.M 11.0000:
STOP.M 231.0000:
STEP.M 0.1250:
NULL. -999.2500:
UWI. FD10589:
~C
DEPT.M :
TVD. :
DX. :
DY. :
GR.API :
RML.OHMM :
RI. :
RXO.OHMM :
DEN.GM/CC :
SP.MV :
R2M. :
R025. :
~A
# ...
  171.1250   158.1260    18.9630   -48.4290    54.0950    23.7870    23.5520    17.8560     2.2310   -24.8080    41.3780    23.6170 
  171.2500   158.2250    18.9810   -48.5030    54.7010    25.0300    24.5130    17.4700     2.2270   -25.0620    40.0030    23.8530 
  171.3750   158.3240    19.0000   -48.5770    55.4730    27.2770    26.5160    18.7350     2.2440   -25.3560    38.8070    24.3810 
  171.5000   158.4240    19.0190   -48.6510    56.1770    30.1900    29.3130    19.9380     2.2560   -25.5950    38.3070    25.2340 
  171.6250   158.5230    19.0370   -48.7240    56.9380    33.2560    32.4080    18.7940     2.2440   -25.7830    38.6010    26.3980 
  171.7500   158.6220    19.0560   -48.7980    56.3740    35.7880    35.0560    17.3750     2.2070   -25.9900    39.3380    27.8060 
  171.8750   158.7210    19.0740   -48.8720    54.6800    37.5030    36.8740    17.4890     2.1700   -26.2030    39.9130    29.1650 
  172.0000   158.8200    19.0930   -48.9460    54.9720    38.4600    37.8650    19.3050     2.1490   -26.4080    40.1560    30.3330 
  172.1250   158.9190    19.1120   -49.0200    59.1800    38.9930    38.3290    21.0820     2.1460   -26.6060    40.2010    31.3370 
  172.2500   159.0180    19.1300   -49.0940    61.9620    39.5900    38.7000    20.9100     2.1650   -26.7320    40.3650    32.1170 
  172.3750   159.1170    19.1490   -49.1670    59.7730    40.5590    39.3100    20.4520     2.1960   -26.8120    40.9540    32.7040 
  172.5000   159.2160    19.1670   -49.2410    55.8330    41.9600    40.2650    20.6620     2.2280   -26.8700    42.1340    33.3100 
  172.6250   159.3150    19.1860   -49.3150    54.7680    43.6900    41.5360    21.7790     2.2480   -26.9220    43.8670    34.0830 
  172.7500   159.4140    19.2050   -49.3890    57.3560    45.5480    43.0130    22.7850     2.2500   -27.0070    46.0320    34.9910 
  172.8750   159.5140    19.2230   -49.4630    59.1070    47.3740    44.5450    24.0860     2.2420   -27.0980    48.3120    36.0030 
  173.0000   159.6130    19.2420   -49.5370    58.3950    49.2520    46.1660    24.9120     2.2360   -27.1760    50.4200    37.1650 
  173.1250   159.7120    19.2610   -49.6100    56.2510    51.5000    48.0960    24.1980     2.2380   -27.2380    52.2050    38.3840 
  173.2500   159.8110    19.2790   -49.6840    55.0140    54.6670    50.7920    22.4210     2.2450   -27.2650    53.7220    39.5370 
  173.3750   159.9100    19.2980   -49.7580    55.9740    58.7110    54.2730    20.5300     2.2460   -27.2590    55.1990    40.6320 
  173.5000   160.0090    19.3160   -49.8320    57.7340    63.1980    58.2140    19.6980     2.2400   -27.2890    56.8620    41.6810 
  173.6250   160.1080    19.3350   -49.9060    58.7560    67.1890    61.8350    20.9300     2.2370   -27.3340    58.9630    42.7380 
  173.7500   160.2070    19.3540   -49.9800    59.5950    69.0420    63.7390    23.3390     2.2420   -27.2840    61.7140    43.6580 
  173.8750   160.3060    19.3720   -50.0540    60.3740    68.2700    63.4030    25.7190     2.2460   -27.1500    64.9640    44.1440 
  174.0000   160.4050    19.3910   -50.1270    60.4970    65.2290    60.9900    27.2920     2.2370   -27.0080    68.5580    44.1000 
  174.1250   160.5040    19.4090   -50.2010    58.8690    61.0490    57.3620    26.5890     2.2130   -26.8690    72.1000    43.6130 
  174.2500   160.6040    19.4280   -50.2750    58.0550    57.1640    53.7150    23.7960     2.1950   -26.7740    74.9290    42.7650 
  174.3750   160.7030    19.4470   -50.3490    59.5310    54.4520    50.9310    21.3730     2.1900   -26.7620    76.9250    41.8340 
  174.5000   160.8020    19.4650   -50.4230    61.4970    53.1630    49.3230    19.9190     2.1930   -26.8090    78.2270    41.0720 
  174.6250   160.9010    19.4840   -50.4970    63.1440    53.1360    48.8430    20.0360     2.1930   -26.8800    79.1750    40.5150 
  174.7500   161.0000    19.5030   -50.5700    64.1070    54.0490    49.2780    22.3980     2.1900   -26.9670    80.3000    40.1010 
  174.8750   161.0990    19.5210   -50.6440    64.3730    55.2780    50.0720    26.4240     2.1860   -27.0780    81.7670    39.9100 
  175.0000   161.1980    19.5400   -50.7180    62.5760    56.4930    50.9220    29.3720     2.1870   -27.2030    83.4080    39.9770 
  175.1250   161.2970    19.5580   -50.7920    59.4330    57.4760    51.6180    28.3870     2.1970   -27.3610    85.1420    40.1550 
  175.2500   161.3960    19.5770   -50.8660    56.7530    58.0630    51.9410    24.9660     2.2240   -27.5670    87.1010    40.2450 
  175.3750   161.4950    19.5960   -50.9400    55.0820    58.3190    51.8500    23.1510     2.2680   -27.7660    89.3430    40.1800 
  175.5000   161.5940    19.6140   -51.0130    54.0730    58.4330    51.4640    22.3570     2.3280   -27.9200    91.9600    40.0630 
  175.6250   161.6940    19.6330   -51.0870    53.6990    58.7550    51.1600    22.5560     2.4030   -28.0370    94.9350    40.0690 
  175.7500   161.7930    19.6510   -51.1610    53.7110    59.6300    51.5100    23.2550     2.4920   -28.1500    98.0880    40.1430 
  175.8750   161.8920    19.6700   -51.2350    52.0340    60.6660    52.4610    25.5340     2.5800   -28.2560   101.4580    40.0480 
  176.0000   161.9910    19.6890   -51.3090    48.4530    60.9870    53.4190    31.0760     2.6440   -28.3350   105.3540    39.7310 
  176.1250   162.0900    19.7070   -51.3830    45.7380    59.7240    53.5300    41.1820     2.6730   -28.3590   110.0580    39.1900 
  176.2500   162.1890    19.7260   -51.4570    46.8390    56.4790    52.0050    52.8740     2.6900   -28.2970   116.0720    38.1610 
  176.3750   162.2880    19.7450   -51.5300    51.8200    52.0090    49.0590    52.8270     2.7110   -28.1910   123.1650    36.3880 
  176.5000   162.3870    19.7630   -51.6040    60.3780    46.4090    44.5800    41.0310     2.7080   -28.0440   130.2950    33.6820 
  176.6250   162.4860    19.7820   -51.6780    70.4070    39.4350    38.2760    29.9180     2.6420   -27.8520   135.6880    30.2190 
  176.7500   162.5850    19.8000   -51.7520    75.8750    31.1300    30.2640    26.9550     2.5200   -27.6030   137.1790    26.4780 
  176.8750   162.6850    19.8190   -51.8260    75.2990    22.8690    22.2330    24.6770     2.4030   -27.2890   135.0340    22.4910 
  177.0000   162.7840    19.8380   -51.9000    72.7400    15.8770    15.5140    20.0870     2.3130   -26.9210   129.8180    17.9550 
  177.1250   162.8830    19.8560   -51.9730    71.9060    10.8270    10.9060    12.1650     2.2530   -26.5140   121.6790    13.2840 
  177.2500   162.9820    19.8750   -52.0470    71.5150     7.9210     7.9930     7.3630     2.2240   -26.0430   108.9180     9.8310 
  177.3750   163.0810    19.8930   -52.1210    72.1530     6.3560     6.3010     5.8930     2.2250   -25.5270    91.5300     7.8400 
  177.5000   163.1800    19.9120   -52.1950    77.6120     5.7310     5.4730     5.5630     2.2520   -25.0300    71.0740     6.8380 
  177.6250   163.2790    19.9310   -52.2690    87.0240     5.7710     5.2880     5.3720     2.2950   -24.6020    50.8880     6.3640 
  177.7500   163.3780    19.9490   -52.3430    91.9800     6.3180     5.6530     5.3260     2.3360   -24.2860    35.5540     6.1990 
  177.8750   163.4770    19.9680   -52.4170    88.5640     7.1010     6.3420     5.9290     2.3670   -24.0920    25.9270     6.1700 
  178.0000   163.5760    19.9870   -52.4900    82.1630     7.9440     7.2140     7.1480     2.3890   -23.9980    20.8540     6.3390 
  178.1250   163.6750    20.0050   -52.5640    77.8550     8.6870     8.1110     8.4120     2.4080   -23.9970    18.4040     6.7220 
  178.2500   163.7750    20.0240   -52.6380    76.0500     9.1670     8.8160     8.8760     2.4290   -24.0880    17.2530     7.1670 
  178.3750   163.8740    20.0420   -52.7120    74.4510     9.3940     9.2370     8.7970     2.4470   -24.2710    16.5210     7.5580 
  178.5000   163.9730    20.0610   -52.7860    74.8340     9.4280     9.3770     8.4310     2.4570   -24.5040    15.9560     7.8470 
  178.6250   164.0720    20.0800   -52.8600    78.7390     9.3560     9.3140     7.9150     2.4530   -24.7520    15.4810     7.9900 
