~V
VERS. 2.00: Ver 2.00
~W
STRT.M 13.0000:
STOP.M 216.0000:
STEP.M 0.1250:
NULL. -999.2500:
UWI. FD10578:
~C
DEPT.M :
TVD. :
DX. :
DY. :
GR.API :
RML.OHMM :
RI. :
RXO.OHMM :
DEN.GM/CC :
SP.MV :
~A
# ...
  140.7500   136.1980    22.6020    12.2520    52.8090    19.5660    16.7750    13.3190     2.5160    -5.1500 
  140.8750   136.3080    22.6550    12.2740    55.5630    19.2580    16.4810    13.4770     2.5420    -5.0770 
  141.0000   136.4190    22.7090    12.2950    55.0420    19.2320    16.4090    14.8200     2.5610    -5.0140 
  141.1250   136.5300    22.7620    12.3170    51.8140    19.6400    16.6910    16.1190     2.5480    -4.9500 
  141.2500   136.6410    22.8160    12.3380    50.4450    20.4120    17.2870    17.2570     2.5050    -4.9390 
  141.3750   136.7520    22.8690    12.3600    51.1030    21.4640    18.1500    18.0540     2.4460    -4.9740 
  141.5000   136.8620    22.9230    12.3810    51.8470    22.6300    19.1650    18.0120     2.3960    -5.0220 
  141.6250   136.9730    22.9760    12.4030    52.3430    23.6110    20.1090    17.3240     2.3870    -5.1760 
  141.7500   137.0840    23.0300    12.4240    52.0720    24.1430    20.7210    17.1370     2.4160    -5.3430 
  141.8750   137.1950    23.0830    12.4460    50.8030    24.0680    20.8130    17.6710     2.4620    -5.5430 
  142.0000   137.3060    23.1370    12.4670    49.8890    23.4100    20.3520    17.2730     2.4960    -5.7610 
  142.1250   137.4160    23.1900    12.4890    50.1030    22.3630    19.4830    16.1670     2.4890    -6.0730 
  142.2500   137.5270    23.2440    12.5100    49.9610    21.3300    18.5750    15.5660     2.4550    -6.3670 
  142.3750   137.6380    23.2970    12.5320    49.9790    20.5570    17.8510    15.3560     2.4150    -6.6480 
  142.5000   137.7490    23.3510    12.5530    52.1450    20.1650    17.4380    15.7070     2.3920    -6.9820 
  142.6250   137.8600    23.4050    12.5750    55.0690    20.1910    17.4070    16.3000     2.4020    -7.3430 
  142.7500   137.9710    23.4580    12.5960    55.5160    20.4500    17.6130    17.1720     2.4330    -7.7950 
  142.8750   138.0810    23.5120    12.6180    54.3400    20.8120    17.9340    18.3590     2.4710    -8.2680 
  143.0000   138.1920    23.5650    12.6390    53.2850    21.1850    18.2680    18.5270     2.5030    -8.7230 
  143.1250   138.3030    23.6190    12.6610    53.3170    21.5070    18.5530    18.3080     2.5180    -9.1820 
  143.2500   138.4140    23.6720    12.6820    54.4190    21.7460    18.7630    17.9800     2.5140    -9.6450 
  143.3750   138.5250    23.7260    12.7040    54.8740    21.8510    18.8580    17.8080     2.4950   -10.1420 
  143.5000   138.6350    23.7790    12.7250    52.8980    21.7690    18.7910    18.3260     2.4690   -10.5950 
  143.6250   138.7460    23.8330    12.7470    50.8970    21.4500    18.5080    18.2010     2.4520   -10.9660 
  143.7500   138.8570    23.8860    12.7680    51.3480    21.0060    18.0960    17.5270     2.4530   -11.2490 
  143.8750   138.9680    23.9400    12.7900    52.1380    20.5850    17.6730    16.3840     2.4690   -11.4930 
  144.0000   139.0790    23.9930    12.8110    52.3660    20.3530    17.3810    16.3120     2.4910   -11.7550 
  144.1250   139.1890    24.0470    12.8330    54.2860    20.4960    17.3830    17.4350     2.5030   -11.9280 
  144.2500   139.3000    24.1000    12.8540    55.2880    20.9590    17.6700    18.7120     2.5020   -12.1410 
  144.3750   139.4110    24.1540    12.8760    53.8480    21.6090    18.1650    19.0130     2.4900   -12.3220 
  144.5000   139.5220    24.2070    12.8970    52.4290    22.2400    18.7060    18.9390     2.4760   -12.5280 
  144.6250   139.6330    24.2610    12.9190    52.9130    22.5950    19.0550    19.5720     2.4730   -12.7480 
  144.7500   139.7430    24.3140    12.9400    52.3190    22.6350    19.1280    19.9690     2.4820   -12.9150 
  144.8750   139.8540    24.3680    12.9620    50.3550    22.4390    18.9760    19.3210     2.4980   -13.0230 
  145.0000   139.9650    24.4210    12.9840    50.3210    22.1600    18.7270    18.4860     2.5100   -13.1170 
  145.1250   140.0760    24.4750    13.0050    52.7930    21.9600    18.5300    18.3790     2.5080   -13.2140 
  145.2500   140.1870    24.5280    13.0270    55.5180    21.8640    18.4310    19.1800     2.4950   -13.2090 
  145.3750   140.2970    24.5820    13.0480    56.9680    21.8000    18.3870    19.5400     2.4760   -13.1920 
  145.5000   140.4080    24.6350    13.0700    56.2410    21.6530    18.3080    18.1570     2.4630   -13.1000 
  145.6250   140.5190    24.6890    13.0910    54.9310    21.3070    18.0870    16.8580     2.4630   -13.0470 
  145.7500   140.6300    24.7420    13.1130    55.3640    20.8090    17.7300    16.7540     2.4740   -12.9900 
  145.8750   140.7410    24.7960    13.1340    57.4290    20.2660    17.3140    16.9540     2.4910   -12.9590 
  146.0000   140.8520    24.8490    13.1560    58.5160    19.8130    16.9520    17.2450     2.5040   -12.9590 
  146.1250   140.9620    24.9030    13.1770    56.2730    19.5600    16.7500    17.1810     2.5060   -12.9170 
  146.2500   141.0730    24.9560    13.1990    53.7670    19.4290    16.6560    16.9610     2.4950   -12.9240 
  146.3750   141.1840    25.0100    13.2200    52.5760    19.2740    16.5590    16.6110     2.4770   -12.8910 
  146.5000   141.2950    25.0630    13.2420    52.2480    18.9210    16.3110    16.1260     2.4590   -12.8710 
  146.6250   141.4060    25.1170    13.2630    51.7010    18.1990    15.7350    15.4380     2.4510   -12.7960 
  146.7500   141.5160    25.1710    13.2850    51.4630    17.2050    14.8940    14.3580     2.4520   -12.7170 
  146.8750   141.6270    25.2240    13.3060    52.0010    16.1150    13.9390    13.0330     2.4610   -12.6580 
  147.0000   141.7380    25.2780    13.3280    51.0960    15.1500    13.0650    12.1780     2.4710   -12.5190 
  147.1250   141.8490    25.3310    13.3490    48.6260    14.5580    12.4780    11.4630     2.4760   -12.4490 
  147.2500   141.9600    25.3850    13.3710    47.9080    14.3590    12.2080    10.9720     2.4760   -12.3440 
  147.3750   142.0700    25.4380    13.3920    47.9240    14.5050    12.2340    10.7650     2.4750   -12.2510 
  147.5000   142.1810    25.4920    13.4140    45.9840    14.8810    12.4820    10.7570     2.4790   -12.1410 
  147.6250   142.2920    25.5450    13.4350    44.0220    15.3560    12.8570    11.6790     2.4970   -12.0380 
  147.7500   142.4030    25.5990    13.4570    47.3550    15.8110    13.2460    12.4730     2.5220   -11.9830 
  147.8750   142.5140    25.6520    13.4780    52.7060    16.2150    13.6110    13.3530     2.5450   -11.9220 
  148.0000   142.6240    25.7060    13.5000    54.1330    16.5650    13.9350    14.2000     2.5550   -11.9390 
  148.1250   142.7350    25.7590    13.5210    51.8130    16.8480    14.1940    14.9350     2.5430   -11.9260 
  148.2500   142.8460    25.8130    13.5430    49.5690    17.0470    14.3650    15.4360     2.5170   -11.9610 
  148.3750   142.9570    25.8660    13.5640    47.9630    17.1390    14.4220    15.3660     2.4890   -12.0160 
  148.5000   143.0680    25.9200    13.5860    45.7440    17.1350    14.3720    14.8610     2.4700   -12.1410 
  148.6250   143.1780    25.9730    13.6070    44.2580    17.0910    14.2720    14.2350     2.4720   -12.2690 
  148.7500   143.2890    26.0270    13.6290    45.6910    17.0810    14.2110    14.4980     2.4910   -12.4230 
  148.8750   143.4000    26.0800    13.6500    48.6490    17.1220    14.2180    15.2120     2.5160   -12.6290 
  149.0000   143.5110    26.1340    13.6720    49.5190    17.1650    14.2540    15.3850     2.5310   -12.7920 
  149.1250   143.6220    26.1870    13.6930    47.8470    17.1030    14.2240    15.0420     2.5220   -12.9900 
  149.2500   143.7320    26.2410    13.7150    48.0510    16.8900    14.0690    14.3190     2.4990   -13.1260 
  149.3750   143.8430    26.2940    13.7360    50.0480    16.5520    13.7940    13.5220     2.4750   -13.2560 
  149.5000   143.9540    26.3480    13.7580    51.3790    16.1760    13.4700    12.7730     2.4650   -13.4070 
  149.6250   144.0650    26.4010    13.7790    52.1380    15.9000    13.2180    12.8970     2.4790   -13.5480 
  149.7500   144.1760    26.4550    13.8010    52.3650    15.7730    13.0960    13.4070     2.5080   -13.6530 
