~V
VERS. 2.00: Ver 2.00
~W
STRT.M 13.0000:
STOP.M 216.0000:
STEP.M 0.1250:
NULL. -999.2500:
UWI. FD10578:
~C
DEPT.M :
TVD. :
DX. :
DY. :
GR.API :
RML.OHMM :
RI. :
RXO.OHMM :
DEN.GM/CC :
SP.MV :
~A
# ...
  113.3750   111.5420    11.7880     7.7680    53.5390    36.8030    35.2070    34.2260     2.5600    -9.1800 
  113.5000   111.6600    11.8240     7.7860    56.0400    29.9270    28.6070    27.6900     2.5460    -9.2500 
  113.6250   111.7790    11.8610     7.8030    61.5690    24.3670    23.3600    21.1880     2.5210    -9.3440 
  113.7500   111.8970    11.8970     7.8200    66.8510    20.5640    19.8180    16.7190     2.5000    -9.3820 
  113.8750   112.0150    11.9340     7.8370    68.4980    18.5040    17.8870    15.2060     2.4870    -9.4390 
  114.0000   112.1330    11.9700     7.8550    65.2700    17.9600    17.3530    16.6660     2.4800    -9.4700 
  114.1250   112.2510    12.0070     7.8720    60.3590    18.8000    18.1900    21.8470     2.4770    -9.4610 
  114.2500   112.3690    12.0430     7.8890    57.8670    20.5070    19.9800    24.7210     2.4810    -9.4480 
  114.3750   112.4870    12.0790     7.9060    58.4930    22.8530    22.4860    23.8260     2.4980    -9.4020 
  114.5000   112.6060    12.1160     7.9230    60.8610    25.6620    25.4950    22.0850     2.5350    -9.3730 
  114.6250   112.7240    12.1520     7.9410    62.0500    28.6360    28.8020    24.8700     2.5860    -9.2890 
  114.7500   112.8420    12.1890     7.9580    63.0280    31.0000    31.7440    30.7370     2.6280    -9.2500 
  114.8750   112.9600    12.2250     7.9750    64.6530    31.7180    33.1100    33.6360     2.6440    -9.2240 
  115.0000   113.0780    12.2620     7.9920    66.6250    29.9320    31.5020    30.6020     2.6240    -9.1710 
  115.1250   113.1960    12.2980     8.0100    67.8950    25.4040    26.3310    30.2960     2.5720    -9.2170 
  115.2500   113.3140    12.3340     8.0270    70.2460    19.9130    20.1580    22.0070     2.5030    -9.2810 
  115.3750   113.4330    12.3710     8.0440    75.5100    14.9690    14.9500    13.4450     2.4310    -9.3580 
  115.5000   113.5510    12.4070     8.0610    82.6340    11.5700    11.5240     8.7110     2.3700    -9.3820 
  115.6250   113.6690    12.4440     8.0780    85.7270    10.3860    10.0880     7.3270     2.3440    -9.4850 
  115.7500   113.7870    12.4800     8.0960    82.5350    11.1010    10.1540     8.1940     2.3630    -9.5750 
  115.8750   113.9050    12.5160     8.1130    74.7690    13.7080    11.7910    12.6230     2.4220    -9.6260 
  116.0000   114.0230    12.5530     8.1300    66.1160    18.1600    15.2570    20.4500     2.5020    -9.6980 
  116.1250   114.1410    12.5890     8.1470    59.6810    24.2010    20.9540    31.9150     2.5740    -9.7860 
  116.2500   114.2590    12.6260     8.1640    55.5460    30.4080    27.6700    37.4730     2.6250    -9.9130 
  116.3750   114.3780    12.6620     8.1820    53.1450    35.3560    33.5320    36.0650     2.6600    -9.9950 
  116.5000   114.4960    12.6990     8.1990    51.9870    38.0030    36.7910    32.2710     2.6880   -10.1020 
  116.6250   114.6140    12.7350     8.2160    52.6190    37.9960    36.8580    32.4220     2.7080   -10.2190 
  116.7500   114.7320    12.7710     8.2330    54.6950    36.7490    35.4710    34.4470     2.7090   -10.3440 
  116.8750   114.8500    12.8080     8.2510    56.6070    35.3130    33.7480    33.6190     2.6830   -10.5090 
  117.0000   114.9680    12.8440     8.2680    57.0590    34.3800    32.3490    29.1790     2.6300   -10.6470 
  117.1250   115.0860    12.8810     8.2850    56.6370    34.3680    31.6810    28.1030     2.5690   -10.7090 
  117.2500   115.2050    12.9170     8.3020    57.7730    35.1100    31.6830    28.0140     2.5230   -10.7530 
  117.3750   115.3230    12.9540     8.3190    60.1680    36.4250    32.2850    27.3910     2.5040   -10.8430 
  117.5000   115.4410    12.9900     8.3370    61.9760    38.0630    33.3550    27.2250     2.5110   -10.9900 
  117.6250   115.5590    13.0260     8.3540    62.1160    39.7470    34.7090    28.3240     2.5290   -11.0760 
  117.7500   115.6770    13.0630     8.3710    61.8600    41.2940    36.0890    28.7150     2.5390   -11.1400 
  117.8750   115.7950    13.0990     8.3880    61.4810    42.6880    37.4190    29.3560     2.5370   -11.1770 
  118.0000   115.9130    13.1360     8.4050    60.2080    43.9850    38.7180    32.6320     2.5260   -11.2270 
  118.1250   116.0320    13.1720     8.4230    58.0500    45.2390    39.9940    36.7260     2.5120   -11.3150 
  118.2500   116.1500    13.2080     8.4400    55.0590    46.4810    41.2330    37.6880     2.4980   -11.3590 
  118.3750   116.2680    13.2450     8.4570    53.0780    47.7250    42.4600    36.5780     2.4870   -11.3970 
  118.5000   116.3860    13.2810     8.4740    54.3430    48.9790    43.7050    34.5630     2.4790   -11.3330 
  118.6250   116.5040    13.3180     8.4920    57.5610    50.2080    44.9450    34.5960     2.4790   -11.2800 
  118.7500   116.6220    13.3540     8.5090    58.6810    51.3330    46.1050    34.3460     2.4860   -11.2190 
  118.8750   116.7400    13.3910     8.5260    58.0490    52.2430    47.0950    37.1070     2.4970   -11.1240 
  119.0000   116.8580    13.4270     8.5430    58.7730    52.8200    47.7990    41.2430     2.5070   -10.9900 
  119.1250   116.9770    13.4630     8.5600    61.4400    52.9150    48.0340    41.2310     2.5150   -10.8340 
  119.2500   117.0950    13.5000     8.5780    60.4500    52.6340    47.8780    36.4200     2.5220   -10.6910 
  119.3750   117.2130    13.5360     8.5950    55.8190    52.1210    47.4580    35.2730     2.5330   -10.4830 
  119.5000   117.3310    13.5730     8.6120    51.8340    51.5720    46.9650    34.9650     2.5470   -10.3400 
  119.6250   117.4490    13.6090     8.6290    52.0760    51.2200    46.6490    31.9350     2.5580   -10.2560 
  119.7500   117.5670    13.6460     8.6470    53.6340    51.1610    46.6330    28.9710     2.5620   -10.2120 
  119.8750   117.6850    13.6820     8.6640    54.4020    51.4340    46.9380    27.8510     2.5590   -10.1750 
  120.0000   117.8040    13.7180     8.6810    54.6210    52.0600    47.5640    27.2810     2.5580   -10.1290 
  120.1250   117.9140    13.7720     8.7020    54.1440    53.0690    48.5940    27.3360     2.5730   -10.1240 
  120.2500   118.0250    13.8250     8.7240    52.6410    54.2310    49.8610    29.7060     2.6090   -10.0940 
  120.3750   118.1360    13.8790     8.7450    50.7430    55.2220    51.0340    31.7680     2.6560   -10.0830 
  120.5000   118.2470    13.9320     8.7670    49.4970    55.6680    51.6970    33.7630     2.6920   -10.0500 
  120.6250   118.3580    13.9860     8.7890    49.4770    55.1770    51.4070    34.3780     2.6910    -9.9550 
  120.7500   118.4680    14.0390     8.8100    50.7490    53.9380    50.3080    32.5070     2.6550    -9.8520 
  120.8750   118.5790    14.0930     8.8320    53.3400    52.2560    48.6820    29.9800     2.6050    -9.7090 
  121.0000   118.6900    14.1460     8.8530    55.3300    50.5400    46.9490    29.2710     2.5620    -9.6630 
  121.1250   118.8010    14.2000     8.8750    54.8320    49.2630    45.6020    28.9410     2.5460    -9.6230 
  121.2500   118.9120    14.2540     8.8960    53.3730    48.6000    44.8560    27.8000     2.5500    -9.5750 
  121.3750   119.0220    14.3070     8.9180    51.9330    48.5820    44.7760    25.1700     2.5590    -9.5330 
  121.5000   119.1330    14.3610     8.9390    50.2510    49.1100    45.2790    23.3150     2.5610    -9.5220 
  121.6250   119.2440    14.4140     8.9610    48.7900    50.0490    46.2310    24.4220     2.5540    -9.5290 
  121.7500   119.3550    14.4680     8.9820    49.1910    51.1250    47.3760    27.0730     2.5550    -9.4960 
  121.8750   119.4660    14.5210     9.0040    51.1370    52.1380    48.5450    30.8240     2.5750    -9.5220 
  122.0000   119.5760    14.5750     9.0250    52.9850    52.8680    49.5020    34.3660     2.6150    -9.5050 
  122.1250   119.6870    14.6280     9.0470    53.7310    52.9740    49.8600    37.6080     2.6570    -9.4700 
  122.2500   119.7980    14.6820     9.0680    54.3160    52.3800    49.4920    40.0690     2.6750    -9.4390 
  122.3750   119.9090    14.7350     9.0900    54.0700    51.0960    48.3840    39.4920     2.6560    -9.4670 
