~V
VERS. 2.00: Ver 2.00
~W
STRT.M 13.0000:
STOP.M 216.0000:
STEP.M 0.1250:
NULL. -999.2500:
UWI. FD10578:
~C
DEPT.M :
TVD. :
DX. :
DY. :
GR.API :
RML.OHMM :
RI. :
RXO.OHMM :
DEN.GM/CC :
SP.MV :
~A
# ...
  168.1250   159.5510    35.5420    18.0890    62.2640    30.1920    28.2390    15.8260     2.2610   -18.6280 
  168.2500   159.6560    35.6040    18.1180    62.7600    31.0980    29.1750    17.1700     2.2530   -18.7770 
  168.3750   159.7600    35.6660    18.1480    63.8640    32.1780    30.3230    17.1390     2.2590   -18.8800 
  168.5000   159.8650    35.7280    18.1770    64.0190    33.3200    31.5640    15.6490     2.2830   -18.9970 
  168.6250   159.9690    35.7900    18.2060    64.2480    34.3630    32.7300    14.2050     2.3110   -19.0360 
  168.7500   160.0740    35.8520    18.2350    65.4700    35.1900    33.6930    13.7670     2.3230   -19.0630 
  168.8750   160.1780    35.9140    18.2650    66.5140    35.7250    34.3680    13.7300     2.3120   -19.1160 
  169.0000   160.2830    35.9760    18.2940    66.5530    35.9210    34.7000    13.8640     2.2830   -19.2170 
  169.1250   160.3870    36.0380    18.3230    66.6000    35.6660    34.5640    15.1710     2.2510   -19.2780 
  169.2500   160.4920    36.1000    18.3530    65.5550    34.9730    33.9700    17.1840     2.2250   -19.3180 
  169.3750   160.5960    36.1620    18.3820    61.8980    33.8290    32.8970    18.3000     2.2060   -19.3180 
  169.5000   160.7010    36.2240    18.4110    58.4070    32.3210    31.4140    18.0560     2.1930   -19.2870 
  169.6250   160.8050    36.2860    18.4400    59.3450    30.6860    29.7600    15.7470     2.2020   -19.3550 
  169.7500   160.9100    36.3480    18.4700    62.9930    29.2890    28.3380    13.4720     2.2470   -19.4230 
  169.8750   161.0140    36.4090    18.4990    65.2750    28.3730    27.4130    12.1550     2.3360   -19.4390 
  170.0000   161.1190    36.4710    18.5280    64.0480    28.0280    27.0830    12.4740     2.4470   -19.3400 
  170.1250   161.2230    36.5330    18.5570    59.4260    28.1910    27.3250    14.8270     2.5320   -19.2210 
  170.2500   161.3280    36.5950    18.5870    54.9300    28.4820    27.7600    19.3220     2.5520   -19.1240 
  170.3750   161.4320    36.6570    18.6160    53.9660    28.6070    28.0580    25.4590     2.5020   -19.1000 
  170.5000   161.5370    36.7190    18.6450    57.3060    28.3810    27.9800    26.5200     2.4110   -19.1820 
  170.6250   161.6410    36.7810    18.6750    62.3120    27.7530    27.4420    20.0700     2.3280   -19.2940 
  170.7500   161.7460    36.8430    18.7040    65.8250    26.9590    26.6910    14.9600     2.2800   -19.3970 
  170.8750   161.8500    36.9050    18.7330    67.9840    26.2060    25.9450    13.0720     2.2650   -19.4800 
  171.0000   161.9550    36.9670    18.7620    69.9640    25.6580    25.3800    13.3060     2.2670   -19.6390 
  171.1250   162.0590    37.0290    18.7920    71.0040    25.4260    25.1150    14.7590     2.2690   -19.8100 
  171.2500   162.1640    37.0910    18.8210    68.8940    25.4300    25.0710    16.1270     2.2650   -19.9550 
  171.3750   162.2680    37.1530    18.8500    64.7240    25.5910    25.1810    16.8300     2.2590   -20.0540 
  171.5000   162.3730    37.2150    18.8800    62.7280    25.8520    25.3930    16.0090     2.2560   -20.0600 
  171.6250   162.4770    37.2770    18.9090    64.0030    26.2430    25.7380    14.8890     2.2620   -20.0230 
  171.7500   162.5820    37.3380    18.9380    65.7830    26.8690    26.3100    13.7600     2.2730   -19.9860 
  171.8750   162.6860    37.4000    18.9670    67.4820    27.8960    27.2690    12.8930     2.2870   -20.0210 
  172.0000   162.7910    37.4620    18.9970    68.8280    29.4580    28.7640    12.7330     2.3000   -20.0870 
  172.1250   162.8950    37.5240    19.0260    67.0130    31.5840    30.9030    14.6520     2.3050   -20.0870 
  172.2500   163.0000    37.5860    19.0550    62.7090    33.8040    33.2740    19.1140     2.3020   -20.0560 
  172.3750   163.1040    37.6480    19.0840    60.8590    35.5080    35.2350    25.0560     2.2930   -20.0780 
  172.5000   163.2090    37.7100    19.1140    62.7520    36.0780    36.0200    27.4050     2.2850   -20.1660 
  172.6250   163.3130    37.7720    19.1430    64.4400    35.0010    34.9210    23.9900     2.2840   -20.2410 
  172.7500   163.4180    37.8340    19.1720    64.7800    32.8980    32.6070    18.7560     2.2940   -20.3200 
  172.8750   163.5220    37.8960    19.2020    65.0530    30.5230    29.9460    15.7970     2.3070   -20.4120 
  173.0000   163.6270    37.9580    19.2310    65.7170    28.6450    27.7520    14.9240     2.3170   -20.4910 
  173.1250   163.7310    38.0200    19.2600    66.5590    27.9930    26.7050    15.8400     2.3110   -20.6380 
  173.2500   163.8360    38.0820    19.2890    67.6160    28.5360    26.7710    17.6090     2.2900   -20.7860 
  173.3750   163.9410    38.1440    19.3190    68.8580    30.1030    27.8510    19.3420     2.2630   -20.9390 
  173.5000   164.0450    38.2060    19.3480    68.7900    32.3290    29.6800    20.4910     2.2400   -21.0800 
  173.6250   164.1500    38.2670    19.3770    64.7920    34.6960    31.8150    19.5790     2.2290   -21.1900 
  173.7500   164.2540    38.3290    19.4060    60.1610    36.7400    33.7220    17.0720     2.2300   -21.3300 
  173.8750   164.3590    38.3910    19.4360    58.9460    38.3350    35.2070    15.4640     2.2410   -21.4380 
  174.0000   164.4630    38.4530    19.4650    62.4770    39.6260    36.3610    15.9490     2.2600   -21.5550 
  174.1250   164.5680    38.5150    19.4940    65.0490    40.9440    37.4580    19.1150     2.2830   -21.6120 
  174.2500   164.6720    38.5770    19.5240    61.9020    42.5380    38.7300    24.0430     2.2990   -21.7080 
  174.3750   164.7770    38.6390    19.5530    56.7970    44.4580    40.2370    29.0910     2.3000   -21.8180 
  174.5000   164.8810    38.7010    19.5820    55.2790    46.6180    41.9300    33.3370     2.2900   -21.9150 
  174.6250   164.9860    38.7630    19.6110    58.4720    48.8650    43.7070    33.5920     2.2860   -22.0290 
  174.7500   165.0900    38.8250    19.6410    60.7910    51.0410    45.4550    26.1310     2.3040   -22.1870 
  174.8750   165.1950    38.8870    19.6700    60.4860    53.0350    47.1120    19.9630     2.3380   -22.3520 
  175.0000   165.2990    38.9490    19.6990    58.7950    54.7080    48.5820    17.8860     2.3650   -22.5040 
  175.1250   165.4040    39.0110    19.7290    57.8960    55.7770    49.6190    19.7750     2.3550   -22.7960 
  175.2500   165.5080    39.0730    19.7580    59.6510    56.1990    50.1130    22.8100     2.3130   -23.0360 
  175.3750   165.6130    39.1350    19.7870    62.5800    56.0700    50.0680    24.6260     2.2580   -23.2490 
  175.5000   165.7170    39.1960    19.8160    63.6330    55.7030    49.7310    22.6780     2.2130   -23.5320 
  175.6250   165.8220    39.2580    19.8460    62.6010    55.5750    49.5830    18.3400     2.1990   -23.8590 
  175.7500   165.9260    39.3200    19.8750    62.5570    55.8600    49.8540    16.3710     2.2150   -24.0950 
  175.8750   166.0310    39.3820    19.9040    64.0900    56.3640    50.3870    16.1760     2.2540   -24.3030 
  176.0000   166.1350    39.4440    19.9330    65.0130    56.5480    50.7380    16.9760     2.2980   -24.5160 
  176.1250   166.2400    39.5060    19.9630    64.0800    55.3720    49.9730    20.6570     2.3250   -24.5850 
  176.2500   166.3440    39.5680    19.9920    63.6260    52.4200    47.5160    26.4580     2.3290   -24.6880 
  176.3750   166.4490    39.6300    20.0210    63.9350    47.8070    43.3330    27.4210     2.3240   -24.7780 
  176.5000   166.5530    39.6920    20.0510    64.8640    42.3300    38.1930    23.0540     2.3290   -24.7630 
  176.6250   166.6580    39.7540    20.0800    66.0990    37.3740    33.4760    17.7600     2.3500   -24.6660 
  176.7500   166.7620    39.8160    20.1090    66.2500    33.9730    30.1530    14.7730     2.3670   -24.5600 
  176.8750   166.8670    39.8780    20.1380    65.5880    32.6960    28.7070    13.5080     2.3650   -24.4680 
  177.0000   166.9710    39.9400    20.1680    64.3600    33.8580    29.3870    15.3700     2.3460   -24.2620 
  177.1250   167.0760    40.0020    20.1970    63.0720    38.2240    32.8930    18.2500     2.3430   -24.0090 
