~V
VERS. 2.00: Ver 2.00
~W
STRT.M 13.0000:
STOP.M 216.0000:
STEP.M 0.1250:
NULL. -999.2500:
UWI. FD10578:
~C
DEPT.M :
TVD. :
DX. :
DY. :
GR.API :
RML.OHMM :
RI. :
RXO.OHMM :
DEN.GM/CC :
SP.MV :
~A
# ...
   22.1250    22.1250    -0.0190     0.0900    57.8130   146.3310    13.2200    15.5590     2.4100    -8.0410 
   22.2500    22.2500    -0.0190     0.0910    59.0180   120.2890    11.1360    10.4770     2.3100    -8.6170 
   22.3750    22.3750    -0.0190     0.0910    59.3070   100.2360     9.4020     8.8030     2.2220    -9.2650 
   22.5000    22.5000    -0.0190     0.0920    60.6180    87.8150     8.2840     8.3170     2.1620    -9.9350 
   22.6250    22.6250    -0.0190     0.0920    60.7800    81.1060     7.8090     7.9720     2.1330   -10.6080 
   22.7500    22.7500    -0.0190     0.0930    57.7720    76.6740     7.6940     7.9750     2.1220   -11.2760 
   22.8750    22.8750    -0.0200     0.0930    55.3970    73.7790     7.7770     8.1340     2.1180   -11.8580 
   23.0000    23.0000    -0.0200     0.0940    56.1730    72.4380     7.9320     8.0450     2.1160   -12.2910 
   23.1250    23.1250    -0.0200     0.0940    58.7680    72.5690     8.0720     7.8120     2.1150   -12.6400 
   23.2500    23.2500    -0.0200     0.0950    59.5510    73.3780     8.1660     7.9300     2.1160   -12.8970 
   23.3750    23.3750    -0.0200     0.0950    58.1530    74.8660     8.2100     8.2140     2.1170   -13.0750 
   23.5000    23.5000    -0.0200     0.0960    56.4590    77.6220     8.2130     8.2860     2.1180   -13.2490 
   23.6250    23.6250    -0.0200     0.0960    57.1570    82.2210     8.1780     8.1520     2.1150   -13.3740 
   23.7500    23.7500    -0.0200     0.0970    59.5340    87.3600     8.1200     7.9820     2.1130   -13.3980 
   23.8750    23.8750    -0.0200     0.0970    61.6380    91.1540     8.0510     7.8590     2.1130   -13.3570 
   24.0000    24.0000    -0.0200     0.0980    63.6660    91.9280     7.9970     7.7150     2.1190   -13.2660 
   24.1250    24.1250    -0.0210     0.0990    66.7930    88.9790     8.0010     7.7570     2.1300   -13.0690 
   24.2500    24.2500    -0.0210     0.0990    66.8260    84.5510     8.0780     8.0670     2.1430   -12.8970 
   24.3750    24.3750    -0.0210     0.1000    61.9390    80.4260     8.2160     8.5330     2.1560   -12.7390 
   24.5000    24.5000    -0.0210     0.1000    55.1850    77.1680     8.3560     8.8600     2.1640   -12.5020 
   24.6250    24.6250    -0.0210     0.1010    52.8050    73.7680     8.3670     8.9390     2.1620   -12.2560 
   24.7500    24.7500    -0.0210     0.1010    53.6700    69.2680     8.1730     8.7320     2.1500   -11.9390 
   24.8750    24.8750    -0.0210     0.1020    55.1420    64.1630     7.7720     8.2040     2.1390   -11.5970 
   25.0000    25.0000    -0.0210     0.1020    59.0030    60.0210     7.2500     7.4200     2.1370   -11.1400 
   25.1250    25.1250    -0.0210     0.1030    65.6670    58.6470     6.7530     6.8530     2.1570   -10.6280 
   25.2500    25.2500    -0.0220     0.1030    72.9610    59.1190     6.3800     6.5050     2.1880   -10.0630 
   25.3750    25.3750    -0.0220     0.1040    79.4130    59.4420     6.1540     6.4650     2.2150    -9.4520 
   25.5000    25.5000    -0.0220     0.1040    84.1930    57.7710     6.0540     6.6430     2.2240    -8.8900 
   25.6250    25.6250    -0.0220     0.1050    84.2850    53.7890     6.0670     6.9540     2.2090    -8.4540 
   25.7500    25.7500    -0.0220     0.1050    80.7440    50.0330     6.1770     7.4180     2.1850    -8.1780 
   25.8750    25.8750    -0.0220     0.1060    79.8790    48.8690     6.4130     7.6200     2.1680    -8.0460 
   26.0000    26.0000    -0.0220     0.1060    84.1230    51.6680     6.8280     7.5710     2.1790    -8.0280 
   26.1250    26.1250    -0.0220     0.1070    87.3000    58.9290     7.5490     7.7840     2.2430    -8.1450 
   26.2500    26.2500    -0.0220     0.1070    84.2730    68.3660     8.6000     9.8940     2.3510    -8.4060 
   26.3750    26.3750    -0.0220     0.1080    79.0590    77.2400     9.9230    14.9080     2.4720    -8.7010 
   26.5000    26.5000    -0.0230     0.1080    76.4900    82.0850    11.2640    23.2690     2.5560    -8.9860 
   26.6250    26.6250    -0.0230     0.1090    74.8020    79.0830    12.0390    24.3910     2.5440    -9.2190 
   26.7500    26.7500    -0.0230     0.1090    69.6070    70.1250    11.9310    21.2730     2.4520    -9.4120 
   26.8750    26.8750    -0.0230     0.1100    62.3620    58.6090    11.0280    13.2590     2.3200    -9.5860 
   27.0000    27.0000    -0.0230     0.1100    56.5100    48.0960     9.7610     8.9280     2.2020    -9.8040 
   27.1250    27.1250    -0.0230     0.1110    56.0910    40.9240     8.6080     7.9200     2.1440    -9.9440 
   27.2500    27.2500    -0.0230     0.1110    59.6710    36.2530     7.7540     7.8670     2.1350    -9.9270 
   27.3750    27.3750    -0.0230     0.1120    64.7150    33.0750     7.2090     7.5270     2.1520    -9.8960 
   27.5000    27.5000    -0.0230     0.1120    68.8040    30.6830     6.9280     7.2750     2.1690    -9.7950 
   27.6250    27.6250    -0.0240     0.1130    72.7310    28.9930     6.8680     7.4440     2.1690    -9.6670 
   27.7500    27.7500    -0.0240     0.1130    75.8170    27.9870     6.9160     7.6100     2.1580    -9.5440 
   27.8750    27.8750    -0.0240     0.1140    74.4830    27.6290     7.0150     7.7870     2.1480    -9.4080 
   28.0000    28.0000    -0.0240     0.1140    69.1240    27.8210     7.1180     7.9810     2.1510    -9.2500 
   28.1250    28.1250    -0.0240     0.1150    65.9990    29.0450     7.1840     8.1100     2.1700    -9.1880 
   28.2500    28.2500    -0.0240     0.1150    67.1620    32.0090     7.2330     8.1280     2.1890    -9.1620 
   28.3750    28.3750    -0.0240     0.1160    69.0540    37.0080     7.3050     7.9610     2.1960    -9.1160 
   28.5000    28.5000    -0.0240     0.1160    68.1200    42.8520     7.4000     7.9950     2.1840    -9.1880 
   28.6250    28.6250    -0.0240     0.1170    65.9920    46.2290     7.4520     7.8270     2.1590    -9.2390 
   28.7500    28.7500    -0.0250     0.1170    65.8910    45.1810     7.4080     7.6340     2.1350    -9.2760 
   28.8750    28.8750    -0.0250     0.1180    69.3950    40.1510     7.2620     7.5840     2.1200    -9.2810 
   29.0000    29.0000    -0.0250     0.1180    74.0110    33.6230     7.0680     7.7500     2.1160    -9.2850 
   29.1250    29.1250    -0.0250     0.1190    74.6780    28.7740     6.9180     7.7960     2.1230    -9.3220 
   29.2500    29.2500    -0.0250     0.1190    72.1450    26.3230     6.8540     7.7050     2.1350    -9.4170 
   29.3750    29.3750    -0.0250     0.1200    68.3090    25.5010     6.8550     7.6650     2.1470    -9.5970 
   29.5000    29.5000    -0.0250     0.1200    64.9410    25.3410     6.8890     7.7710     2.1560    -9.7680 
   29.6250    29.6250    -0.0250     0.1210    62.3550    25.5020     6.9570     7.9440     2.1550    -9.9420 
   29.7500    29.7500    -0.0250     0.1210    61.9660    26.1390     7.0610     8.0400     2.1470   -10.1510 
   29.8750    29.8750    -0.0250     0.1220    62.9870    27.5030     7.2010     8.0700     2.1370   -10.3530 
   30.0000    30.0000    -0.0260     0.1220    62.6890    29.6670     7.3720     7.9270     2.1290   -10.4890 
   30.1250    30.1240    -0.0230     0.1290    61.7540    32.4270     7.5380     7.6570     2.1290   -10.4960 
   30.2500    30.2490    -0.0210     0.1360    62.2100    35.1100     7.6500     7.6230     2.1320   -10.5240 
   30.3750    30.3740    -0.0180     0.1420    63.0890    37.2160     7.6740     7.6890     2.1370   -10.4610 
   30.5000    30.4990    -0.0150     0.1490    62.8170    38.5040     7.6050     7.6540     2.1420   -10.3050 
   30.6250    30.6230    -0.0130     0.1550    60.4660    38.9940     7.4530     7.5800     2.1420   -10.1820 
   30.7500    30.7480    -0.0100     0.1620    57.9840    39.2330     7.2710     7.5500     2.1280   -10.0010 
   30.8750    30.8730    -0.0080     0.1680    56.6290    39.5810     7.0980     7.5240     2.0970    -9.8340 
   31.0000    30.9970    -0.0050     0.1750    58.2600    40.0490     6.9670     7.2970     2.0570    -9.7070 
   31.1250    31.1220    -0.0030     0.1810    62.0180    40.0470     6.9030     6.8830     2.0280    -9.6120 
