~V
VERS. 2.00: Ver 2.00
~W
STRT.M 13.0000:
STOP.M 216.0000:
STEP.M 0.1250:
NULL. -999.2500:
UWI. FD10578:
~C
DEPT.M :
TVD. :
DX. :
DY. :
GR.API :
RML.OHMM :
RI. :
RXO.OHMM :
DEN.GM/CC :
SP.MV :
~A
# ...
  195.5000   182.0270    49.6180    24.8300    84.9680    33.0900    31.5890    25.3220     2.4760   -12.6600 
  195.6250   182.1280    49.6840    24.8620    80.8080    26.9200    25.3050    24.8710     2.4760   -12.2180 
  195.7500   182.2290    49.7500    24.8940    72.3490    20.3950    18.9590    19.8180     2.4620   -11.8380 
  195.8750   182.3310    49.8160    24.9260    62.9360    14.6000    13.7480    12.7120     2.4460   -11.4450 
  196.0000   182.4320    49.8820    24.9580    55.3170     9.6140    10.1030     7.4750     2.4390   -10.9640 
  196.1250   182.5330    49.9480    24.9900    49.5810     7.4940     8.0250     5.8980     2.4490   -10.5290 
  196.2500   182.6340    50.0140    25.0220    44.9570     6.4880     6.8770     5.6670     2.4700   -10.0670 
  196.3750   182.7350    50.0800    25.0540    42.0390     6.0730     6.3530     5.7600     2.4880    -9.6780 
  196.5000   182.8370    50.1460    25.0860    41.5660     5.9860     6.2130     5.7250     2.4920    -9.3820 
  196.6250   182.9380    50.2120    25.1180    43.1360     6.0340     6.2590     5.6610     2.4750    -9.2670 
  196.7500   183.0390    50.2780    25.1500    44.7440     6.0660     6.3120     5.6700     2.4480    -9.2500 
  196.8750   183.1400    50.3440    25.1820    45.7820     6.0460     6.3180     5.7000     2.4200    -9.2390 
  197.0000   183.2410    50.4100    25.2140    46.7080     5.9850     6.2740     5.6430     2.4020    -9.3290 
  197.1250   183.3430    50.4770    25.2450    48.3910     5.9170     6.2040     5.5580     2.4020    -9.4450 
  197.2500   183.4440    50.5430    25.2770    49.5080     5.8770     6.1390     5.4970     2.4180    -9.6540 
  197.3750   183.5450    50.6090    25.3090    49.7640     5.8800     6.0950     5.5120     2.4410    -9.8560 
  197.5000   183.6460    50.6750    25.3410    49.3720     5.9350     6.0810     5.5640     2.4620   -10.0230 
  197.6250   183.7470    50.7410    25.3730    47.3820     6.0410     6.0960     5.6770     2.4730   -10.1510 
  197.7500   183.8480    50.8070    25.4050    46.1540     6.1750     6.1250     5.7950     2.4760   -10.2250 
  197.8750   183.9500    50.8730    25.4370    48.2500     6.3180     6.1560     5.9380     2.4780   -10.3660 
  198.0000   184.0510    50.9390    25.4690    52.2480     6.4570     6.1840     6.0690     2.4830   -10.5860 
  198.1250   184.1520    51.0050    25.5010    52.8230     6.5800     6.2020     6.1970     2.4970   -10.7750 
  198.2500   184.2530    51.0710    25.5330    51.0380     6.6880     6.2140     6.3730     2.5180   -10.8800 
  198.3750   184.3540    51.1370    25.5650    50.4590     6.7910     6.2250     6.4750     2.5410   -10.9990 
  198.5000   184.4560    51.2030    25.5970    51.8780     6.9020     6.2450     6.5780     2.5630   -11.1480 
  198.6250   184.5570    51.2690    25.6290    53.4220     7.0380     6.2850     6.7490     2.5730   -11.3390 
  198.7500   184.6580    51.3350    25.6610    54.0140     7.1990     6.3460     6.9480     2.5680   -11.5530 
  198.8750   184.7590    51.4010    25.6930    53.9470     7.3710     6.4230     7.0400     2.5450   -11.7720 
  199.0000   184.8600    51.4670    25.7240    52.0160     7.5300     6.4960     6.9910     2.5120   -11.9830 
  199.1250   184.9620    51.5340    25.7560    49.8060     7.6400     6.5330     6.9590     2.4840   -12.2890 
  199.2500   185.0630    51.6000    25.7880    49.9000     7.7050     6.5340     6.9570     2.4700   -12.7300 
  199.3750   185.1640    51.6660    25.8200    52.3670     7.7520     6.5220     6.8490     2.4680   -13.2050 
  199.5000   185.2650    51.7320    25.8520    55.6620     7.8290     6.5350     6.7370     2.4650   -13.7500 
  199.6250   185.3660    51.7980    25.8840    59.7220     7.9950     6.6310     6.9180     2.4460   -14.3010 
  199.7500   185.4680    51.8640    25.9160    66.1420     8.2500     6.8190     7.4220     2.4130   -14.9320 
  199.8750   185.5690    51.9300    25.9480    74.3720     8.5680     7.0850     7.8540     2.3730   -15.5630 
  200.0000   185.6700    51.9960    25.9800    82.7470     8.9070     7.3870     7.8620     2.3400   -16.1670 
  200.1250   185.7710    52.0620    26.0120    87.7970     9.2360     7.6860     8.0110     2.3280   -16.7210 
  200.2500   185.8720    52.1280    26.0440    88.8710     9.5720     7.9790     8.4520     2.3380   -17.2130 
  200.3750   185.9730    52.1940    26.0760    88.9730     9.9570     8.2950     9.1030     2.3620   -17.6850 
  200.5000   186.0750    52.2600    26.1080    90.8410    10.4110     8.6610     9.7030     2.3890   -18.0040 
  200.6250   186.1760    52.3260    26.1400    93.9490    10.8770     9.0580    10.7610     2.4040   -18.2300 
  200.7500   186.2770    52.3920    26.1720    93.8820    11.1920     9.3640    12.8860     2.4000   -18.3420 
  200.8750   186.3780    52.4580    26.2040    89.6190    11.1870     9.4210    14.7500     2.3800   -18.3490 
  201.0000   186.4790    52.5240    26.2350    84.4250    10.7770     9.1240    13.3780     2.3540   -18.2850 
  201.1250   186.5810    52.5910    26.2670    81.0370    10.0070     8.4920    10.8320     2.3380   -18.0980 
  201.2500   186.6820    52.6570    26.2990    79.4800     9.1790     7.7920     8.7460     2.3350   -17.7840 
  201.3750   186.7830    52.7230    26.3310    78.4280     8.5250     7.2190     7.3700     2.3410   -17.4300 
  201.5000   186.8840    52.7890    26.3630    77.7010     8.1950     6.8950     7.0800     2.3500   -17.1070 
  201.6250   186.9850    52.8550    26.3950    77.5340     8.2700     6.9040     7.6670     2.3520   -16.7100 
  201.7500   187.0870    52.9210    26.4270    78.0650     8.5950     7.1470     7.9740     2.3490   -16.3080 
  201.8750   187.1880    52.9870    26.4590    80.9810     9.0160     7.5190     7.7570     2.3410   -15.9050 
  202.0000   187.2890    53.0530    26.4910    83.5320     9.3560     7.8780     7.9530     2.3340   -15.5160 
  202.1250   187.3900    53.1190    26.5230    82.9360     9.4240     8.0320     8.6260     2.3320   -15.1450 
  202.2500   187.4910    53.1850    26.5550    82.0470     9.2090     7.9320     9.1060     2.3370   -14.7780 
  202.3750   187.5930    53.2510    26.5870    81.3080     8.7690     7.6110     8.8420     2.3490   -14.3260 
  202.5000   187.6940    53.3170    26.6190    78.1430     8.2170     7.1640     7.7220     2.3660   -13.7760 
  202.6250   187.7950    53.3830    26.6510    71.2700     7.6830     6.6990     6.7980     2.3820   -13.2070 
  202.7500   187.8960    53.4490    26.6830    66.6810     7.2440     6.2910     6.2350     2.3900   -12.6210 
  202.8750   187.9970    53.5150    26.7140    64.6850     6.9260     5.9720     5.9210     2.3900   -12.0600 
  203.0000   188.0980    53.5810    26.7460    61.9780     6.7270     5.7480     5.8190     2.3860   -11.4910 
  203.1250   188.2000    53.6480    26.7780    58.8490     6.6390     5.6260     5.6410     2.3900   -10.9550 
  203.2500   188.3010    53.7140    26.8100    57.6250     6.6150     5.5720     5.4920     2.4070   -10.4280 
  203.3750   188.4020    53.7800    26.8420    56.9350     6.6290     5.5630     5.4570     2.4340    -9.9330 
  203.5000   188.5030    53.8460    26.8740    54.4970     6.6640     5.5790     5.5030     2.4630    -9.5220 
  203.6250   188.6040    53.9120    26.9060    51.0500     6.7180     5.6130     5.6490     2.4810    -9.1470 
  203.7500   188.7060    53.9780    26.9380    47.1740     6.7930     5.6610     5.8850     2.4860    -8.7050 
  203.8750   188.8070    54.0440    26.9700    43.7170     6.8980     5.7270     6.0330     2.4810    -8.2630 
  204.0000   188.9080    54.1100    27.0020    43.2360     7.0300     5.8130     6.0930     2.4740    -7.7820 
  204.1250   189.0090    54.1760    27.0340    46.5110     7.1690     5.9110     6.5020     2.4710    -7.3560 
  204.2500   189.1100    54.2420    27.0660    49.1400     7.2770     5.9930     7.3690     2.4740    -7.0310 
  204.3750   189.2120    54.3080    27.0980    48.9030     7.3260     6.0330     8.0600     2.4790    -6.7250 
  204.5000   189.3130    54.3740    27.1300    47.8140     7.3160     6.0220     7.9720     2.4860    -6.4640 
