~V
VERS. 2.00: Ver 2.00
~W
STRT.M 20.0000:
STOP.M 217.0000:
STEP.M 0.1250:
NULL. -999.2500:
UWI. FD10571:
~C
DEPT.M :
TVD. :
DX. :
DY. :
DEN.GM/CC :
GR.API :
RML.OHMM :
RI. :
RXO.OHMM :
SP.MV :
~A
# ...
  138.6250   133.0130   -26.3020   -13.4510     2.4920    71.3780    17.3430    15.5620    12.4370    -9.0400 
  138.7500   133.1220   -26.3540   -13.4850     2.5070    69.0340    18.3840    16.4670    13.4060    -9.2280 
  138.8750   133.2300   -26.4060   -13.5190     2.5160    64.7440    19.4020    17.4200    14.2050    -9.3320 
  139.0000   133.3390   -26.4570   -13.5520     2.5180    62.1770    20.2610    18.2680    15.0780    -9.3250 
  139.1250   133.4480   -26.5090   -13.5860     2.5160    63.9040    20.7420    18.7680    15.7740    -9.2680 
  139.2500   133.5560   -26.5610   -13.6190     2.5160    67.0540    20.8170    18.8440    16.2100    -9.3030 
  139.3750   133.6650   -26.6120   -13.6530     2.5190    69.2260    20.5500    18.5330    15.3500    -9.3870 
  139.5000   133.7740   -26.6640   -13.6870     2.5250    70.1440    20.1190    18.0140    14.6600    -9.4240 
  139.6250   133.8830   -26.7160   -13.7200     2.5310    69.9720    19.7860    17.5630    15.6680    -9.4030 
  139.7500   133.9910   -26.7670   -13.7540     2.5360    68.9360    19.7200    17.3790    16.2610    -9.3140 
  139.8750   134.1000   -26.8190   -13.7870     2.5380    67.8740    19.9760    17.5490    16.3300    -9.2090 
  140.0000   134.2090   -26.8700   -13.8210     2.5360    67.5280    20.5030    18.0590    15.7830    -9.1390 
  140.1250   134.3170   -26.9220   -13.8550     2.5300    66.6250    21.1430    18.7580    16.2810    -9.0310 
  140.2500   134.4260   -26.9740   -13.8880     2.5250    64.4540    21.6300    19.3260    16.8530    -8.8160 
  140.3750   134.5350   -27.0250   -13.9220     2.5250    62.9790    21.7630    19.5290    17.9470    -8.5630 
  140.5000   134.6430   -27.0770   -13.9550     2.5300    63.3370    21.4720    19.2910    18.3870    -8.3420 
  140.6250   134.7520   -27.1290   -13.9890     2.5340    64.3890    20.8430    18.7080    18.0560    -8.1620 
  140.7500   134.8610   -27.1800   -14.0230     2.5330    65.3810    20.1870    18.0910    16.0390    -8.0360 
  140.8750   134.9690   -27.2320   -14.0560     2.5210    67.1370    19.6740    17.5950    14.8040    -7.9520 
  141.0000   135.0780   -27.2840   -14.0900     2.5020    69.1700    19.3110    17.2240    14.5970    -7.8510 
  141.1250   135.1870   -27.3350   -14.1230     2.4840    68.9280    18.9200    16.8320    14.5160    -7.7900 
  141.2500   135.2960   -27.3870   -14.1570     2.4760    66.7510    18.3130    16.2670    13.6300    -7.7800 
  141.3750   135.4040   -27.4380   -14.1900     2.4800    64.8850    17.4620    15.5060    12.5510    -7.7900 
  141.5000   135.5130   -27.4900   -14.2240     2.4940    64.9550    16.5010    14.6520    11.6020    -7.8370 
  141.6250   135.6220   -27.5420   -14.2580     2.5100    66.1540    15.7140    13.9140    10.7320    -7.9310 
  141.7500   135.7300   -27.5930   -14.2910     2.5190    65.1840    15.2740    13.4280    10.8980    -8.0500 
  141.8750   135.8390   -27.6450   -14.3250     2.5200    64.0750    15.2160    13.2450    11.8940    -8.1750 
  142.0000   135.9480   -27.6970   -14.3580     2.5130    64.4120    15.4550    13.3480    13.0880    -8.2920 
  142.1250   136.0560   -27.7480   -14.3920     2.5050    64.3740    15.8650    13.7020    13.3420    -8.3960 
  142.2500   136.1650   -27.8000   -14.4260     2.5050    62.8670    16.3210    14.1840    12.5970    -8.4880 
  142.3750   136.2740   -27.8510   -14.4590     2.5130    62.0080    16.8200    14.7340    13.2550    -8.5970 
  142.5000   136.3820   -27.9030   -14.4930     2.5270    62.0130    17.3870    15.3140    14.8470    -8.7340 
  142.6250   136.4910   -27.9550   -14.5260     2.5400    62.8830    17.9640    15.8380    15.6630    -8.9740 
  142.7500   136.6000   -28.0060   -14.5600     2.5440    66.4980    18.3480    16.1410    16.1640    -9.3210 
  142.8750   136.7090   -28.0580   -14.5940     2.5330    72.3540    18.3010    16.0220    16.6510    -9.8010 
  143.0000   136.8170   -28.1100   -14.6270     2.5100    77.1960    17.6780    15.3580    16.2980   -10.4850 
  143.1250   136.9260   -28.1610   -14.6610     2.4860    80.1460    16.4900    14.1830    14.3010   -11.4420 
  143.2500   137.0350   -28.2130   -14.6940     2.4750    82.8610    15.1470    12.8880    11.9950   -12.6030 
  143.3750   137.1430   -28.2650   -14.7280     2.4820    84.4550    14.0000    11.7770    10.7720   -13.8380 
  143.5000   137.2520   -28.3160   -14.7620     2.4990    84.2870    13.3220    11.0590    10.9980   -15.0980 
  143.6250   137.3610   -28.3680   -14.7950     2.5070    84.0820    13.3610    10.9340    12.3850   -16.2850 
  143.7500   137.4690   -28.4190   -14.8290     2.4970    85.7810    14.0310    11.3570    14.4170   -17.3790 
  143.8750   137.5780   -28.4710   -14.8620     2.4720    88.7080    15.2860    12.3200    17.0590   -18.3290 
  144.0000   137.6870   -28.5230   -14.8960     2.4440    89.4210    17.0360    13.7670    18.2410   -19.0700 
  144.1250   137.7950   -28.5740   -14.9300     2.4270    85.5960    19.1150    15.5950    18.7740   -19.5200 
  144.2500   137.9040   -28.6260   -14.9630     2.4220    81.7490    21.0440    17.4090    20.2050   -19.7670 
  144.3750   138.0130   -28.6780   -14.9970     2.4250    81.5560    22.2510    18.6970    22.9730   -19.9030 
  144.5000   138.1220   -28.7290   -15.0300     2.4290    84.6370    22.1790    18.8770    22.8470   -19.9670 
  144.6250   138.2300   -28.7810   -15.0640     2.4320    89.1820    20.3990    17.4430    23.2350   -20.0150 
  144.7500   138.3390   -28.8330   -15.0980     2.4330    92.8380    17.6040    15.0480    19.5690   -19.9990 
  144.8750   138.4480   -28.8840   -15.1310     2.4380    93.1040    14.5140    12.3970    14.1280   -19.8230 
  145.0000   138.5560   -28.9360   -15.1650     2.4460    88.5750    11.7740    10.0540     9.4820   -19.4110 
  145.1250   138.6650   -28.9870   -15.1980     2.4580    79.5180     9.8720     8.3790     7.3540   -18.6360 
  145.2500   138.7740   -29.0390   -15.2320     2.4710    70.3440     8.7220     7.2820     6.2970   -17.5610 
  145.3750   138.8820   -29.0910   -15.2660     2.4830    62.8610     8.1930     6.6740     5.9740   -16.3040 
  145.5000   138.9910   -29.1420   -15.2990     2.4950    56.3620     8.0900     6.4400     6.0410   -14.9550 
  145.6250   139.1000   -29.1940   -15.3330     2.5020    51.3010     8.2100     6.4650     6.2240   -13.5740 
  145.7500   139.2080   -29.2460   -15.3660     2.5040    48.5200     8.3260     6.5670     6.3770   -12.2750 
  145.8750   139.3170   -29.2970   -15.4000     2.5010    47.0900     8.3460     6.6540     6.5190   -11.1740 
  146.0000   139.4260   -29.3490   -15.4340     2.4940    44.7970     8.2600     6.6810     6.4950   -10.3000 
  146.1250   139.5350   -29.4010   -15.4670     2.4870    42.8780     8.1110     6.6360     6.3410    -9.7530 
  146.2500   139.6430   -29.4520   -15.5010     2.4830    43.2730     7.9690     6.5530     6.2340    -9.4700 
  146.3750   139.7520   -29.5040   -15.5340     2.4790    44.2230     7.8490     6.4490     6.0840    -9.3160 
  146.5000   139.8610   -29.5550   -15.5680     2.4760    44.2840     7.7450     6.3350     5.9790    -9.1890 
  146.6250   139.9690   -29.6070   -15.6020     2.4780    44.7300     7.6440     6.2150     5.9660    -9.0790 
  146.7500   140.0780   -29.6590   -15.6350     2.4860    45.3620     7.5530     6.0960     5.9020    -8.9370 
  146.8750   140.1870   -29.7100   -15.6690     2.4980    44.3280     7.4840     5.9850     5.8100    -8.7570 
  147.0000   140.2950   -29.7620   -15.7020     2.5070    41.8370     7.4440     5.8870     5.8340    -8.6200 
  147.1250   140.4040   -29.8140   -15.7360     2.5040    40.8870     7.4270     5.8070     5.8920    -8.5610 
  147.2500   140.5130   -29.8650   -15.7700     2.4900    41.3840     7.4160     5.7460     5.8950    -8.4520 
  147.3750   140.6210   -29.9170   -15.8030     2.4710    41.5400     7.4030     5.7050     5.7870    -8.2910 
  147.5000   140.7300   -29.9690   -15.8370     2.4590    42.5730     7.4000     5.6860     5.6430    -8.1430 
  147.6250   140.8390   -30.0200   -15.8700     2.4640    46.8410     7.4470     5.7100     5.5710    -8.0290 
