~V
VERS. 2.00: Ver 2.00
~W
STRT.M 20.0000:
STOP.M 217.0000:
STEP.M 0.1250:
NULL. -999.2500:
UWI. FD10571:
~C
DEPT.M :
TVD. :
DX. :
DY. :
DEN.GM/CC :
GR.API :
RML.OHMM :
RI. :
RXO.OHMM :
SP.MV :
~A
# ...
   83.8750    83.1350    -7.1250    -3.0070     2.1770    61.0450    24.2080    22.2310    19.3320   -10.1470 
   84.0000    83.2570    -7.1510    -3.0160     2.1820    61.2360    24.1690    22.2010    18.6630   -10.0790 
   84.1250    83.3790    -7.1780    -3.0250     2.1880    62.0160    24.1380    22.1830    18.1630   -10.0770 
   84.2500    83.5000    -7.2040    -3.0340     2.1920    61.3190    24.0780    22.1620    17.6620   -10.1540 
   84.3750    83.6220    -7.2310    -3.0430     2.1890    58.8940    23.9650    22.1140    18.2080   -10.2360 
   84.5000    83.7440    -7.2570    -3.0520     2.1790    57.5080    23.8000    22.0190    19.8080   -10.2860 
   84.6250    83.8650    -7.2840    -3.0610     2.1650    58.7670    23.6320    21.8770    19.5540   -10.3050 
   84.7500    83.9870    -7.3100    -3.0700     2.1550    59.7410    23.5440    21.7520    17.8900   -10.2860 
   84.8750    84.1090    -7.3370    -3.0790     2.1520    61.4650    23.6090    21.7230    16.8710   -10.2450 
   85.0000    84.2300    -7.3630    -3.0880     2.1570    64.1670    23.8560    21.8540    17.8990   -10.1640 
   85.1250    84.3520    -7.3900    -3.0970     2.1640    67.4650    24.2690    22.1890    19.1010   -10.0150 
   85.2500    84.4740    -7.4160    -3.1060     2.1690    68.9940    24.7290    22.6470    19.4490    -9.8370 
   85.3750    84.5950    -7.4430    -3.1140     2.1690    67.6610    25.1370    23.1290    19.2010    -9.6860 
   85.5000    84.7170    -7.4690    -3.1230     2.1650    64.2480    25.4190    23.5180    19.3780    -9.5880 
   85.6250    84.8390    -7.4950    -3.1320     2.1580    60.2400    25.5220    23.7060    19.6670    -9.5290 
   85.7500    84.9600    -7.5220    -3.1410     2.1530    59.1670    25.5110    23.7260    19.2280    -9.4880 
   85.8750    85.0820    -7.5480    -3.1500     2.1530    61.4660    25.4570    23.6460    18.1850    -9.4740 
   86.0000    85.2040    -7.5750    -3.1590     2.1610    65.5670    25.4450    23.5570    18.0940    -9.5310 
   86.1250    85.3250    -7.6010    -3.1680     2.1740    68.2600    25.5480    23.5560    18.5860    -9.6450 
   86.2500    85.4470    -7.6280    -3.1770     2.1890    67.2600    25.7200    23.6230    19.3150    -9.7300 
   86.3750    85.5690    -7.6540    -3.1860     2.1990    63.7910    25.8510    23.6640    19.6970    -9.7410 
   86.5000    85.6900    -7.6810    -3.1950     2.2030    62.3540    25.8050    23.5500    19.0670    -9.6950 
   86.6250    85.8120    -7.7070    -3.2040     2.1970    65.1130    25.4510    23.1520    18.6350    -9.6910 
   86.7500    85.9340    -7.7340    -3.2120     2.1870    66.8570    24.9040    22.5660    17.8210    -9.7770 
   86.8750    86.0550    -7.7600    -3.2210     2.1740    66.8430    24.3730    21.9740    17.0610    -9.9370 
   87.0000    86.1770    -7.7870    -3.2300     2.1620    68.2750    24.1250    21.6080    17.2750   -10.1220 
   87.1250    86.2990    -7.8130    -3.2390     2.1570    70.8440    24.5080    21.7590    19.1030   -10.2940 
   87.2500    86.4200    -7.8400    -3.2480     2.1580    70.8410    25.5230    22.4530    20.3400   -10.4100 
   87.3750    86.5420    -7.8660    -3.2570     2.1660    68.3710    27.0640    23.6550    21.3270   -10.4080 
   87.5000    86.6640    -7.8930    -3.2660     2.1740    66.0770    28.8690    25.1980    22.1060   -10.3140 
   87.6250    86.7850    -7.9190    -3.2750     2.1790    64.2970    30.5260    26.7580    23.0010   -10.1540 
   87.7500    86.9070    -7.9460    -3.2840     2.1770    62.3100    31.7260    27.9950    22.6240    -9.9190 
   87.8750    87.0290    -7.9720    -3.2930     2.1720    60.8100    32.3400    28.7310    23.3710    -9.5720 
   88.0000    87.1500    -7.9990    -3.3020     2.1670    59.9470    32.4090    28.9390    24.9870    -9.1390 
   88.1250    87.2720    -8.0250    -3.3100     2.1650    61.4610    32.0640    28.6700    24.8560    -8.5980 
   88.2500    87.3940    -8.0520    -3.3190     2.1650    64.3070    31.5970    28.1880    22.7620    -8.0040 
   88.3750    87.5150    -8.0780    -3.3280     2.1670    65.1780    31.1690    27.6500    21.3390    -7.4740 
   88.5000    87.6370    -8.1050    -3.3370     2.1680    63.5980    30.8630    27.1630    20.8790    -7.0040 
   88.6250    87.7590    -8.1310    -3.3460     2.1690    62.8000    30.7020    26.8100    21.4030    -6.5270 
   88.7500    87.8800    -8.1570    -3.3550     2.1670    62.6190    30.6420    26.5980    21.6630    -6.1000 
   88.8750    88.0020    -8.1840    -3.3640     2.1630    61.2410    30.6700    26.5320    21.3070    -5.7630 
   89.0000    88.1240    -8.2100    -3.3730     2.1560    59.7410    30.7620    26.5950    20.6470    -5.5090 
   89.1250    88.2450    -8.2370    -3.3820     2.1550    59.6280    30.8060    26.6890    19.8770    -5.4430 
   89.2500    88.3670    -8.2630    -3.3910     2.1650    59.8540    30.6100    26.6120    20.0090    -5.5370 
   89.3750    88.4890    -8.2900    -3.4000     2.1880    59.4730    30.0240    26.1960    21.5050    -5.7280 
   89.5000    88.6100    -8.3160    -3.4080     2.2200    59.8200    29.0640    25.4220    23.4790    -6.0140 
   89.6250    88.7320    -8.3430    -3.4170     2.2410    63.1400    27.9990    24.4930    22.0850    -6.3650 
   89.7500    88.8540    -8.3690    -3.4260     2.2410    67.1700    27.2480    23.7820    17.9010    -6.6550 
   89.8750    88.9750    -8.3960    -3.4350     2.2180    69.1200    27.0400    23.5090    15.9510    -6.8380 
   90.0000    89.0970    -8.4220    -3.4440     2.1840    68.1860    27.3530    23.7040    16.9130    -6.9110 
   90.1250    89.2120    -8.4650    -3.4650     2.1610    67.9670    27.8780    24.1830    20.3430    -6.8620 
   90.2500    89.3280    -8.5070    -3.4860     2.1560    69.3900    28.0940    24.4950    22.6820    -6.8190 
   90.3750    89.4430    -8.5500    -3.5070     2.1680    69.3990    27.6460    24.2600    22.0320    -6.8560 
   90.5000    89.5590    -8.5920    -3.5270     2.1880    68.5340    26.4110    23.3010    18.3330    -6.9470 
   90.6250    89.6740    -8.6340    -3.5480     2.2110    71.4890    24.4860    21.7050    15.5900    -7.0930 
   90.7500    89.7900    -8.6770    -3.5690     2.2330    76.5860    22.3560    19.9390    14.3980    -7.3170 
   90.8750    89.9050    -8.7190    -3.5900     2.2530    79.3940    20.3610    18.2970    14.0780    -7.6320 
   91.0000    90.0210    -8.7620    -3.6110     2.2670    79.0620    18.7500    16.9790    13.0010    -8.0930 
   91.1250    90.1360    -8.8040    -3.6320     2.2700    78.3710    17.7540    16.1570    12.2130    -8.7440 
   91.2500    90.2520    -8.8470    -3.6530     2.2670    76.6990    17.2900    15.7670    11.4480    -9.4030 
   91.3750    90.3670    -8.8890    -3.6730     2.2640    74.8930    17.2500    15.7540    11.6750    -9.9170 
   91.5000    90.4830    -8.9320    -3.6940     2.2660    75.9030    17.4420    15.9920    12.9490   -10.2430 
   91.6250    90.5980    -8.9740    -3.7150     2.2740    78.1440    17.5870    16.2420    14.0040   -10.4030 
   91.7500    90.7140    -9.0160    -3.7360     2.2830    78.1430    17.4770    16.2550    13.8690   -10.4710 
   91.8750    90.8290    -9.0590    -3.7570     2.2860    76.5010    17.0690    15.9410    13.1960   -10.5060 
   92.0000    90.9450    -9.1010    -3.7780     2.2820    77.0030    16.4640    15.3650    12.6480   -10.5280 
   92.1250    91.0600    -9.1440    -3.7980     2.2770    80.8420    15.8600    14.6910    12.0930   -10.4720 
   92.2500    91.1760    -9.1860    -3.8190     2.2740    84.4310    15.4020    14.1020    11.0230   -10.3890 
   92.3750    91.2910    -9.2290    -3.8400     2.2740    86.5900    15.1130    13.6640    10.6950   -10.3910 
   92.5000    91.4070    -9.2710    -3.8610     2.2760    87.6830    14.9520    13.3730    11.0870   -10.5280 
   92.6250    91.5220    -9.3140    -3.8820     2.2780    89.1530    14.9100    13.2310    11.6100   -10.7390 
   92.7500    91.6380    -9.3560    -3.9030     2.2760    89.2340    15.0510    13.2570    11.7930   -10.9300 
   92.8750    91.7530    -9.3980    -3.9230     2.2680    85.4330    15.5450    13.5540    12.1680   -11.0670 
