~V
VERS. 2.00: Ver 2.00
~W
STRT.M 13.0000:
STOP.M 216.0000:
STEP.M 0.1250:
NULL. -999.2500:
UWI. FD10578:
~C
DEPT.M :
TVD. :
DX. :
DY. :
GR.API :
RML.OHMM :
RI. :
RXO.OHMM :
DEN.GM/CC :
SP.MV :
~A
   13.0000    13.0000    -0.0110     0.0530  -999.2500  -999.2500  -999.2500  -999.2500  -999.2500   388.9990 
   13.1250    13.1250    -0.0110     0.0540  -999.2500  -999.2500  -999.2500  -999.2500  -999.2500   388.9990 
   13.2500    13.2500    -0.0110     0.0540  -999.2500  -999.2500  -999.2500  -999.2500  -999.2500   388.9990 
   13.3750    13.3750    -0.0110     0.0550  -999.2500  -999.2500  -999.2500  -999.2500  -999.2500   388.9990 
   13.5000    13.5000    -0.0120     0.0550  -999.2500  -999.2500  -999.2500  -999.2500  -999.2500   388.9990 
   13.6250    13.6250    -0.0120     0.0560  -999.2500  -999.2500  -999.2500  -999.2500  -999.2500   388.9990 
   13.7500    13.7500    -0.0120     0.0560  -999.2500  -999.2500  -999.2500  -999.2500  -999.2500   388.9990 
   13.8750    13.8750    -0.0120     0.0570  -999.2500  -999.2500  -999.2500  -999.2500  -999.2500   388.8940 
   14.0000    14.0000    -0.0120     0.0570  -999.2500  -999.2500  -999.2500  -999.2500  -999.2500   388.3930 
   14.1250    14.1250    -0.0120     0.0580  -999.2500  -999.2500  -999.2500  -999.2500  -999.2500   387.2410 
   14.2500    14.2500    -0.0120     0.0580  -999.2500  -999.2500  -999.2500  -999.2500  -999.2500   385.4440 
   14.3750    14.3750    -0.0120     0.0590  -999.2500  -999.2500  -999.2500  -999.2500  -999.2500   382.9870 
   14.5000    14.5000    -0.0120     0.0590  -999.2500  -999.2500  -999.2500  -999.2500  -999.2500   379.8230 
   14.6250    14.6250    -0.0120     0.0600  -999.2500  -999.2500  -999.2500  -999.2500  -999.2500   375.6730 
   14.7500    14.7500    -0.0130     0.0600  -999.2500  -999.2500  -999.2500  -999.2500  -999.2500   370.3660 
   14.8750    14.8750    -0.0130     0.0610  -999.2500  -999.2500  -999.2500  -999.2500  -999.2500   363.8540 
   15.0000    15.0000    -0.0130     0.0610  -999.2500  -999.2500  -999.2500  -999.2500  -999.2500   356.3920 
   15.1250    15.1250    -0.0130     0.0620  -999.2500  -999.2500  -999.2500  -999.2500  -999.2500   348.1170 
   15.2500    15.2500    -0.0130     0.0620  -999.2500  -999.2500  -999.2500  -999.2500  -999.2500   339.1650 
   15.3750    15.3750    -0.0130     0.0630  -999.2500  -999.2500  -999.2500  -999.2500  -999.2500   329.5480 
   15.5000    15.5000    -0.0130     0.0630  -999.2500  -999.2500  -999.2500  -999.2500  -999.2500   319.3900 
   15.6250    15.6250    -0.0130     0.0640  -999.2500  -999.2500  -999.2500  -999.2500  -999.2500   308.8670 
   15.7500    15.7500    -0.0130     0.0640  -999.2500  -999.2500  -999.2500  -999.2500     0.0000   298.2260 
   15.8750    15.8750    -0.0140     0.0650  -999.2500  -999.2500  -999.2500  -999.2500     0.0000   287.4860 
   16.0000    16.0000    -0.0140     0.0650  -999.2500  -999.2500  -999.2500  -999.2500     0.0000   276.6220 
   16.1250    16.1250    -0.0140     0.0660  -999.2500  -999.2500  -999.2500  -999.2500     0.0000   265.3040 
   16.2500    16.2500    -0.0140     0.0660  -999.2500  -999.2500  -999.2500  -999.2500     0.0000   253.9120 
   16.3750    16.3750    -0.0140     0.0670  -999.2500  -999.2500  -999.2500  -999.2500     1.3630   242.9870 
   16.5000    16.5000    -0.0140     0.0670  -999.2500  -999.2500  -999.2500  -999.2500     1.8130   232.5720 
   16.6250    16.6250    -0.0140     0.0680  -999.2500  -999.2500  -999.2500  -999.2500     1.8070   222.5940 
   16.7500    16.7500    -0.0140     0.0680  -999.2500  -999.2500  -999.2500  -999.2500     1.8030   213.0910 
   16.8750    16.8750    -0.0140     0.0690  -999.2500  -999.2500  -999.2500  -999.2500     1.8020   204.3520 
   17.0000    17.0000    -0.0150     0.0690  -999.2500  -999.2500  -999.2500  -999.2500     1.8060   196.4750 
   17.1250    17.1250    -0.0150     0.0700  -999.2500  -999.2500  -999.2500  -999.2500     1.8130   189.8200 
   17.2500    17.2500    -0.0150     0.0700  -999.2500  -999.2500  -999.2500  -999.2500     1.8230   184.0250 
   17.3750    17.3750    -0.0150     0.0710    42.6840   270.4330     6.9040     4.2180     1.8340   178.4550 
   17.5000    17.5000    -0.0150     0.0710    42.6840   270.4330     6.9040     4.2180     1.8480   172.9210 
   17.6250    17.6250    -0.0150     0.0720    45.3340   263.8080     6.8060     2.5390     1.8640   167.4320 
   17.7500    17.7500    -0.0150     0.0720    49.6180   253.9460     6.6540     1.4410     1.8800   162.0220 
   17.8750    17.8750    -0.0150     0.0730    51.8680   244.5170     6.5120     1.1130     1.8960   156.5660 
   18.0000    18.0000    -0.0150     0.0730    51.2820   239.3430     6.4390     1.1280     1.9100   151.0620 
   18.1250    18.1250    -0.0150     0.0740    50.2020   241.9450     6.4380     1.2530     1.9220   145.6680 
   18.2500    18.2500    -0.0160     0.0750    50.7320   250.1510     6.4300     1.4750     1.9340   140.2520 
   18.3750    18.3750    -0.0160     0.0750    51.8550   255.8510     6.3210     1.8340     1.9450   134.8950 
   18.5000    18.5000    -0.0160     0.0760    52.0040   243.5370     5.9650     2.0140     1.9550   129.6780 
   18.6250    18.6250    -0.0160     0.0760    51.8280   197.5600     5.0460     1.6790     1.9770   124.5700 
   18.7500    18.7500    -0.0160     0.0770    52.2140   134.7850     3.6890     1.1550     2.0310   119.4350 
   18.8750    18.8750    -0.0160     0.0770    51.8100    77.9010     2.3190     0.9050     2.1360   114.0890 
   19.0000    19.0000    -0.0160     0.0780    50.9020    41.0870     1.3010     0.8620     2.2890   108.4530 
   19.1250    19.1250    -0.0160     0.0780    52.7960    26.0960     0.7890     0.9790     2.4440   102.0650 
   19.2500    19.2500    -0.0160     0.0790    56.3740    22.8060     0.6260     1.9360     2.5360    94.6320 
   19.3750    19.3750    -0.0170     0.0790    61.1780    27.8380     0.7450     3.6880     2.5350    85.8410 
   19.5000    19.5000    -0.0170     0.0800    66.8810    40.3450     1.1240     5.4940     2.4550    75.8020 
   19.6250    19.6250    -0.0170     0.0800    72.7880    60.1440     1.8320     6.1870     2.3480    65.0480 
   19.7500    19.7500    -0.0170     0.0810    79.0230    79.8250     2.7720     6.4710     2.2750    54.3390 
   19.8750    19.8750    -0.0170     0.0810    86.9960    90.1810     3.6640     6.2320     2.2470    44.0710 
   20.0000    20.0000    -0.0170     0.0820    96.7360    86.6220     4.1130     5.5540     2.2490    34.4140 
   20.1250    20.1250    -0.0170     0.0820   101.7160    74.7650     4.0270     5.0950     2.2590    25.8400 
   20.2500    20.2500    -0.0170     0.0830   100.6210    67.5280     3.8620     4.8550     2.2680    18.6680 
   20.3750    20.3750    -0.0170     0.0830    98.3530    70.1310     3.8910     4.7150     2.2890    13.2040 
   20.5000    20.5000    -0.0170     0.0840    98.2800    81.5070     4.2300     4.7340     2.3310     9.3480 
   20.6250    20.6250    -0.0180     0.0840    95.2340    96.5080     4.9460     5.3120     2.3810     6.7130 
   20.7500    20.7500    -0.0180     0.0850    85.3220   107.3920     5.8960     7.7280     2.4040     4.5660 
   20.8750    20.8750    -0.0180     0.0850    72.1840   110.0130     6.8580    13.4970     2.3720     2.6770 
   21.0000    21.0000    -0.0180     0.0860    62.5890   105.3580     7.5270    18.0070     2.2840     0.9720 
   21.1250    21.1250    -0.0180     0.0860    59.3610    99.4460     7.7080    12.7390     2.1730    -0.6830 
   21.2500    21.2500    -0.0180     0.0870    59.0720    98.3220     7.7650     9.0360     2.1020    -2.1920 
   21.3750    21.3750    -0.0180     0.0870    59.2880   104.3110     8.1150     7.7720     2.1060    -3.4780 
   21.5000    21.5000    -0.0180     0.0880    59.4000   118.3450     9.0910     7.9220     2.1920    -4.5830 
   21.6250    21.6250    -0.0180     0.0880    58.7860   140.8170    10.9370    10.2940     2.3280    -5.4530 
   21.7500    21.7500    -0.0190     0.0890    56.9600   163.8060    13.1530    16.8310     2.4480    -6.1830 
   21.8750    21.8750    -0.0190     0.0890    54.6230   176.2280    14.8000    25.3900     2.5090    -6.8000 
   22.0000    22.0000    -0.0190     0.0900    55.1690   169.9960    14.8860    24.5120     2.4920    -7.4570 
