~V
VERS. 2.00: Ver 2.00
~W
STRT.M 13.0000:
STOP.M 216.0000:
STEP.M 0.1250:
NULL. -999.2500:
UWI. FD10578:
~C
DEPT.M :
TVD. :
DX. :
DY. :
GR.API :
RML.OHMM :
RI. :
RXO.OHMM :
DEN.GM/CC :
SP.MV :
~A
# ...
   86.0000    85.5150     4.3910     4.1690    98.5860     6.9910     5.8870     5.8420     2.3660   -11.7200 
   86.1250    85.6380     4.4100     4.1800    97.1780     7.2370     6.0750     6.1140     2.3540   -11.8490 
   86.2500    85.7610     4.4280     4.1920    94.8230     7.5870     6.3410     6.2700     2.3270   -12.0140 
   86.3750    85.8840     4.4460     4.2040    93.1830     7.9650     6.6290     6.5100     2.2980   -12.1460 
   86.5000    86.0070     4.4650     4.2160    91.5020     8.2800     6.8670     7.0010     2.2800   -12.2820 
   86.6250    86.1300     4.4830     4.2280    91.4490     8.4280     6.9570     7.3830     2.2780   -12.3880 
   86.7500    86.2530     4.5010     4.2400    93.3210     8.4130     6.8980     7.1480     2.2850   -12.4840 
   86.8750    86.3760     4.5200     4.2520    93.4190     8.2900     6.7320     6.9510     2.2950   -12.5410 
   87.0000    86.4990     4.5380     4.2640    90.8480     8.1600     6.5440     7.0240     2.3000   -12.5550 
   87.1250    86.6220     4.5560     4.2760    88.6250     8.1600     6.4400     6.9270     2.2900   -12.6510 
   87.2500    86.7450     4.5750     4.2870    87.0900     8.3370     6.4720     6.6770     2.2660   -12.6860 
   87.3750    86.8680     4.5930     4.2990    85.1170     8.6630     6.6390     6.6680     2.2360   -12.7350 
   87.5000    86.9910     4.6110     4.3110    83.6450     9.0410     6.8880     7.1500     2.2160   -12.7480 
   87.6250    87.1140     4.6290     4.3230    84.1440     9.3090     7.1080     7.9700     2.2230   -12.7000 
   87.7500    87.2370     4.6480     4.3350    85.0040     9.3760     7.2050     8.2900     2.2520   -12.6200 
   87.8750    87.3600     4.6660     4.3470    85.7190     9.2400     7.1480     8.0140     2.2880   -12.5280 
   88.0000    87.4830     4.6840     4.3590    87.0510     8.9880     6.9830     7.7450     2.3100   -12.4670 
   88.1250    87.6060     4.7030     4.3710    88.9280     8.7670     6.8200     7.4950     2.3040   -12.3610 
   88.2500    87.7290     4.7210     4.3830    90.2780     8.6760     6.7510     7.2570     2.2790   -12.3000 
   88.3750    87.8520     4.7390     4.3950    89.2960     8.7250     6.7980     7.0710     2.2500   -12.2250 
   88.5000    87.9750     4.7580     4.4060    86.1220     8.8670     6.9330     7.4810     2.2320   -12.1330 
   88.6250    88.0980     4.7760     4.4180    82.9570     9.0300     7.0960     8.1030     2.2380   -12.1590 
   88.7500    88.2210     4.7940     4.4300    81.3770     9.1800     7.2390     8.1460     2.2560   -12.1630 
   88.8750    88.3440     4.8130     4.4420    80.0410     9.3300     7.3670     7.6380     2.2760   -12.2140 
   89.0000    88.4670     4.8310     4.4540    78.2980     9.5050     7.4930     7.7210     2.2830   -12.2380 
   89.1250    88.5900     4.8490     4.4660    80.1600     9.6980     7.6160     7.6270     2.2710   -12.3000 
   89.2500    88.7130     4.8670     4.4780    85.1880     9.8370     7.7030     7.9840     2.2480   -12.3480 
   89.3750    88.8360     4.8860     4.4900    88.9150     9.8260     7.6950     8.0570     2.2270   -12.3630 
   89.5000    88.9590     4.9040     4.5020    89.3300     9.6080     7.5290     7.6620     2.2180   -12.4230 
   89.6250    89.0820     4.9220     4.5130    88.6520     9.2320     7.2160     7.5720     2.2310   -12.4180 
   89.7500    89.2050     4.9410     4.5250    89.9500     8.9470     6.9390     7.7140     2.2660   -12.4450 
   89.8750    89.3280     4.9590     4.5370    92.3950     9.0050     6.8810     7.5870     2.3160   -12.4840 
   90.0000    89.4510     4.9770     4.5490    92.0390     9.6030     7.1870     7.5290     2.3670   -12.5900 
   90.1250    89.5690     5.0140     4.5660    85.1420    10.9200     8.0270     9.7420     2.3900   -12.6250 
   90.2500    89.6870     5.0500     4.5840    75.3040    12.7490     9.3430    14.6980     2.3730   -12.6690 
   90.3750    89.8050     5.0870     4.6010    67.1990    14.8520    11.0380    17.5230     2.3200   -12.7850 
   90.5000    89.9230     5.1230     4.6180    63.1100    16.9400    12.9040    15.1290     2.2530   -12.8620 
   90.6250    90.0410     5.1590     4.6350    63.3220    18.7290    14.6490    13.9900     2.2000   -12.9650 
   90.7500    90.1600     5.1960     4.6520    65.5910    20.1950    16.1330    16.4710     2.1710   -13.0070 
   90.8750    90.2780     5.2320     4.6700    65.3420    21.3720    17.3500    21.2670     2.1570   -12.9960 
   91.0000    90.3960     5.2690     4.6870    61.5520    22.2390    18.3110    23.4720     2.1450   -12.9940 
   91.1250    90.5140     5.3050     4.7040    57.1070    22.4760    18.8060    20.4180     2.1280   -12.9810 
   91.2500    90.6320     5.3420     4.7210    54.8170    21.8360    18.5600    17.9130     2.1120   -12.9540 
   91.3750    90.7500     5.3780     4.7380    56.8950    20.1790    17.3380    16.5150     2.1090   -12.8950 
   91.5000    90.8680     5.4140     4.7560    62.6720    17.6890    15.2750    15.0880     2.1300   -12.8270 
   91.6250    90.9870     5.4510     4.7730    68.9620    14.8840    12.8930    13.7560     2.1820   -12.7700 
   91.7500    91.1050     5.4870     4.7900    73.5860    12.4270    10.8030    11.2570     2.2450   -12.7350 
   91.8750    91.2230     5.5240     4.8070    79.4610    10.6810     9.2800     8.4800     2.2990   -12.7460 
   92.0000    91.3410     5.5600     4.8250    86.2930     9.7940     8.4130     7.1830     2.3220   -12.6690 
   92.1250    91.4590     5.5960     4.8420    90.1550     9.8190     8.2650     8.1000     2.3020   -12.6120 
   92.2500    91.5770     5.6330     4.8590    88.9840    10.3630     8.5980     9.7100     2.2620   -12.5460 
   92.3750    91.6950     5.6690     4.8760    83.8460    11.0940     9.2070     9.9920     2.2260   -12.4340 
   92.5000    91.8130     5.7060     4.8930    78.6130    11.6820     9.8140     9.7740     2.2100   -12.3700 
   92.6250    91.9320     5.7420     4.9110    79.0890    11.8770    10.1200     9.3200     2.2210   -12.2730 
   92.7500    92.0500     5.7790     4.9280    82.7830    11.8210    10.1590     9.1180     2.2410   -12.2250 
   92.8750    92.1680     5.8150     4.9450    82.9420    11.7610    10.1320     8.9510     2.2540   -12.1310 
   93.0000    92.2860     5.8510     4.9620    77.7400    11.9330    10.2480     9.1900     2.2490   -12.0800 
   93.1250    92.4040     5.8880     4.9790    72.8910    12.5070    10.6660     9.8690     2.2280   -12.0180 
   93.2500    92.5220     5.9240     4.9970    71.5280    13.3810    11.3380    10.9670     2.2050   -11.9790 
   93.3750    92.6400     5.9610     5.0140    72.3390    14.4570    12.2010    12.2730     2.1900   -11.9990 
   93.5000    92.7590     5.9970     5.0310    73.0800    15.6600    13.1800    11.9380     2.1890   -11.9660 
   93.6250    92.8770     6.0340     5.0480    73.8200    16.9960    14.2470    12.0750     2.1990   -11.9700 
   93.7500    92.9950     6.0700     5.0660    74.0440    18.4710    15.4120    13.2500     2.2090   -11.9390 
   93.8750    93.1130     6.1060     5.0830    71.7630    20.0560    16.6860    15.4820     2.2110   -11.9280 
   94.0000    93.2310     6.1430     5.1000    67.0670    21.6160    17.9890    17.0390     2.2000   -11.9130 
   94.1250    93.3490     6.1790     5.1170    63.4700    22.8190    19.0690    17.7650     2.1780   -11.8580 
   94.2500    93.4670     6.2160     5.1340    62.7300    23.4420    19.6860    17.7730     2.1550   -11.8080 
   94.3750    93.5860     6.2520     5.1520    63.1860    23.3930    19.7030    17.7930     2.1420   -11.7700 
   94.5000    93.7040     6.2880     5.1690    63.8280    22.7850    19.1850    18.0270     2.1450   -11.7550 
   94.6250    93.8220     6.3250     5.1860    65.0960    21.9170    18.3860    17.7490     2.1630   -11.7640 
   94.7500    93.9400     6.3610     5.2030    66.3550    21.2270    17.6950    16.3020     2.1840   -11.7810 
   94.8750    94.0580     6.3980     5.2210    67.3500    21.0090    17.3580    15.1710     2.1950   -11.8510 
   95.0000    94.1760     6.4340     5.2380    67.5740    21.4490    17.5480    14.5770     2.1920   -11.9480 
