~V
VERS. 2.00: Ver 2.00
~W
STRT.M 20.0000:
STOP.M 217.0000:
STEP.M 0.1250:
NULL. -999.2500:
UWI. FD10571:
~C
DEPT.M :
TVD. :
DX. :
DY. :
DEN.GM/CC :
GR.API :
RML.OHMM :
RI. :
RXO.OHMM :
SP.MV :
~A
# ...
  147.7500   140.9480   -30.0720   -15.9040     2.4810    52.2710     7.5780     5.7920     5.6480    -7.9190 
  147.8750   141.0560   -30.1230   -15.9380     2.5010    57.6050     7.8100     5.9430     5.8750    -7.8190 
  148.0000   141.1650   -30.1750   -15.9710     2.5130    64.0220     8.1290     6.1540     6.2350    -7.7800 
  148.1250   141.2740   -30.2270   -16.0050     2.5080    72.5830     8.4650     6.3850     6.8350    -7.8030 
  148.2500   141.3820   -30.2780   -16.0380     2.4930    80.5360     8.7180     6.5710     7.5130    -7.9190 
  148.3750   141.4910   -30.3300   -16.0720     2.4790    86.0960     8.8220     6.6620     7.7500    -8.1040 
  148.5000   141.6000   -30.3820   -16.1050     2.4720    90.2560     8.7690     6.6380     7.2220    -8.2570 
  148.6250   141.7080   -30.4330   -16.1390     2.4780    91.9750     8.5960     6.5080     6.8020    -8.2690 
  148.7500   141.8170   -30.4850   -16.1730     2.4910    90.2340     8.3930     6.3380     6.7880    -8.2180 
  148.8750   141.9260   -30.5370   -16.2060     2.5050    86.0700     8.2020     6.1680     6.9590    -8.1500 
  149.0000   142.0340   -30.5880   -16.2400     2.5120    82.6700     8.0400     6.0260     6.6990    -8.0430 
  149.1250   142.1430   -30.6400   -16.2730     2.5020    82.3490     7.9180     5.9300     6.2910    -7.8780 
  149.2500   142.2520   -30.6910   -16.3070     2.4790    82.7510     7.8370     5.8760     6.0880    -7.7370 
  149.3750   142.3610   -30.7430   -16.3410     2.4490    83.0590     7.8130     5.8630     6.0300    -7.6020 
  149.5000   142.4690   -30.7950   -16.3740     2.4240    82.4420     7.8550     5.8950     6.1330    -7.4810 
  149.6250   142.5780   -30.8460   -16.4080     2.4150    81.4600     7.9780     5.9830     6.3500    -7.5180 
  149.7500   142.6870   -30.8980   -16.4410     2.4220    81.6530     8.1660     6.1180     6.5680    -7.6450 
  149.8750   142.7950   -30.9500   -16.4750     2.4410    82.3140     8.4060     6.2930     6.7860    -7.7920 
  150.0000   142.9040   -31.0010   -16.5090     2.4620    80.0070     8.6790     6.4950     7.0320    -7.9510 
  150.1250   143.0050   -31.0640   -16.5470     2.4740    75.6940     8.9510     6.7050     7.3810    -8.1050 
  150.2500   143.1070   -31.1260   -16.5850     2.4730    76.5560     9.1830     6.8950     7.5490    -8.2420 
  150.3750   143.2080   -31.1890   -16.6230     2.4610    83.3370     9.3530     7.0520     7.7310    -8.4440 
  150.5000   143.3090   -31.2510   -16.6610     2.4470    89.2920     9.4640     7.1730     7.9960    -8.7480 
  150.6250   143.4100   -31.3130   -16.7000     2.4460    87.3290     9.5620     7.2850     8.0240    -9.0220 
  150.7500   143.5120   -31.3760   -16.7380     2.4620    83.3320     9.7170     7.4330     7.9760    -9.3070 
  150.8750   143.6130   -31.4380   -16.7760     2.4940    81.9280     9.9830     7.6540     8.2310    -9.6400 
  151.0000   143.7140   -31.5010   -16.8140     2.5270    81.9510    10.3760     7.9670     8.7820    -9.9870 
  151.1250   143.8150   -31.5630   -16.8520     2.5380    81.0190    10.8660     8.3670     9.4230   -10.3250 
  151.2500   143.9170   -31.6250   -16.8900     2.5200    79.4840    11.3530     8.7820    10.2180   -10.6450 
  151.3750   144.0180   -31.6880   -16.9290     2.4810    80.2470    11.7490     9.1370    10.3770   -10.8910 
  151.5000   144.1190   -31.7500   -16.9670     2.4360    82.4940    11.9880     9.3660    10.0250   -11.0330 
  151.6250   144.2200   -31.8130   -17.0050     2.4090    85.6090    12.0170     9.4110     9.7310   -11.0930 
  151.7500   144.3220   -31.8750   -17.0430     2.4060    89.2880    11.9100     9.3260     9.4030   -11.0860 
  151.8750   144.4230   -31.9380   -17.0810     2.4220    90.8120    11.7550     9.1870     9.3680   -10.9990 
  152.0000   144.5240   -32.0000   -17.1190     2.4470    89.3750    11.6580     9.0910     9.4040   -10.8550 
  152.1250   144.6250   -32.0620   -17.1580     2.4620    88.1800    11.7480     9.1510     9.5710   -10.7340 
  152.2500   144.7270   -32.1250   -17.1960     2.4600    88.4400    12.0390     9.3830    10.0310   -10.6520 
  152.3750   144.8280   -32.1870   -17.2340     2.4420    85.4780    12.5080     9.7760    10.9880   -10.6560 
  152.5000   144.9290   -32.2500   -17.2720     2.4170    78.4390    13.0880    10.2830    11.7300   -10.6910 
  152.6250   145.0310   -32.3120   -17.3100     2.4000    74.6820    13.6950    10.8470    12.3000   -10.7040 
  152.7500   145.1320   -32.3740   -17.3480     2.3980    76.6870    14.2770    11.4140    12.1360   -10.6810 
  152.8750   145.2330   -32.4370   -17.3870     2.4110    80.1030    14.8440    11.9890    12.3450   -10.6310 
  153.0000   145.3340   -32.4990   -17.4250     2.4310    82.1050    15.4450    12.6100    13.2570   -10.5630 
  153.1250   145.4360   -32.5620   -17.4630     2.4480    82.3850    16.1270    13.3160    14.1000   -10.4260 
  153.2500   145.5370   -32.6240   -17.5010     2.4510    81.1870    16.8440    14.0620    13.8180   -10.2110 
  153.3750   145.6380   -32.6870   -17.5390     2.4360    79.2600    17.4960    14.7500    12.9520    -9.9420 
  153.5000   145.7390   -32.7490   -17.5780     2.4040    77.7540    17.9580    15.2590    12.7950    -9.7300 
  153.6250   145.8410   -32.8110   -17.6160     2.3640    77.1390    18.0740    15.4410    13.1710    -9.6040 
  153.7500   145.9420   -32.8740   -17.6540     2.3340    77.3950    17.8800    15.3280    13.0200    -9.5240 
  153.8750   146.0430   -32.9360   -17.6920     2.3260    77.0350    17.4500    14.9800    12.8190    -9.4810 
  154.0000   146.1440   -32.9990   -17.7300     2.3430    76.4890    16.9130    14.4920    12.8300    -9.4380 
  154.1250   146.2460   -33.0610   -17.7680     2.3800    77.0170    16.4630    14.0090    12.4670    -9.3900 
  154.2500   146.3470   -33.1230   -17.8070     2.4130    78.3570    16.2770    13.7030    11.3340    -9.3670 
  154.3750   146.4480   -33.1860   -17.8450     2.4270    78.5900    16.5080    13.7180     9.8790    -9.3120 
  154.5000   146.5490   -33.2480   -17.8830     2.4180    76.7450    17.3000    14.1790     9.0160    -9.2040 
  154.6250   146.6510   -33.3110   -17.9210     2.4090    73.7470    18.8900    15.3100     9.8820    -9.1230 
  154.7500   146.7520   -33.3730   -17.9590     2.4270    69.8660    21.1920    17.0990    12.6800    -9.0900 
  154.8750   146.8530   -33.4360   -17.9970     2.4770    64.8810    24.0810    19.5270    16.6590    -9.0770 
  155.0000   146.9540   -33.4980   -18.0360     2.5390    60.4300    27.2770    22.4240    19.9230    -9.0750 
  155.1250   147.0560   -33.5600   -18.0740     2.5640    58.8840    30.3110    25.3910    24.3460    -9.0490 
  155.2500   147.1570   -33.6230   -18.1120     2.5330    59.3760    32.8130    27.9420    29.5720    -8.9830 
  155.3750   147.2580   -33.6850   -18.1500     2.4560    60.5160    34.6210    29.8220    30.9460    -8.9700 
  155.5000   147.3600   -33.7480   -18.1880     2.3620    61.4740    35.7800    31.0210    27.8810    -9.0680 
  155.6250   147.4610   -33.8100   -18.2260     2.2860    63.2830    36.4210    31.6430    26.1320    -9.1730 
  155.7500   147.5620   -33.8720   -18.2650     2.2400    65.4590    36.8310    31.9890    26.5480    -9.2070 
  155.8750   147.6630   -33.9350   -18.3030     2.2200    67.2260    37.1170    32.1970    26.7180    -9.1500 
  156.0000   147.7650   -33.9970   -18.3410     2.2200    67.9940    37.3220    32.3390    27.5670    -9.0110 
  156.1250   147.8660   -34.0600   -18.3790     2.2430    68.6460    37.5150    32.4890    30.1680    -8.9400 
  156.2500   147.9670   -34.1220   -18.4170     2.2870    68.6430    37.8780    32.8080    31.3620    -8.9370 
  156.3750   148.0680   -34.1840   -18.4560     2.3470    66.0460    38.6470    33.5120    30.4940    -8.8740 
  156.5000   148.1700   -34.2470   -18.4940     2.4060    61.2880    40.0300    34.8120    29.7700    -8.7050 
  156.6250   148.2710   -34.3090   -18.5320     2.4340    57.0810    42.1430    36.9020    31.7100    -8.5130 
  156.7500   148.3720   -34.3720   -18.5700     2.4240    55.8360    44.5280    39.4260    36.8860    -8.4060 
