~V
VERS. 2.00: Ver 2.00
~W
STRT.M 63.0000:
STOP.M 264.0000:
STEP.M 0.1250:
NULL. -999.2500:
UWI. FZI117T:
~C
DEPT.M :
SP.MV :
GR.API :
RI. :
RML.OHMM :
RXO.OHMM :
DEN.GM/CC :
~A
# ...
  101.6250   -33.0270    86.3410     4.4530     5.1730     5.3560     2.3170 
  101.7500   -32.9710    85.0210     4.4980     5.2360     5.3470     2.3410 
  101.8750   -32.9520    84.1070     4.4910     5.2330     5.1980     2.3390 
  102.0000   -32.9820    82.9990     4.3940     5.1200     5.0260     2.3060 
  102.1250   -33.0220    82.5650     4.2420     4.9470     4.8930     2.2600 
  102.2500   -33.0980    80.7370     4.1140     4.8230     5.2420     2.2230 
  102.3750   -33.1740    79.6970     4.0430     4.7750     5.6550     2.2030 
  102.5000   -33.2130    80.4250     4.0160     4.7750     5.5440     2.1960 
  102.6250   -33.1910    82.4980     4.0110     4.7950     5.4930     2.1920 
  102.7500   -33.1930    83.1050     3.9950     4.7780     5.6020     2.1880 
  102.8750   -33.2370    81.1270     3.9440     4.7060     5.2920     2.1860 
  103.0000   -33.2940    79.5940     3.8670     4.6010     5.1480     2.1870 
  103.1250   -33.3830    81.5400     3.8170     4.5380     5.6080     2.1910 
  103.2500   -33.5440    85.8730     3.8660     4.6090     5.4600     2.1910 
  103.3750   -33.7500    88.4280     4.0430     4.8450     4.9190     2.1850 
  103.5000   -33.9850    86.0650     4.3750     5.2810     5.3200     2.1690 
  103.6250   -34.2450    80.7240     4.7910     5.8110     6.0590     2.1510 
  103.7500   -34.4470    74.4970     5.1840     6.2900     6.0570     2.1360 
  103.8750   -34.5340    70.0750     5.4690     6.6110     5.5700     2.1280 
  104.0000   -34.5290    68.3820     5.5330     6.6300     5.3370     2.1240 
  104.1250   -34.4890    69.6920     5.4300     6.4360     5.4100     2.1230 
  104.2500   -34.4430    70.9440     5.2610     6.1730     5.4880     2.1250 
  104.3750   -34.4120    71.9600     5.1270     5.9680     5.6050     2.1310 
  104.5000   -34.3480    73.6610     5.0700     5.8750     6.0220     2.1390 
  104.6250   -34.2330    75.1860     5.0790     5.8740     6.4650     2.1440 
  104.7500   -34.0370    75.9120     5.1780     5.9950     6.5430     2.1480 
  104.8750   -33.7870    73.3900     5.3800     6.2470     6.7270     2.1650 
  105.0000   -33.4250    71.5260     5.5740     6.4800     7.3840     2.2080 
  105.1250   -32.9620    70.9940     5.6340     6.5520     8.7260     2.2660 
  105.2500   -32.5320    73.3730     5.5130     6.3930     9.7330     2.3090 
  105.3750   -32.1860    76.9420     5.2240     6.0200     8.4170     2.3120 
  105.5000   -31.9640    80.2070     4.8530     5.5570     6.2980     2.2810 
  105.6250   -31.8460    81.7790     4.4800     5.1120     5.6550     2.2460 
  105.7500   -31.7620    83.4020     4.1640     4.7530     5.5870     2.2330 
  105.8750   -31.6860    85.4390     3.9310     4.5010     5.2770     2.2420 
  106.0000   -31.5940    85.5870     3.8340     4.4000     4.8890     2.2610 
  106.1250   -31.5550    83.1950     3.8460     4.4150     4.6480     2.2790 
  106.2500   -31.5920    80.2400     3.9460     4.5420     4.7940     2.2900 
  106.3750   -31.7310    79.1590     4.1280     4.7730     5.9430     2.2910 
  106.5000   -31.9720    78.3380     4.3840     5.0820     7.4640     2.2730 
  106.6250   -32.2560    77.8100     4.6510     5.3880     7.2120     2.2340 
  106.7500   -32.6100    77.4170     4.8880     5.6450     6.2030     2.1870 
  106.8750   -33.0290    77.2410     5.0700     5.8410     6.3820     2.1530 
  107.0000   -33.4200    76.0530     5.1450     5.9150     7.0210     2.1410 
  107.1250   -33.6660    74.8930     5.0860     5.8250     7.3120     2.1490 
  107.2500   -33.7740    73.9020     4.9400     5.6390     7.0840     2.1670 
  107.3750   -33.8550    73.9230     4.7880     5.4450     6.1790     2.1830 
  107.5000   -33.9860    74.0680     4.7370     5.3960     5.2870     2.1840 
  107.6250   -34.2340    73.7860     4.8750     5.6130     5.6330     2.1670 
  107.7500   -34.6060    73.1290     5.2900     6.2050     6.9280     2.1410 
  107.8750   -34.9760    72.1890     5.9040     7.0410     7.8870     2.1180 
  108.0000   -35.2380    72.2380     6.5300     7.8530     8.0810     2.1070 
  108.1250   -35.3800    71.8090     6.9680     8.3730     7.7540     2.1050 
  108.2500   -35.4350    71.3610     7.0530     8.3940     7.2620     2.1090 
  108.3750   -35.4270    70.2610     6.8960     8.1140     6.8400     2.1120 
  108.5000   -35.4090    68.7850     6.7110     7.8290     6.4860     2.1160 
  108.6250   -35.3660    67.6380     6.6740     7.7780     6.2430     2.1220 
  108.7500   -35.3270    66.3320     6.9590     8.1760     6.6520     2.1320 
  108.8750   -35.3260    67.1720     7.5740     8.9930     9.4280     2.1410 
  109.0000   -35.3590    68.1480     8.3020     9.9140    19.5090     2.1460 
  109.1250   -35.4200    69.2370     8.8550    10.5690    35.4690     2.1460 
  109.2500   -35.5190    66.6950     8.9580    10.6080    41.2960     2.1420 
  109.3750   -35.6170    63.0050     8.5230     9.9650    29.1210     2.1360 
  109.5000   -35.7070    59.0660     7.7690     8.9700    13.0530     2.1300 
  109.6250   -35.7790    58.0530     6.9460     7.9520     6.1350     2.1210 
  109.7500   -35.8500    58.6550     6.3110     7.2320     5.7290     2.1040 
  109.8750   -35.9200    59.8370     5.9650     6.8960     5.9230     2.0820 
  110.0000   -35.9810    60.0070     5.8610     6.8400     5.8000     2.0630 
  110.1250   -36.0480    59.2110     5.8800     6.9030     5.7830     2.0560 
  110.2500   -36.0570    57.8960     5.9340     6.9770     5.8900     2.0650 
  110.3750   -35.9940    56.3720     5.9880     7.0280     6.1330     2.0830 
  110.5000   -35.8970    56.4970     6.0330     7.0550     6.2440     2.1000 
  110.6250   -35.8090    58.4870     6.0710     7.0690     6.0020     2.1110 
  110.7500   -35.7430    59.6980     6.1120     7.0880     5.7840     2.1150 
  110.8750   -35.6970    59.6810     6.1540     7.1160     5.8500     2.1130 
  111.0000   -35.6450    58.0230     6.2090     7.1660     6.3240     2.1060 
  111.1250   -35.6330    58.1700     6.2660     7.2270     7.2750     2.0990 
  111.2500   -35.6150    58.0910     6.3070     7.2820     7.9140     2.0990 
  111.3750   -35.6040    58.2470     6.3270     7.3240     7.5640     2.1040 
  111.5000   -35.5750    57.0220     6.3360     7.3590     7.1280     2.1070 
  111.6250   -35.5370    56.9880     6.3600     7.4050     7.2630     2.1090 
  111.7500   -35.4980    58.2120     6.3970     7.4640     7.3100     2.1110 
  111.8750   -35.5020    60.5310     6.4420     7.5270     7.1800     2.1150 
  112.0000   -35.5410    62.1100     6.4830     7.5870     7.2810     2.1150 
  112.1250   -35.5900    62.6290     6.5130     7.6380     7.6850     2.1130 
  112.2500   -35.6210    63.0750     6.5210     7.6500     8.1470     2.1100 
  112.3750   -35.6410    62.7430     6.5030     7.6260     8.1620     2.1090 
  112.5000   -35.6360    62.3820     6.4600     7.5660     7.7360     2.1060 
  112.6250   -35.6030    60.8390     6.4060     7.4900     7.4670     2.0980 
  112.7500   -35.5260    57.9870     6.3460     7.4090     7.4820     2.0870 
  112.8750   -35.4330    55.4250     6.2950     7.3400     7.3550     2.0770 
  113.0000   -35.3620    54.1710     6.2770     7.3180     6.9850     2.0740 
  113.1250   -35.3360    54.7420     6.3110     7.3720     6.6730     2.0770 
  113.2500   -35.3570    55.6080     6.4080     7.5040     6.7220     2.0830 
  113.3750   -35.3870    55.6060     6.5340     7.6710     7.9760     2.0850 
  113.5000   -35.3920    55.7060     6.6540     7.8230    11.1530     2.0840 
  113.6250   -35.3810    56.9170     6.7300     7.9050    12.5500     2.0820 
  113.7500   -35.3670    57.9590     6.7290     7.8820     9.5230     2.0820 
  113.8750   -35.3450    57.8170     6.6650     7.7830     6.6920     2.0830 
  114.0000   -35.3350    55.3360     6.5710     7.6480     6.2910     2.0820 
  114.1250   -35.3040    54.2280     6.4740     7.5240     6.3310     2.0850 
  114.2500   -35.2150    53.6570     6.4320     7.4840     6.3470     2.1000 
  114.3750   -35.0920    55.9080     6.4460     7.5160     6.5400     2.1340 
