~V
VERS. 2.00: Ver 2.00
~W
STRT.M 60.0000:
STOP.M 284.0000:
STEP.M 0.1250:
NULL. -999.2500:
UWI. FZI118:
~C
DEPT.M :
DEN.GM/CC :
SP.MV :
R2M. :
R025. :
GR.API :
RML.OHMM :
RI. :
RXO.OHMM :
RA2. :
~A
# ...
  160.3750     2.4690    -9.3010    27.9890    20.8250    86.3250    18.4390    19.5690    17.3320    27.9890 
  160.5000     2.4750    -9.0800    27.8340    20.6520    86.9860    18.3330    19.5410    17.8260    27.8340 
  160.6250     2.4740    -8.8590    27.6640    20.3500    84.6900    18.0130    19.2860    17.7490    27.6640 
  160.7500     2.4710    -8.6660    27.2950    19.9310    83.1390    17.4830    18.7870    17.0460    27.2950 
  160.8750     2.4730    -8.5100    26.5990    19.4900    83.9650    16.8350    18.1270    15.9180    26.5990 
  161.0000     2.4760    -8.3930    25.5970    19.1280    85.2560    16.2480    17.4840    15.3290    25.5970 
  161.1250     2.4740    -8.2840    24.4890    18.8810    84.3380    15.9230    17.0700    16.3780    24.4890 
  161.2500     2.4590    -8.1870    23.5190    18.6930    81.5870    15.8390    16.8990    17.9110    23.5190 
  161.3750     2.4310    -8.0940    22.7560    18.5750    80.2640    15.9250    16.9210    18.6990    22.7560 
  161.5000     2.4000    -8.0110    22.1560    18.5660    80.9810    16.1310    17.0860    17.1990    22.1560 
  161.6250     2.3840    -7.9550    21.6920    18.7270    81.8900    16.5300    17.4490    16.8190    21.6920 
  161.7500     2.3840    -7.9110    21.4600    19.0580    80.2960    17.2000    18.0780    17.4810    21.4600 
  161.8750     2.3970    -7.8770    21.6720    19.5520    77.7340    18.1350    19.0000    19.0840    21.6720 
  162.0000     2.4190    -7.8610    22.4420    20.1530    76.7320    19.0850    20.0320    21.6550    22.4420 
  162.1250     2.4490    -7.8890    23.6420    20.6070    78.2510    19.4380    20.6030    22.2030    23.6420 
  162.2500     2.4770    -7.9290    24.7370    20.6050    79.6620    18.8740    20.2980    21.3140    24.7370 
  162.3750     2.4930    -7.9970    25.2850    20.0410    77.6260    17.4970    19.1240    19.1010    25.2850 
  162.5000     2.4930    -8.0890    25.0210    19.0810    74.0140    15.7930    17.5070    16.6490    25.0210 
  162.6250     2.4810    -8.2220    23.8590    18.0710    73.3140    14.4090    16.0540    14.8450    23.8590 
  162.7500     2.4650    -8.3860    22.2370    17.2650    73.1090    13.6210    15.0890    13.6970    22.2370 
  162.8750     2.4480    -8.5270    20.5010    16.7470    71.1590    13.4530    14.6890    13.3380    20.5010 
  163.0000     2.4330    -8.6160    18.9700    16.5340    70.2450    13.8120    14.8230    13.6750    18.9700 
  163.1250     2.4290    -8.6610    17.9870    16.6200    74.0370    14.5900    15.4450    14.7210    17.9870 
  163.2500     2.4370    -8.6850    17.5520    16.8670    77.9320    15.4950    16.2890    15.9560    17.5520 
  163.3750     2.4530    -8.7040    17.5480    17.1870    78.6250    16.2950    17.1140    16.7230    17.5480 
  163.5000     2.4700    -8.7160    17.7580    17.5140    77.9000    16.8300    17.7170    16.3140    17.7580 
  163.6250     2.4810    -8.6800    17.9430    17.8010    77.1800    17.0590    17.9960    15.6700    17.9430 
  163.7500     2.4860    -8.5960    18.0030    18.0670    74.9770    17.1810    18.1160    15.5470    18.0030 
  163.8750     2.4860    -8.4790    18.0040    18.3290    71.8760    17.3380    18.2170    16.3380    18.0040 
  164.0000     2.4820    -8.3470    18.0780    18.5950    70.3240    17.5900    18.3680    17.6060    18.0780 
  164.1250     2.4750    -8.2050    18.3380    18.8470    71.9600    17.9230    18.5550    17.4970    18.3380 
  164.2500     2.4670    -8.0640    18.7210    19.1370    73.6700    18.3000    18.7440    17.0910    18.7210 
  164.3750     2.4610    -7.9230    19.1440    19.5380    72.4700    18.7880    18.9930    16.7960    19.1440 
  164.5000     2.4620    -7.7810    19.5550    20.0940    69.4610    19.5350    19.4490    16.9940    19.5550 
  164.6250     2.4760    -7.6630    19.9760    20.9060    66.7530    20.7570    20.3350    17.7160    19.9760 
  164.7500     2.4980    -7.5810    20.4870    21.9810    64.3790    22.4520    21.6850    18.7710    20.4870 
  164.8750     2.5220    -7.5270    21.2170    23.3290    63.7570    24.5900    23.4980    20.0130    21.2170 
  165.0000     2.5390    -7.5030    22.3420    24.9600    66.3340    27.0790    25.7160    22.0100    22.3420 
  165.1250     2.5460    -7.5050    24.1810    26.8840    71.6170    29.6610    28.1780    26.4170    24.1810 
  165.2500     2.5480    -7.5350    26.6630    28.7980    75.2930    31.7060    30.3540    34.3770    26.6630 
  165.3750     2.5480    -7.5780    29.4770    30.2670    75.4050    32.4160    31.5090    38.6430    29.4770 
  165.5000     2.5460    -7.6520    32.0350    30.9150    72.3630    31.2700    31.0380    31.7360    32.0350 
  165.6250     2.5410    -7.7440    33.5410    30.5610    68.6540    28.5190    28.9640    26.7070    33.5410 
  165.7500     2.5330    -7.8300    33.9900    29.7790    69.1110    25.5870    26.5050    24.7820    33.9900 
  165.8750     2.5250    -7.9390    33.8390    28.9960    74.5450    23.2420    24.3920    24.4460    33.8390 
  166.0000     2.5200    -8.0640    33.8120    28.1810    80.8260    21.5370    22.7800    28.1040    33.8120 
  166.1250     2.5190    -8.2140    34.4500    26.7000    82.9700    19.8360    21.1930    31.5750    34.4500 
  166.2500     2.5130    -8.3790    35.2780    24.3410    83.9180    17.5530    19.0850    26.7080    35.2780 
  166.3750     2.4940    -8.5540    35.4720    21.4060    86.9170    14.8000    16.5000    19.2570    35.4720 
  166.5000     2.4610    -8.6890    34.3270    18.4240    91.9470    12.1330    13.9130    14.9100    34.3270 
  166.6250     2.4270    -8.7610    31.5180    15.9380    97.3230    10.1880    11.8970    12.4730    31.5180 
  166.7500     2.4030    -8.7870    27.9930    14.0730   100.3460     8.9620    10.5000    11.4290    27.9930 
  166.8750     2.3920    -8.7680    24.6760    12.6940    98.4670     8.2330     9.5760    11.4170    24.6760 
  167.0000     2.3930    -8.7090    22.2250    11.4000    93.7820     7.6670     8.8560    12.1530    22.2250 
  167.1250     2.4030    -8.6000    20.7760     9.8270    95.0880     6.9490     8.0580    11.0330    20.7760 
  167.2500     2.4110    -8.4510    19.5710     8.1720   101.7030     6.0810     7.1390     7.8330    19.5710 
  167.3750     2.4060    -8.2520    18.0230     6.8000   107.1980     5.2590     6.2420     5.3880    18.0230 
  167.5000     2.3880    -8.0280    15.8930     5.8900   108.7550     4.6820     5.5380     4.6320    15.8930 
  167.6250     2.3670    -7.8300    13.4270     5.3700   109.0160     4.4830     5.1640     4.6430    13.4270 
  167.7500     2.3540    -7.6690    11.2390     5.0180   109.8190     4.5340     5.0410     4.6600    11.2390 
  167.8750     2.3450    -7.5630     9.6610     4.7730   109.4900     4.7070     5.0800     4.6690     9.6610 
  168.0000     2.3360    -7.4940     8.7040     4.6100   107.4890     4.8910     5.1880     4.6910     8.7040 
  168.1250     2.3310    -7.4500     8.2060     4.5340   104.5100     5.0550     5.3230     4.7700     8.2060 
  168.2500     2.3360    -7.4460     7.9130     4.5190   102.3200     5.2560     5.4980     4.8860     7.9130 
  168.3750     2.3480    -7.4920     7.7540     4.5850   102.6290     5.5380     5.7410     5.0240     7.7540 
  168.5000     2.3600    -7.5810     7.6840     4.7720   105.0510     5.8980     6.0510     5.2120     7.6840 
  168.6250     2.3660    -7.7180     7.6660     5.0730   107.8250     6.2860     6.3900     5.5080     7.6660 
  168.7500     2.3660    -7.9090     7.6570     5.3820   110.5270     6.6090     6.6830     5.7920     7.6570 
  168.8750     2.3620    -8.1190     7.6440     5.6360   114.3970     6.7940     6.8650     6.0030     7.6440 
  169.0000     2.3540    -8.3470     7.6390     5.8200   119.5060     6.8150     6.9010     6.1780     7.6390 
  169.1250     2.3460    -8.6390     7.6580     5.9090   120.6050     6.6980     6.7930     6.3220     7.6580 
  169.2500     2.3400    -8.9580     7.6600     5.9380   116.0880     6.5550     6.6280     6.3810     7.6600 
  169.3750     2.3390    -9.2920     7.5770     5.9720   110.9870     6.4740     6.4770     6.1610     7.5770 
