~V
VERS. 2.00: Ver 2.00
~W
STRT.M 60.0000:
STOP.M 284.0000:
STEP.M 0.1250:
NULL. -999.2500:
UWI. FZI118:
~C
DEPT.M :
DEN.GM/CC :
SP.MV :
R2M. :
R025. :
GR.API :
RML.OHMM :
RI. :
RXO.OHMM :
RA2. :
~A
# ...
   78.2500     2.2280    -9.6750     5.9650     6.5850    99.5020     8.5580     6.7800     7.4670     5.9650 
   78.3750     2.2420    -9.7400     6.2910     6.7010   105.9310     8.4300     6.7150     7.2660     6.2910 
   78.5000     2.2630    -9.7980     6.6160     6.7940   115.5570     8.2740     6.6160     6.7110     6.6160 
   78.6250     2.2810    -9.9060     6.9080     6.8480   120.9240     8.3140     6.5980     6.5510     6.9080 
   78.7500     2.2970   -10.0800     7.3100     7.0530   118.2380     8.7060     6.7640     7.1120     7.3100 
   78.8750     2.3130   -10.3050     8.0230     7.4310   110.3260     9.4660     7.1660     8.3840     8.0230 
   79.0000     2.3230   -10.5760     9.0540     7.7960   103.2300    10.3660     7.7220    10.8750     9.0540 
   79.1250     2.3220   -10.9140     9.9870     8.0520   102.4070    10.8460     8.1340    10.6950     9.9870 
   79.2500     2.3050   -11.3040    10.2790     8.2760   105.7530    10.6280     8.1550     8.1560    10.2790 
   79.3750     2.2690   -11.6520     9.6840     8.3550   109.6500     9.8680     7.7890     7.2220     9.6840 
   79.5000     2.2240   -11.9330     8.3610     8.1590   109.3440     8.9830     7.2520     7.1280     8.3610 
   79.6250     2.1970   -12.1030     6.8150     7.7890   107.1960     8.3520     6.7850     6.7010     6.8150 
   79.7500     2.1950   -12.1820     5.5830     7.4200   108.1220     7.9970     6.4650     6.3570     5.5830 
   79.8750     2.2080   -12.2100     4.7880     7.0810   111.7580     7.8120     6.2650     6.2220     4.7880 
   80.0000     2.2260   -12.2230     4.3170     6.8060   112.5270     7.7150     6.1420     5.9430     4.3170 
   80.1250     2.2410   -12.2000     4.0490     6.6300   109.5770     7.7730     6.1260     5.6090     4.0490 
   80.2500     2.2510   -12.1900     3.9020     6.5420   108.4670     8.0520     6.2500     5.5660     3.9020 
   80.3750     2.2560   -12.2630     3.8790     6.5690   108.6580     8.5700     6.5320     5.8590     3.8790 
   80.5000     2.2540   -12.4020     3.9750     6.7800   105.5910     9.2790     6.9540     6.4700     3.9750 
   80.6250     2.2400   -12.5520     4.1870     7.1970    98.6950    10.0200     7.4440     7.4550     4.1870 
   80.7500     2.2160   -12.6630     4.4690     7.6020    94.1600    10.5200     7.8320     8.1080     4.4690 
   80.8750     2.1870   -12.7180     4.8160     7.7780    95.4090    10.5540     7.9570     8.2670     4.8160 
   81.0000     2.1630   -12.7040     5.2370     7.6120   102.4150    10.0600     7.7430     7.6440     5.2370 
   81.1250     2.1570   -12.6250     5.7310     7.1530   108.5050     9.2000     7.2430     6.7430     5.7310 
   81.2500     2.1680   -12.4940     6.2150     6.6670   110.2490     8.3930     6.7070     6.0160     6.2150 
   81.3750     2.1840   -12.2860     6.6010     6.3300   110.4700     7.8720     6.2940     6.0100     6.6010 
   81.5000     2.1950   -12.0170     6.8220     6.1760   112.1800     7.6980     6.0700     6.2580     6.8220 
   81.6250     2.1890   -11.7360     6.8450     6.0980   114.0720     7.8050     6.0350     5.9800     6.8450 
   81.7500     2.1780   -11.5360     6.7650     6.0130   114.7590     8.0040     6.0920     5.5100     6.7650 
   81.8750     2.1750   -11.3810     6.6600     5.9690   116.3640     8.2200     6.1970     5.5440     6.6600 
   82.0000     2.1810   -11.2320     6.5910     6.0140   118.0320     8.4200     6.3240     6.0540     6.5910 
   82.1250     2.1820   -11.0750     6.5850     6.1150   116.4410     8.5520     6.4380     6.3930     6.5850 
   82.2500     2.1740   -10.8640     6.6070     6.1800   114.4320     8.5530     6.4890     6.4220     6.6070 
   82.3750     2.1690   -10.5880     6.6150     6.1670   114.4270     8.3730     6.4360     6.4210     6.6150 
   82.5000     2.1770   -10.3000     6.5680     6.0850   118.2430     8.0390     6.2760     6.3940     6.5680 
   82.6250     2.1980   -10.0200     6.4380     5.9500   125.2010     7.6700     6.0590     5.8120     6.4380 
   82.7500     2.2200    -9.6970     6.2670     5.7900   129.6220     7.3960     5.8740     5.4470     6.2670 
   82.8750     2.2430    -9.3880     6.1090     5.6310   128.6690     7.2670     5.7660     5.2990     6.1090 
   83.0000     2.2640    -9.1130     6.0200     5.5260   125.8480     7.3020     5.7580     5.4190     6.0200 
   83.1250     2.2790    -8.8800     6.0560     5.5160   125.6260     7.5340     5.8780     6.0460     6.0560 
   83.2500     2.2850    -8.6960     6.1620     5.5960   123.6950     7.8770     6.0780     6.8460     6.1620 
   83.3750     2.2820    -8.5800     6.2310     5.7680   119.6060     8.2150     6.2880     6.7860     6.2310 
   83.5000     2.2720    -8.5290     6.1500     5.9630   119.6650     8.4390     6.4300     6.0060     6.1500 
   83.6250     2.2590    -8.5450     5.8450     6.0590   127.1160     8.5010     6.4570     5.5800     5.8450 
   83.7500     2.2470    -8.6220     5.4330     6.0710   130.4650     8.5010     6.4240     5.5390     5.4330 
   83.8750     2.2330    -8.7260     5.0520     6.0890   127.1270     8.5170     6.3860     5.7020     5.0520 
   84.0000     2.2160    -8.8490     4.8130     6.1570   122.2120     8.5750     6.3770     5.9070     4.8130 
   84.1250     2.2020    -8.9620     4.7670     6.2510   120.7260     8.6290     6.3900     6.0340     4.7670 
   84.2500     2.1960    -9.0940     4.8090     6.3590   121.3070     8.6490     6.4060     6.0920     4.8090 
   84.3750     2.1980    -9.2310     4.8580     6.4800   122.4720     8.6940     6.4440     6.1330     4.8580 
   84.5000     2.2040    -9.3580     4.8650     6.6410   122.7650     8.8980     6.5690     6.1630     4.8650 
   84.6250     2.2200    -9.4410     4.8510     6.9350   119.0630     9.5260     6.9270     6.3930     4.8510 
   84.7500     2.2470    -9.5210     4.9590     7.4370   111.7030    10.7280     7.6220     7.2060     4.9590 
   84.8750     2.2840    -9.6420     5.3670     8.2450   102.4330    12.5390     8.7360     9.4380     5.3670 
   85.0000     2.3280    -9.7940     6.1880     9.4370    95.0500    14.6430    10.1860    13.9160     6.1880 
   85.1250     2.3740   -10.0130     7.3520    10.6730    95.2800    15.9520    11.4040    18.5690     7.3520 
   85.2500     2.4110   -10.2990     8.4200    11.2330    98.6920    15.5310    11.6220    16.2460     8.4200 
   85.3750     2.4180   -10.6580     9.0010    10.8540   100.2240    13.4310    10.6340    11.4160     9.0010 
   85.5000     2.3810   -11.0350     8.8880     9.8840   100.7550    10.7490     9.0170     8.4570     8.8880 
   85.6250     2.3100   -11.4430     8.1140     8.8760   105.8420     8.8020     7.6180     7.5390     8.1140 
   85.7500     2.2440   -11.8360     7.1310     8.0620   112.9510     7.8530     6.7550     7.0180     7.1310 
   85.8750     2.2000   -12.1920     6.2310     7.4790   116.6230     7.7340     6.4120     6.4420     6.2310 
   86.0000     2.1780   -12.5090     5.5580     7.1920   115.4730     8.1650     6.4740     6.3560     5.5580 
   86.1250     2.1710   -12.7670     5.1540     7.2510   112.0520     8.8780     6.8170     6.8350     5.1540 
   86.2500     2.1710   -12.9340     4.9190     7.4800   109.1540     9.5540     7.2250     7.2610     4.9190 
   86.3750     2.1750   -13.0140     4.8080     7.6790   106.4840     9.9830     7.5460     7.3130     4.8080 
   86.5000     2.1800   -13.0970     4.7790     7.7050   103.6490    10.0340     7.6630     7.4630     4.7790 
   86.6250     2.1860   -13.1880     4.7800     7.5380   104.3670     9.7070     7.5250     6.9860     4.7800 
   86.7500     2.1890   -13.3000     4.7680     7.3130   109.7450     9.3700     7.3140     6.0670     4.7680 
   86.8750     2.1890   -13.4300     4.7560     7.1670   113.9290     9.3900     7.2400     5.7540     4.7560 
   87.0000     2.1830   -13.6000     4.8140     7.2930   109.9890    10.0120     7.4770     6.3980     4.8140 
   87.1250     2.1650   -13.8010     5.0970     7.8730    98.2890    11.3430     8.1660     7.4760     5.0970 
   87.2500     2.1360   -14.0100     5.6670     8.6980    89.2040    12.9410     9.1410     8.3430     5.6670 
