~V
VERS. 2.00: Ver 2.00
~W
STRT.M 60.0000:
STOP.M 284.0000:
STEP.M 0.1250:
NULL. -999.2500:
UWI. FZI118:
~C
DEPT.M :
DEN.GM/CC :
SP.MV :
R2M. :
R025. :
GR.API :
RML.OHMM :
RI. :
RXO.OHMM :
RA2. :
~A
# ...
  269.8750     2.3580    -3.8260     8.4040     7.5000    63.5010     8.2460     6.7920     7.3070     8.4040 
  270.0000     2.3460    -3.8040     8.2360     7.4020    63.6530     8.1760     6.7090     7.5700     8.2360 
  270.1250     2.3380    -3.7330     8.1030     7.3140    62.4310     8.1060     6.6270     7.8540     8.1030 
  270.2500     2.3340    -3.6340     8.0250     7.2050    61.7730     8.0300     6.5440     7.9790     8.0250 
  270.3750     2.3330    -3.5360     8.0010     7.0600    61.6370     7.9460     6.4600     7.7460     8.0010 
  270.5000     2.3330    -3.4460     8.0010     6.9160    61.6560     7.8480     6.3730     7.2130     8.0010 
  270.6250     2.3360    -3.3690     7.9720     6.8320    61.7500     7.7380     6.2790     6.6430     7.9720 
  270.7500     2.3380    -3.3130     7.8900     6.7850    61.4750     7.6390     6.1890     6.3890     7.8900 
  270.8750     2.3400    -3.2800     7.7700     6.7400    61.0880     7.5760     6.1220     6.4880     7.7700 
  271.0000     2.3460    -3.2720     7.6430     6.6910    61.0770     7.5640     6.0920     6.8240     7.6430 
  271.1250     2.3510    -3.2950     7.5400     6.6470    61.8080     7.6020     6.1020     7.2480     7.5400 
  271.2500     2.3520    -3.3000     7.4580     6.6060    62.2760     7.6450     6.1200     7.5770     7.4580 
  271.3750     2.3500    -3.2970     7.3880     6.5650    62.3710     7.6570     6.1200     7.4520     7.3880 
  271.5000     2.3550    -3.3050     7.3210     6.5340    63.0970     7.6270     6.0920     6.8080     7.3210 
  271.6250     2.3640    -3.3160     7.2550     6.5280    64.3440     7.5740     6.0480     6.5100     7.2550 
  271.7500     2.3610    -3.2940     7.1910     6.5390    65.1870     7.5330     6.0130     6.5420     7.1910 
  271.8750     2.3440    -3.2940     7.1300     6.5470    64.7530     7.5170     5.9960     6.6850     7.1300 
  272.0000     2.3220    -3.3190     7.0690     6.5430    62.8850     7.5160     5.9940     6.8830     7.0690 
  272.1250     2.3110    -3.3190     7.0070     6.5570    60.8890     7.5180     5.9980     6.9810     7.0070 
  272.2500     2.3110    -3.3390     6.9550     6.6050    60.8890     7.5210     6.0060     6.7470     6.9550 
  272.3750     2.3170    -3.3870     6.9240     6.6660    60.8890     7.5450     6.0290     6.3300     6.9240 
  272.5000     2.3250    -3.4620     6.9220     6.7160    60.8890     7.6110     6.0810     6.1250     6.9220 
  272.6250     2.3330    -3.5580     6.9410     6.7580    60.8890     7.7250     6.1650     6.2110     6.9410 
  272.7500     2.3430    -3.6440     6.9580     6.8160    60.8890     7.8460     6.2600     6.3910     6.9580 
  272.8750     2.3500    -3.7070     6.9540     6.8780    60.8890     7.9400     6.3430     6.5910     6.9540 
  273.0000     2.3510    -3.7580     6.9210     6.9190    60.8890     7.9870     6.3970     6.8440     6.9210 
  273.1250     2.3450    -3.8030     6.8640     6.9260    60.8890     7.9830     6.4150     7.3390     6.8640 
  273.2500     2.3390    -3.8230     6.8050     6.9140    60.8890     7.9570     6.4110     7.7060     6.8050 
  273.3750     2.3390    -3.8070     6.7590     6.8970    60.8890     7.9310     6.3960     7.7430     6.7590 
  273.5000     2.3470    -3.7300     6.7310     6.8850    60.8890     7.9200     6.3830     7.8570     6.7310 
  273.6250     2.3590    -3.6450     6.7260     6.8920    60.8890     7.9350     6.3770     7.9110     6.7260 
  273.7500     2.3700    -3.5750     6.7330     6.9070    60.8890     7.9600     6.3750     7.6190     6.7330 
  273.8750     2.3750    -3.5060     6.7430     6.9210    60.8890     7.9740     6.3720     7.2640     6.7430 
  274.0000     2.3710    -3.4270     6.7470     6.9320    60.8890     7.9610     6.3630     7.1920     6.7470 
  274.1250     2.3590    -3.3530     6.7420     6.9550    60.8890     7.9210     6.3520     7.5970     6.7420 
  274.2500     2.3490    -3.3000     6.7290     6.9900    60.8890     7.8860     6.3490     8.0660     6.7290 
  274.3750     2.3490    -3.2560     6.7160     7.0210    60.8890     7.8820     6.3680     7.9010     6.7160 
  274.5000     2.3600    -3.2650     6.7180     7.0340    60.8890     7.9230     6.4180     7.0520     6.7180 
  274.6250     2.3790    -3.2960     6.7700     7.0320    60.8890     8.0210     6.5150     6.6210     6.7700 
  274.7500     2.4030    -3.3570     6.8810     7.0360    60.8890     8.1710     6.6620     6.5320     6.8810 
  274.8750     2.4230    -3.4470     7.0400     7.0430    60.8890     8.3770     6.8590     6.4920     7.0400 
  275.0000     2.4230    -3.5420     7.2080     7.0440    60.8890     8.6230     7.0930     6.4520     7.2080 
  275.1250     2.3990    -3.6490     7.3310     7.0400    60.8890     8.8720     7.3270     6.6700     7.3310 
  275.2500     2.3680    -3.7410     7.3930     7.0370    60.8890     9.0880     7.5230     7.4790     7.3930 
  275.3750     2.3450    -3.8240     7.4120     7.0350    60.8890     9.2470     7.6550     8.9140     7.4120 
  275.5000     2.3340    -3.8740     7.4200     7.0340    60.8890     9.3260     7.7080    10.0250     7.4200 
  275.6250     2.3330    -3.9580     7.4440     7.0350    60.8890     9.2890     7.6580     9.2680     7.4440 
  275.7500     2.3390    -4.0680     7.4780     7.0350    60.8890     9.1570     7.4410     8.3700     7.4780 
  275.8750     2.3510    -4.1620     7.5090     7.0290    60.8890     8.9710     7.2160     7.8590     7.5090 
  276.0000     2.3690    -4.2380     7.5330     7.0210    60.8890     8.7340     7.0690     7.6730     7.5330 
  276.1250     2.3910    -4.2910     7.5610     7.0200    60.8890     8.2770     6.9190     7.4450     7.5610 
  276.2500     2.4080    -4.3290     7.6040     7.0220    60.8890     7.7290     6.7940     7.4420     7.6040 
  276.3750     2.4150    -4.3620     7.6650     7.0260    60.8890     7.4770     6.7040     7.4220     7.6650 
  276.5000     2.4120    -4.3910     7.7400     7.0280    60.8890     7.7860     6.6560     7.5210     7.7400 
  276.6250     2.4080    -4.4130     7.8150     7.0290    60.8890     8.0100     6.6590     7.7510     7.8150 
  276.7500     2.4080    -4.4670     7.8790     7.0300    60.8890     8.0350     6.7060     8.4230     7.8790 
  276.8750     2.4110    -4.5330     7.9270     7.0290    60.8890     8.1160     6.8000     9.7040     7.9270 
  277.0000     2.4160    -4.5470     7.9610     7.0290    60.8890     8.2060     6.9380    11.5880     7.9610 
  277.1250     2.4260    -4.5280     7.9860     7.0290    60.8890     8.2930     7.1500    12.2110     7.9860 
  277.2500     2.4380    -4.4950     8.0030     7.0300    60.8890     8.3790     7.2360    12.5450     8.0030 
  277.3750     2.4470    -4.4560     8.0150     7.0310    60.8890     8.4740     7.2890    12.2410     8.0150 
  277.5000     2.4560    -4.4160     8.0190     7.0300    60.8890     8.5740     7.3070    11.6670     8.0190 
  277.6250     2.4650    -4.2800     8.0150     7.0290    60.8890     8.6820     7.2630    11.2750     8.0150 
  277.7500     2.4690    -4.2880     8.0110     7.0280    60.8890     8.7780     7.2570    11.0760     8.0110 
  277.8750     2.4560    -4.2780     8.0080     7.0280    60.8890     8.7790     7.2600    11.5250     8.0080 
  278.0000     2.4320    -4.2580     8.0050     7.0280    60.8890     8.7940     7.2620    12.8400     8.0050 
  278.1250     2.4140    -4.2290     7.9970     7.0280    60.8890     8.7940     7.2620    15.1890     7.9970 
  278.2500     2.4090    -4.1930     7.9870     7.0290    60.8890     8.7940     7.2620    17.2730     7.9870 
  278.3750     2.4140    -4.1610     7.9760     7.0290    60.8890     8.7940     7.2620    17.3280     7.9760 
  278.5000     2.4240    -4.1270     7.9700     7.0290    60.8890     8.7940     7.2620    14.0090     7.9700 
  278.6250     2.4330    -4.0890     7.9700     7.0310    60.8890     8.7940     7.2620    13.0190     7.9700 
  278.7500     2.4350    -4.0610     7.9740     7.0310    60.8890     8.7940     7.2620    12.9430     7.9740 
  278.8750     2.4250    -4.0640     7.9770     7.0310    60.8890     8.7940     7.2620    12.9920     7.9770 
