~V
VERS. 2.00: Ver 2.00
~W
STRT.M 60.0000:
STOP.M 284.0000:
STEP.M 0.1250:
NULL. -999.2500:
UWI. FZI118:
~C
DEPT.M :
DEN.GM/CC :
SP.MV :
R2M. :
R025. :
GR.API :
RML.OHMM :
RI. :
RXO.OHMM :
RA2. :
~A
# ...
   87.3750     2.1070   -14.2340     6.4860     9.4940    84.3520    14.2240    10.1070     8.8540     6.4860 
   87.5000     2.0870   -14.4080     7.3700    10.0730    81.2370    14.6350    10.6830     9.0840     7.3700 
   87.6250     2.0840   -14.5220     7.9980    10.4020    80.3500    14.0430    10.6380     9.0310     7.9980 
   87.7500     2.0950   -14.5620     8.2270    10.6340    81.2040    13.3010    10.3770     8.9410     8.2270 
   87.8750     2.1170   -14.5240     8.1330    10.9160    80.7310    13.1240    10.3140     9.0230     8.1330 
   88.0000     2.1470   -14.4230     8.0200    11.4180    77.7880    14.0030    10.7810     9.5900     8.0200 
   88.1250     2.1900   -14.3210     8.4350    12.4360    76.1720    16.2810    12.1270    12.1280     8.4350 
   88.2500     2.2470   -14.2290     9.6110    13.9680    75.7030    19.2380    14.1120    19.0110     9.6110 
   88.3750     2.3130   -14.1730    11.4400    15.5590    75.1910    21.5540    16.0160    29.1410    11.4400 
   88.5000     2.3750   -14.1810    13.4180    16.2800    77.0430    21.4910    16.5550    27.9160    13.4180 
   88.6250     2.3950   -14.2890    14.6220    15.3120    83.3100    18.1380    14.7120    16.2530    14.6220 
   88.7500     2.3540   -14.4940    14.5770    13.4610    90.0290    13.8660    11.9270    10.1640    14.5770 
   88.8750     2.2730   -14.7580    13.2860    11.6130    95.0490    10.4680     9.4630     8.0120    13.2860 
   89.0000     2.2000   -15.0870    11.2010    10.2330    98.0630     8.5860     7.8590     7.0650    11.2010 
   89.1250     2.1710   -15.4750     9.0470     9.4360    98.2730     8.2290     7.2460     6.5340     9.0470 
   89.2500     2.1700   -15.9550     7.3970     9.0970    94.5850     8.7440     7.2830     6.8460     7.3970 
   89.3750     2.1790   -16.4620     6.4250     9.0890    87.5310     9.7880     7.7900     8.1470     6.4250 
   89.5000     2.1890   -16.9750     6.0570     9.2630    80.6130    11.0140     8.5700    10.2590     6.0570 
   89.6250     2.2070   -17.4380     6.1000     9.5420    78.3450    11.9300     9.3210    11.2930     6.1000 
   89.7500     2.2270   -17.8370     6.2310     9.7620    78.5420    12.2400     9.7490    10.1680     6.2310 
   89.8750     2.2280   -18.1900     6.2950     9.7690    77.2280    11.9490     9.7590     8.9340     6.2950 
   90.0000     2.1940   -18.4370     6.2460     9.5820    73.6560    11.3470     9.4720     8.3740     6.2460 
   90.1250     2.1420   -18.5350     6.1700     9.3980    70.9880    10.8460     9.1380     8.1760     6.1700 
   90.2500     2.1050   -18.4870     6.2280     9.3080    71.1240    10.6300     8.9310     8.0460     6.2280 
   90.3750     2.0900   -18.3470     6.5310     9.2280    74.5250    10.6710     8.8720     7.9640     6.5310 
   90.5000     2.0900   -18.1400     7.1260     9.1240    80.1640    10.8570     8.9130     7.9170     7.1260 
   90.6250     2.0960   -17.8980     8.0150     9.0540    84.5050    11.0900     9.0050     7.8390     8.0150 
   90.7500     2.1040   -17.6560     9.0320     9.0540    84.8120    11.3330     9.1270     7.7900     9.0320 
   90.8750     2.1110   -17.4460    10.0120     9.1560    81.9150    11.5790     9.2810     8.1380    10.0120 
   91.0000     2.1150   -17.2880    10.7830     9.3590    79.3270    11.7950     9.4510     8.6850    10.7830 
   91.1250     2.1170   -17.1620    11.1690     9.5890    78.7200    11.9050     9.5860     8.9700    11.1690 
   91.2500     2.1170   -17.0760    11.2130     9.7500    78.0320    11.8770     9.6400     8.9820    11.2130 
   91.3750     2.1150   -17.0080    11.0030     9.8250    76.8230    11.7180     9.5980     8.9110    11.0030 
   91.5000     2.1140   -16.9670    10.6810     9.8430    75.8420    11.4940     9.4860     8.7870    10.6810 
   91.6250     2.1150   -16.9620    10.4060     9.8100    77.1160    11.2880     9.3480     8.7560    10.4060 
   91.7500     2.1160   -16.9800    10.2310     9.7290    79.7360    11.1250     9.2180     8.7940    10.2310 
   91.8750     2.1170   -17.0040    10.1180     9.6320    83.7370    10.9830     9.0900     8.7480    10.1180 
   92.0000     2.1130   -17.0610     9.9880     9.5460    87.9420    10.8500     8.9600     8.6320     9.9880 
   92.1250     2.1070   -17.1760     9.7610     9.4830    89.0480    10.7470     8.8520     8.5790     9.7610 
   92.2500     2.1050   -17.3130     9.4520     9.4550    87.0150    10.6970     8.7920     8.6580     9.4520 
   92.3750     2.1070   -17.4670     9.1130     9.4660    84.4850    10.7060     8.7880     8.7480     9.1130 
   92.5000     2.1110   -17.6310     8.8100     9.4940    83.6440    10.7560     8.8240     8.8130     8.8100 
   92.6250     2.1130   -17.8010     8.6080     9.4920    83.1190    10.8080     8.8690     8.8430     8.6080 
   92.7500     2.1150   -17.9560     8.5030     9.4600    79.9260    10.8400     8.8970     8.8390     8.5030 
   92.8750     2.1190   -18.0880     8.4820     9.4370    75.5530    10.8630     8.9190     8.7920     8.4820 
   93.0000     2.1270   -18.1830     8.5270     9.4700    73.1040    10.9100     8.9560     8.7570     8.5270 
   93.1250     2.1340   -18.2430     8.6480     9.5900    73.9310    11.0200     9.0410     8.8510     8.6480 
   93.2500     2.1350   -18.2760     8.8530     9.7250    76.7970    11.1690     9.1600     9.0960     8.8530 
   93.3750     2.1320   -18.2900     9.1350     9.8100    79.0630    11.2790     9.2670     9.4380     9.1350 
   93.5000     2.1300   -18.2830     9.4320     9.8090    79.2130    11.2470     9.2970     9.5700     9.4320 
   93.6250     2.1310   -18.2320     9.6130     9.7150    76.8920    10.9980     9.1810     9.2850     9.6130 
   93.7500     2.1310   -18.1740     9.6130     9.5660    76.1840    10.6400     8.9700     9.0490     9.6130 
   93.8750     2.1270   -18.1120     9.4430     9.3960    79.3590    10.3090     8.7410     8.8920     9.4430 
   94.0000     2.1180   -18.0540     9.1850     9.2480    83.1850    10.1130     8.5650     8.9130     9.1850 
   94.1250     2.1080   -17.9660     8.9480     9.1450    84.3730    10.0970     8.4900     9.0100     8.9480 
   94.2500     2.1000   -17.8810     8.7860     9.0750    84.3220    10.1690     8.4810     9.1030     8.7860 
   94.3750     2.0940   -17.7960     8.6940     9.0240    84.5940    10.2560     8.5030     9.2850     8.6940 
   94.5000     2.0860   -17.7080     8.6510     8.9810    82.6250    10.3210     8.5310     9.5130     8.6510 
   94.6250     2.0730   -17.6160     8.6390     8.9560    77.9850    10.3510     8.5540     9.7050     8.6390 
   94.7500     2.0560   -17.5450     8.6370     8.9600    75.6130    10.3570     8.5740     9.8650     8.6370 
   94.8750     2.0430   -17.4870     8.6410     8.9970    76.4320    10.3540     8.5950    10.0250     8.6410 
   95.0000     2.0410   -17.4180     8.6610     9.0530    77.6060    10.3600     8.6250    10.0870     8.6610 
   95.1250     2.0480   -17.3860     8.7380     9.0940    77.6650    10.3880     8.6700     9.8990     8.7380 
   95.2500     2.0580   -17.3700     8.8810     9.1050    77.7850    10.4200     8.7190     9.6800     8.8810 
   95.3750     2.0750   -17.3720     9.0650     9.1120    78.1440    10.4240     8.7530     9.3780     9.0650 
   95.5000     2.0960   -17.3830     9.2350     9.1230    77.5600    10.3860     8.7570     8.9170     9.2350 
   95.6250     2.1150   -17.4220     9.3080     9.1160    77.1330    10.3000     8.7210     8.7260     9.3080 
   95.7500     2.1260   -17.4340     9.2630     9.0870    77.1090    10.2020     8.6620     8.6610     9.2630 
   95.8750     2.1290   -17.4310     9.1170     9.0550    76.7530    10.1240     8.5990     8.7960     9.1170 
   96.0000     2.1320   -17.4410     8.9180     9.0250    75.6510    10.0800     8.5480     9.2140     8.9180 
   96.1250     2.1300   -17.4190     8.7180     8.9790    74.6390    10.0680     8.5170     9.7470     8.7180 
   96.2500     2.1210   -17.3810     8.5520     8.9230    74.9750    10.0610     8.4950    10.0650     8.5520 
   96.3750     2.1040   -17.3250     8.4260     8.8710    75.8150    10.0460     8.4730    10.0560     8.4260 
