~V
VERS. 2.00: Ver 2.00
~W
STRT.M 63.0000:
STOP.M 264.0000:
STEP.M 0.1250:
NULL. -999.2500:
UWI. FZI117T:
~C
DEPT.M :
SP.MV :
GR.API :
RI. :
RML.OHMM :
RXO.OHMM :
DEN.GM/CC :
~A
# ...
   75.8750   -33.9470    91.6690     5.0590     7.3880     7.0340     2.1920 
   76.0000   -33.8000    90.3510     5.1420     7.4980     6.2930     2.1910 
   76.1250   -33.5120    89.6080     5.1220     7.4760     5.6830     2.1840 
   76.2500   -33.1940    90.3770     4.9760     7.3050     5.7710     2.1860 
   76.3750   -33.1480    91.6080     4.7390     7.0360     6.2930     2.2030 
   76.5000   -33.1480    92.7550     4.4960     6.7510     6.4360     2.2230 
   76.6250   -33.1480    93.3350     4.2730     6.4730     5.6640     2.2270 
   76.7500   -33.1480    94.2580     4.1340     6.2900     4.8830     2.2100 
   76.8750   -33.1480    95.6320     4.1210     6.2890     4.6540     2.1850 
   77.0000   -33.1480    95.1200     4.2260     6.4630     4.9430     2.1630 
   77.1250   -33.1480    93.3270     4.4030     6.7190     5.6560     2.1500 
   77.2500   -33.1480    90.0970     4.5860     6.9390     6.0680     2.1470 
   77.3750   -33.1480    89.6160     4.7330     7.0660     5.7980     2.1500 
   77.5000   -33.1480    90.8000     4.8500     7.1740     5.4340     2.1510 
   77.6250   -33.1480    92.0050     4.9800     7.3480     5.3940     2.1460 
   77.7500   -33.1480    89.3690     5.0980     7.5580     5.6370     2.1390 
   77.8750   -33.1480    85.7320     5.1520     7.7250     6.0620     2.1400 
   78.0000   -33.2870    82.6110     5.1080     7.7110     6.1230     2.1520 
   78.1250   -33.5510    81.2020     4.9190     7.4210     5.6130     2.1690 
   78.2500   -33.8150    83.6230     4.6110     6.9370     5.2230     2.1830 
   78.3750   -33.9550    89.0950     4.3050     6.4450     5.0830     2.1920 
   78.5000   -34.1570    96.0250     4.0910     6.1330     4.7700     2.1950 
   78.6250   -34.3580   100.3390     4.0430     6.1220     4.5100     2.1900 
   78.7500   -34.4510   100.6220     4.1690     6.3760     4.7890     2.1770 
   78.8750   -35.0100    97.2030     4.3660     6.7210     5.3670     2.1620 
   79.0000   -35.1650    91.8940     4.5600     7.0210     5.6980     2.1520 
   79.1250   -35.2430    88.1870     4.6970     7.1970     5.7760     2.1490 
   79.2500   -35.5220    87.9550     4.7760     7.2640     5.7690     2.1480 
   79.3750   -35.5690    89.0820     4.8360     7.3070     5.7420     2.1400 
   79.5000   -35.5690    87.4630     4.9280     7.4260     5.8700     2.1190 
   79.6250   -35.6930    81.8390     5.0810     7.6450     6.1010     2.0930 
   79.7500   -36.0040    75.0000     5.2760     7.9160     6.0550     2.0730 
   79.8750   -36.3760    69.7460     5.4760     8.1750     5.7450     2.0640 
   80.0000   -36.9350    66.1760     5.6440     8.3610     5.4910     2.0640 
   80.1250   -37.3380    62.9090     5.8240     8.5640     5.4950     2.0770 
   80.2500   -37.9440    60.8460     6.1240     8.9820     6.0730     2.1160 
   80.3750   -38.3470    60.2830     6.5310     9.5890     6.8060     2.1830 
   80.5000   -38.8750    62.0630     6.9650    10.2540     7.2030     2.2590 
   80.6250   -39.5420    62.1600     7.2690    10.7190    11.0430     2.3020 
   80.7500   -40.0390    60.6040     7.3510    10.8190    16.9920     2.2820 
   80.8750   -40.3810    58.5520     7.1820    10.4950    15.3660     2.2180 
   81.0000   -40.4120    58.6790     6.6950     9.6750     8.6330     2.1580 
   81.1250   -40.3960    60.4490     6.0460     8.6360     5.6290     2.1360 
   81.2500   -40.0550    64.2690     5.3770     7.5840     5.4560     2.1480 
   81.3750   -39.3560    70.4040     4.8580     6.7780     5.4390     2.1690 
   81.5000   -38.9530    78.9550     4.6420     6.4250     5.4050     2.1820 
   81.6250   -38.3470    85.5270     4.7530     6.5810     5.3210     2.1860 
   81.7500   -37.9130    86.3100     5.3030     7.4480     5.2530     2.1900 
   81.8750   -37.2140    83.7280     6.2000     8.8600     7.2140     2.2070 
   82.0000   -36.7800    81.2100     7.1550    10.3000    16.4540     2.2460 
   82.1250   -36.5000    81.5690     7.6970    10.9670    26.5270     2.2940 
   82.2500   -36.3680    84.2880     7.4460    10.3630    23.8850     2.3250 
   82.3750   -36.1740    88.7210     6.5100     8.7890    13.6050     2.3250 
   82.5000   -35.9800    93.7510     5.2490     6.8970     6.6130     2.3060 
   82.6250   -35.9420    97.4300     4.1730     5.4490     3.9980     2.2910 
   82.7500   -35.6470    99.8210     3.5290     4.6840     3.5580     2.2890 
   82.8750   -35.5690    98.9760     3.2830     4.4280     3.8040     2.2890 
   83.0000   -35.1650    98.4290     3.3030     4.4690     4.2160     2.2880 
   83.1250   -34.7620    97.7970     3.6120     4.8810     4.3960     2.2920 
   83.2500   -34.7620    96.8470     4.4670     6.1190     4.6010     2.3160 
   83.3750   -34.7620    93.1450     6.2660     8.7880    10.8230     2.3660 
   83.5000   -34.7620    86.4300     9.0950    13.0020    38.6030     2.4290 
   83.6250   -34.7620    77.3920    12.5820    18.2750    78.7520     2.4730 
   83.7500   -34.9640    69.0350    14.9530    21.7030    99.6470     2.4570 
   83.8750   -35.1970    64.1730    14.9590    21.4170    89.2850     2.3840 
   84.0000   -35.4990    63.3980    12.9440    18.1020    54.3360     2.2850 
   84.1250   -35.8020    64.3480     9.9440    13.3920    21.4250     2.2050 
   84.2500   -36.2910    64.9340     7.8410    10.4060     8.9080     2.1580 
   84.3750   -36.3760    65.9060     6.8990     9.3420     6.9680     2.1360 
   84.5000   -36.4540    67.3930     6.6030     9.2150     6.5720     2.1290 
   84.6250   -36.7590    68.4320     6.5720     9.3460     6.3400     2.1260 
   84.7500   -36.9610    67.3310     6.5530     9.2950     6.1930     2.1200 
   84.8750   -37.2190    64.6620     6.4470     8.9410     6.0300     2.1140 
   85.0000   -37.5400    62.5950     6.3900     8.5630     5.8450     2.1160 
   85.1250   -37.5870    63.2150     6.6210     8.5800     5.7310     2.1390 
   85.2500   -37.7300    65.5220     7.3110     9.2810     6.5900     2.1990 
   85.3750   -38.0830    66.7840     8.1850    10.2920    15.8220     2.2850 
   85.5000   -38.3510    66.0210     8.9100    11.1200    35.4940     2.3530 
   85.6250   -38.6530    65.2140     9.1470    11.2730    41.6230     2.3530 
   85.7500   -38.5900    65.4100     8.6900    10.5110    24.3550     2.2750 
   85.8750   -38.3940    64.9170     7.8070     9.2720     9.0780     2.1740 
   86.0000   -38.3940    62.6410     6.8210     8.0010     5.6740     2.1020 
   86.1250   -38.3940    58.6360     6.0770     7.1430     5.4390     2.0690 
   86.2500   -38.3940    55.3970     5.7820     6.8910     5.3930     2.0620 
   86.3750   -38.3940    53.4050     5.7940     6.9750     5.3860     2.0630 
   86.5000   -38.3940    54.0400     5.8780     7.1010     5.4270     2.0660 
   86.6250   -38.3940    55.1290     5.9550     7.1980     5.4800     2.0680 
   86.7500   -38.3940    56.1010     6.0220     7.2670     5.5460     2.0690 
   86.8750   -38.3940    55.4610     6.0820     7.3180     5.6000     2.0700 
   87.0000   -38.3940    56.2270     6.1260     7.3480     5.5480     2.0730 
   87.1250   -38.3940    58.2110     6.1490     7.3560     5.5200     2.0760 
   87.2500   -38.3940    60.8810     6.1510     7.3400     5.6250     2.0780 
   87.3750   -38.3940    61.9160     6.1290     7.3010     5.7110     2.0770 
   87.5000   -38.3940    61.3160     6.0870     7.2440     5.7390     2.0760 
   87.6250   -38.3940    60.7120     6.0350     7.1800     5.7680     2.0750 
   87.7500   -38.3940    60.1550     5.9890     7.1390     5.7660     2.0740 
   87.8750   -38.3940    60.0210     5.9690     7.1270     5.7250     2.0740 
   88.0000   -38.3940    59.4560     5.9680     7.1320     5.6630     2.0760 
   88.1250   -38.3840    60.5340     5.9760     7.1380     5.6440     2.0790 
   88.2500   -38.1920    61.1300     5.9830     7.1270     5.6830     2.0830 
   88.3750   -38.0010    61.3900     5.9840     7.1010     5.6420     2.0840 
   88.5000   -37.9900    60.7240     5.9740     7.0600     5.5370     2.0820 
   88.6250   -37.9590    60.8940     5.9590     7.0090     5.5850     2.0800 
