~V
VERS. 2.00: Ver 2.00
~W
STRT.M 60.0000:
STOP.M 289.0000:
STEP.M 0.1250:
NULL. -999.2500:
UWI. FZI117:
~C
DEPT.M :
DEN.GM/CC :
SP.MV :
R2M. :
R025. :
RA2. :
GR.API :
RML.OHMM :
RI. :
RXO.OHMM :
~A
# ...
  233.3750     2.6630   -13.9910    74.4250    22.8370    74.4250    76.6340    29.0340    29.6530    36.9390 
  233.5000     2.6440   -13.5190    69.9020    19.4160    69.9020    79.7870    21.8360    22.5580    19.1670 
  233.6250     2.5940   -13.1080    61.0930    17.5810    61.0930    83.7840    17.2670    17.6480    13.2810 
  233.7500     2.5350   -12.7320    50.5400    16.7300    50.5400    85.6460    14.9920    14.8430    12.3030 
  233.8750     2.4920   -12.3910    40.7060    16.6650    40.7060    85.5030    14.7010    13.8920    13.0430 
  234.0000     2.4820   -12.0910    33.6690    17.2140    33.6690    84.5750    15.9920    14.4590    14.6050 
  234.1250     2.5120   -11.8210    30.9650    17.9240    30.9650    81.3570    18.2280    16.1120    19.6290 
  234.2500     2.5610   -11.5630    31.3190    17.9220    31.3190    76.1350    20.0050    17.6830    28.6170 
  234.3750     2.6050   -11.3190    33.2240    16.6600    33.2240    74.3050    20.1520    18.1230    34.4320 
  234.5000     2.6260   -11.0840    34.9760    14.3990    34.9760    80.6560    18.2960    16.9200    30.2970 
  234.6250     2.6100   -10.8620    34.7890    12.1740    34.7890    90.4840    15.2310    14.4630    18.8120 
  234.7500     2.5730   -10.6640    32.4200    10.7410    32.4200    95.7550    12.5040    12.0280    10.4000 
  234.8750     2.5320   -10.4840    28.5860    10.1410    28.5860    97.1500    10.8010    10.2930     7.5310 
  235.0000     2.5040   -10.3040    24.6920    10.0880    24.6920    98.3390    10.2410     9.4800     7.8240 
  235.1250     2.4990   -10.1310    22.4730    10.1720    22.4730    97.3220    10.6650     9.5580     9.5500 
  235.2500     2.5140    -9.9560    22.1890     9.9590    22.1890    93.3250    11.3630     9.9780    11.2590 
  235.3750     2.5460    -9.7760    23.1830     9.2970    23.1830    90.2810    11.7380    10.2560    13.3380 
  235.5000     2.5860    -9.5900    24.2480     8.2850    24.2480    89.6330    11.3720    10.0050    14.4530 
  235.6250     2.6240    -9.3840    24.0060     7.1850    24.0060    91.1200    10.2010     9.0910    12.2480 
  235.7500     2.6480    -9.1570    22.2120     6.2700    22.2120    91.3000     8.7900     7.9270     8.8450 
  235.8750     2.6470    -8.9210    19.2270     5.6510    19.2270    87.6300     7.5090     6.8420     6.8300 
  236.0000     2.6170    -8.7120    15.7570     5.3080    15.7570    80.2530     6.5160     6.0300     5.5720 
  236.1250     2.5640    -8.5470    12.6180     5.1180    12.6180    76.1770     6.0350     5.5790     5.0100 
  236.2500     2.5100    -8.4310    10.2130     4.9320    10.2130    79.8370     5.8600     5.3690     4.8100 
  236.3750     2.4760    -8.3660     8.6450     4.7350     8.6450    87.3540     5.8750     5.3170     4.9790 
  236.5000     2.4680    -8.3460     7.8470     4.5920     7.8470    93.6230     5.9930     5.3540     5.4250 
  236.6250     2.4790    -8.3780     7.6680     4.5950     7.6680    95.8930     6.1670     5.4390     5.5790 
  236.7500     2.4880    -8.4470     7.6730     4.6890     7.6730    95.0080     6.3280     5.5350     5.4250 
  236.8750     2.4860    -8.5480     7.5970     4.7970     7.5970    92.0490     6.4310     5.6190     5.2240 
  237.0000     2.4750    -8.6640     7.3550     4.8630     7.3550    88.3110     6.4620     5.6750     5.2930 
  237.1250     2.4690    -8.7820     7.0490     4.9220     7.0490    86.2380     6.4350     5.6870     5.6580 
  237.2500     2.4710    -8.8990     6.8700     5.0230     6.8700    86.5340     6.3810     5.6620     6.0800 
  237.3750     2.4760    -9.0210     6.9120     5.1250     6.9120    88.5070     6.3070     5.6040     6.1580 
  237.5000     2.4740    -9.1650     7.1510     5.1930     7.1510    89.2230     6.2330     5.5260     6.2540 
  237.6250     2.4620    -9.3330     7.4990     5.2790     7.4990    87.1400     6.2260     5.4650     5.9510 
  237.7500     2.4470    -9.5280     7.8170     5.4300     7.8170    86.4490     6.3530     5.4700     5.9200 
  237.8750     2.4330    -9.7420     8.0350     5.6400     8.0350    88.4530     6.6490     5.5800     6.1130 
  238.0000     2.4250    -9.9710     8.1270     5.9250     8.1270    89.9970     7.0890     5.8040     6.4680 
  238.1250     2.4200   -10.2280     8.1040     6.3070     8.1040    89.1980     7.5860     6.1220     6.9210 
  238.2500     2.4170   -10.4930     8.0510     6.7340     8.0510    89.8540     8.0420     6.4700     7.2950 
  238.3750     2.4140   -10.7640     8.0180     7.1810     8.0180    91.3540     8.4490     6.8190     7.8110 
  238.5000     2.4130   -11.0220     8.0000     7.6240     8.0000    88.4350     8.8480     7.1640     8.5010 
  238.6250     2.4150   -11.2610     7.9600     7.9710     7.9600    83.3190     9.2600     7.5120     9.1070 
  238.7500     2.4160   -11.4520     7.9180     8.2020     7.9180    83.2880     9.6370     7.8490     9.4800 
  238.8750     2.4170   -11.5930     7.9230     8.3700     7.9230    86.6440     9.9060     8.1350     9.6060 
  239.0000     2.4140   -11.6690     7.9730     8.5080     7.9730    86.8560    10.0290     8.3170     9.5700 
  239.1250     2.4100   -11.6660     7.9500     8.5580     7.9500    81.7320    10.0130     8.3230     9.3690 
  239.2500     2.4040   -11.6270     7.7490     8.5220     7.7490    78.8250     9.9410     8.1720     9.1560 
  239.3750     2.3980   -11.5500     7.4130     8.4740     7.4130    80.9910     9.8440     7.9130     9.1450 
  239.5000     2.3950   -11.4440     7.1030     8.5050     7.1030    87.9650     9.7380     7.6400     9.0750 
  239.6250     2.3970   -11.3170     7.0160     8.6950     7.0160    96.7680     9.6850     7.5060     8.6670 
  239.7500     2.4040   -11.1940     7.1720     9.0780     7.1720   103.3320     9.7910     7.6050     8.2310 
  239.8750     2.4160   -11.0840     7.5150     9.6610     7.5150   105.6220    10.1660     7.9890     8.4580 
  240.0000     2.4270   -11.0050     7.9580    10.4020     7.9580   102.3350    10.8510     8.6470     9.8820 
  240.1250     2.4330   -10.9640     8.4490    11.1480     8.4490    94.2380    11.7840     9.5140    11.8980 
  240.2500     2.4330   -10.9290     8.9440    11.6990     8.9440    87.0870    12.6940    10.3990    13.3210 
  240.3750     2.4300   -10.8940     9.4060    11.9940     9.4060    84.5530    13.3580    11.1580    13.9920 
  240.5000     2.4280   -10.8710     9.7990    12.0690     9.7990    87.3530    13.6580    11.6990    14.4610 
  240.6250     2.4310   -10.8480    10.1160    12.0050    10.1160    90.3160    13.6200    11.9830    13.1310 
  240.7500     2.4370   -10.8070    10.3650    11.9130    10.3650    87.7960    13.4890    12.1170    12.3720 
  240.8750     2.4440   -10.7430    10.4900    11.7890    10.4900    82.2400    13.3990    12.1670    12.0520 
  241.0000     2.4480   -10.6580    10.4590    11.6020    10.4590    79.4560    13.3590    12.1580    12.3930 
  241.1250     2.4480   -10.5560    10.2850    11.3160    10.2850    82.3320    13.2430    12.0570    11.5070 
  241.2500     2.4430   -10.4690    10.0000    11.0030    10.0000    85.5470    12.9380    11.8360    10.8450 
  241.3750     2.4350   -10.4140     9.5770    10.7650     9.5770    88.2050    12.4350    11.4760     9.9310 
  241.5000     2.4260   -10.3960     8.9970    10.6260     8.9970    91.0410    11.8320    10.9950     8.8380 
  241.6250     2.4160   -10.4420     8.3130    10.5500     8.3130    90.8650    11.3150    10.4780     7.5740 
  241.7500     2.4100   -10.5610     7.7120    10.6390     7.7120    87.0780    11.0090    10.0590     7.1920 
  241.8750     2.4120   -10.7630     7.3670    11.0630     7.3670    82.4580    10.9640     9.8470     7.1730 
  242.0000     2.4240   -11.0500     7.4050    11.9290     7.4050    79.3310    11.2330     9.9530     7.1890 
  242.1250     2.4390   -11.3930     7.9240    13.3690     7.9240    77.2760    12.0410    10.6250     7.9080 
  242.2500     2.4490   -11.7670     8.7990    15.4430     8.7990    76.4320    13.6040    12.0350     9.7230 
  242.3750     2.4460   -12.1680     9.9620    18.5420     9.9620    75.3190    16.3340    14.5380    13.6580 
