~V
VERS. 2.00: Ver 2.00
~W
STRT.M 60.0000:
STOP.M 289.0000:
STEP.M 0.1250:
NULL. -999.2500:
UWI. FZI117:
~C
DEPT.M :
DEN.GM/CC :
SP.MV :
R2M. :
R025. :
RA2. :
GR.API :
RML.OHMM :
RI. :
RXO.OHMM :
~A
# ...
  114.7500     2.2770    -7.0460     9.6140     5.4760     9.6140    93.1400     6.4580     5.5780     5.1450 
  114.8750     2.3080    -6.5300     8.9110     5.3510     8.9110    95.8410     6.8140     5.8830     5.4030 
  115.0000     2.3290    -6.1850     8.2970     5.4060     8.2970    93.4970     7.1610     6.2070     5.8880 
  115.1250     2.3380    -6.0130     7.9790     5.4900     7.9790    86.5650     7.3600     6.4300     6.0600 
  115.2500     2.3420    -5.9880     7.9220     5.5270     7.9220    82.9300     7.3520     6.4960     5.8920 
  115.3750     2.3400    -6.0920     7.9940     5.5860     7.9940    84.5440     7.1560     6.4060     6.0070 
  115.5000     2.3310    -6.2500     8.0630     5.7360     8.0630    88.2290     6.8740     6.2200     6.6180 
  115.6250     2.3160    -6.3720     8.0750     5.9340     8.0750    91.1930     6.6780     6.0450     7.5510 
  115.7500     2.3000    -6.4230     8.0830     6.0570     8.0830    90.7120     6.6650     5.9710     7.4690 
  115.8750     2.2920    -6.4240     8.1550     6.0490     8.1550    86.6590     6.8510     6.0430     6.6750 
  116.0000     2.2940    -6.4370     8.2730     5.9190     8.2730    82.3200     7.1870     6.2680     6.1230 
  116.1250     2.3010    -6.4550     8.3370     5.7870     8.3370    80.9760     7.5710     6.6250     6.1720 
  116.2500     2.3060    -6.4640     8.3230     5.8420     8.3230    81.3540     7.8830     7.0020     7.0100 
  116.3750     2.3020    -6.4310     8.3010     6.1150     8.3010    81.5890     8.0380     7.2870     8.0790 
  116.5000     2.2910    -6.3560     8.3680     6.4750     8.3680    82.4150     7.9850     7.3720     8.6670 
  116.6250     2.2870    -6.2470     8.6110     6.7700     8.6110    86.8380     7.6810     7.1580     8.0970 
  116.7500     2.3040    -6.1110     8.9980     6.9320     8.9980    92.4540     7.2150     6.7320     7.9450 
  116.8750     2.3460    -5.9340     9.5120     6.9130     9.5120    95.1460     6.6750     6.2070     9.1620 
  117.0000     2.4070    -5.7190    10.1140     6.6890    10.1140    93.4450     6.1580     5.7090     9.1240 
  117.1250     2.4630    -5.5220    10.5810     6.2980    10.5810    93.0750     5.7800     5.3620     7.2580 
  117.2500     2.4940    -5.3770    10.6150     5.8890    10.6150    95.5420     5.5780     5.1810     5.6660 
  117.3750     2.4950    -5.3230    10.0330     5.5460    10.0330    96.7110     5.5360     5.1400     5.4020 
  117.5000     2.4740    -5.3700     8.8990     5.3100     8.8990    97.6280     5.5720     5.1440     5.3220 
  117.6250     2.4470    -5.5620     7.6130     5.1960     7.6130    97.4800     5.6060     5.1610     5.3340 
  117.7500     2.4270    -5.8820     6.6220     5.1420     6.6220    96.6310     5.8100     5.2650     5.4350 
  117.8750     2.4190    -6.3300     6.0630     5.1050     6.0630    96.2260     5.9130     5.3200     5.4980 
  118.0000     2.4190    -6.8570     5.8540     5.1080     5.8540    94.4750     6.1570     5.4720     5.7260 
  118.1250     2.4180    -7.4370     5.7760     5.2400     5.7760    90.3100     6.4070     5.6600     6.1410 
  118.2500     2.4080    -8.0250     5.6520     5.5490     5.6520    87.2090     6.5160     5.7600     6.4380 
  118.3750     2.3830    -8.5910     5.4750     6.0350     5.4750    79.5770     6.7380     5.9910     7.4500 
  118.5000     2.3460    -9.1320     5.2820     6.5560     5.2820    78.0660     6.7760     6.0350     7.6880 
  118.6250     2.3080    -9.6320     5.1050     6.8770     5.1050    74.1670     6.8520     6.1590     8.7690 
  118.7500     2.2780   -10.0920     4.9950     7.0790     4.9950    73.3620     6.8690     6.1940     9.2730 
  118.8750     2.2640   -10.5110     5.0730     7.4580     5.0730    74.5210     6.9130     6.2240     8.8320 
  119.0000     2.2730   -10.9000     5.5070     8.2890     5.5070    77.5310     7.1510     6.3800     7.8440 
  119.1250     2.3190   -11.2830     6.5510     9.8160     6.5510    77.9570     7.2850     6.4820     7.6220 
  119.2500     2.3980   -11.7050     8.1620    11.9360     8.1620    79.3350     8.1900     7.2030     7.1260 
  119.3750     2.4910   -12.1820    10.1750    14.1600    10.1750    78.4880     9.8810     8.6490     8.4110 
  119.5000     2.5660   -12.7290    12.2170    15.4550    12.2170    76.4750    12.4380    10.9170    12.5910 
  119.6250     2.5790   -13.3300    13.6560    14.8840    13.6560    73.6070    15.4130    13.6650    24.6040 
  119.7500     2.5310   -13.9400    14.1540    13.3250    14.1540    70.0100    17.4880    15.7870    37.9180 
  119.8750     2.4420   -14.5220    13.5790    11.6940    13.5790    67.6600    17.5970    16.3430    35.9710 
  120.0000     2.3460   -15.0710    12.1060    10.4420    12.1060    68.3330    15.7490    15.1600    22.0430 
  120.1250     2.2760   -15.5620    10.1670     9.6310    10.1670    70.3510    13.0530    12.9540    13.8210 
  120.2500     2.2380   -15.9680     8.3520     9.0910     8.3520    71.0680    10.7950    10.8800    10.8160 
  120.3750     2.2240   -16.2950     6.9680     8.7610     6.9680    71.1520     9.3520     9.3670     9.8940 
  120.5000     2.2240   -16.5400     6.1260     8.5800     6.1260    71.3970     8.6860     8.4610     9.5890 
  120.6250     2.2270   -16.7000     5.8050     8.5030     5.8050    71.1630     8.6570     8.0860     9.3530 
  120.7500     2.2290   -16.8020     5.7180     8.4860     5.7180    70.0580     8.8900     7.9860     9.1400 
  120.8750     2.2300   -16.8620     5.7030     8.4910     5.7030    68.9040     9.1530     8.0310     9.1540 
  121.0000     2.2300   -16.8680     5.7110     8.4970     5.7110    69.2710     9.2830     8.1230     9.3890 
  121.1250     2.2260   -16.8110     5.8750     8.5560     5.8750    71.1360     9.1950     8.1780     9.6140 
  121.2500     2.2150   -16.7150     6.3090     8.7110     6.3090    71.9780     8.9890     8.1550     9.6920 
  121.3750     2.1980   -16.5810     7.0260     8.9810     7.0260    71.4470     8.7920     8.0690     9.6740 
  121.5000     2.1870   -16.4390     8.0150     9.4260     8.0150    70.9340     8.7560     8.0010     9.6720 
  121.6250     2.2110   -16.3090     9.4160    10.1890     9.4160    72.4830     9.0990     8.1530     9.7150 
  121.7500     2.2820   -16.2120    11.2710    11.2320    11.2710    73.6480    10.4220     9.1360     9.8580 
  121.8750     2.3870   -16.1570    13.5310    12.2270    13.5310    71.2000    12.2930    10.7380    10.4110 
  122.0000     2.4880   -16.1500    15.8540    12.5510    15.8540    66.7660    13.7120    12.1330    12.6560 
  122.1250     2.5320   -16.1940    17.4410    11.7630    17.4410    64.0900    14.3710    12.9720    16.4580 
  122.2500     2.5110   -16.2530    17.8000    10.5570    17.8000    64.5300    13.9840    12.8920    17.6220 
  122.3750     2.4450   -16.3170    16.8390     9.5290    16.8390    66.5430    12.7270    11.9430    13.8260 
  122.5000     2.3690   -16.3680    14.9570     8.8430    14.9570    68.2130    11.1320    10.5430    11.2960 
  122.6250     2.3160   -16.4010    12.8620     8.4470    12.8620    69.2220     9.8160     9.2520    10.7910 
  122.7500     2.2880   -16.4410    11.1640     8.2640    11.1640    70.4330     9.0190     8.3670    10.4930 
  122.8750     2.2730   -16.4980    10.0690     8.2050    10.0690    72.2350     8.7430     7.9280    10.1860 
  123.0000     2.2630   -16.5620     9.4780     8.1400     9.4780    73.7320     8.8560     7.8400    10.0340 
  123.1250     2.2500   -16.6180     9.1500     8.0290     9.1500    74.3480     9.1410     7.9460    10.3080 
  123.2500     2.2350   -16.6800     8.9030     7.9160     8.9030    75.5760     9.3420     8.0520    10.6470 
  123.3750     2.2220   -16.7600     8.7670     7.7910     8.7670    76.6430     9.3580     8.0790    10.7420 
  123.5000     2.2130   -16.8650     8.8010     7.6480     8.8010    76.8930     9.2060     8.0190    10.4110 
  123.6250     2.2100   -17.0000     9.0330     7.5190     9.0330    77.2910     8.9830     7.9040     9.9470 
  123.7500     2.2150   -17.1450     9.3490     7.4190     9.3490    78.4370     8.7990     7.7850     9.8300 
