~V
VERS. 2.00: Ver 2.00
~W
STRT.M 60.0000:
STOP.M 284.0000:
STEP.M 0.1250:
NULL. -999.2500:
UWI. FZI118:
~C
DEPT.M :
DEN.GM/CC :
SP.MV :
R2M. :
R025. :
GR.API :
RML.OHMM :
RI. :
RXO.OHMM :
RA2. :
~A
# ...
  242.5000     2.1500   -13.8490   298.2600    70.8510    69.8820   101.7340    83.8420    92.3900   298.2600 
  242.6250     2.1490   -13.5870   291.2930    67.9110    70.4730    93.9770    77.1370    87.4390   291.2930 
  242.7500     2.1490   -13.3590   282.4370    65.5350    71.2460    88.5760    72.6070    84.6660   282.4370 
  242.8750     2.1540   -13.1120   272.3200    63.6000    72.3750    85.0590    69.7280    80.1690   272.3200 
  243.0000     2.1680   -12.8690   261.3710    62.0990    74.0920    82.8210    67.9530    73.9390   261.3710 
  243.1250     2.1830   -12.7150   249.9150    61.1610    75.9070    81.6490    67.1100    70.3590   249.9150 
  243.2500     2.1890   -12.6040   238.4040    60.6490    76.1430    81.3950    67.0630    68.1450   238.4040 
  243.3750     2.1890   -12.5300   227.2880    60.5600    74.1270    82.1260    67.8620    65.6770   227.2880 
  243.5000     2.1890   -12.5540   217.1800    61.0510    71.6640    83.8660    69.5500    61.3340   217.1800 
  243.6250     2.1830   -12.5920   209.0020    62.4190    72.7610    86.9840    72.4320    67.0370   209.0020 
  243.7500     2.1670   -12.6310   202.7530    64.2070    75.3680    91.2160    76.2070    83.5350   202.7530 
  243.8750     2.1530   -12.7070   197.8480    65.7760    75.6610    95.7470    80.1530   102.3770   197.8480 
  244.0000     2.1530   -12.8000   193.0460    66.9020    72.9690    99.2110    83.1580    99.1850   193.0460 
  244.1250     2.1610   -12.8930   186.9610    68.0700    69.7340   100.3370    84.3550    83.7900   186.9610 
  244.2500     2.1770   -13.0120   180.0910    69.7790    69.2790   100.7400    85.2980    73.0790   180.0910 
  244.3750     2.2050   -13.1360   174.1750    72.0800    70.9200   103.3000    88.3730    73.7530   174.1750 
  244.5000     2.2460   -13.2480   171.1710    74.7690    72.5380   110.4330    95.3740    92.8030   171.1710 
  244.6250     2.2810   -13.3590   172.0870    77.3210    70.8240   122.1160   106.0230   140.8480   172.0870 
  244.7500     2.2890   -13.4720   174.1600    79.2600    66.9710   132.7650   115.2900   186.9490   174.1600 
  244.8750     2.2830   -13.5950   174.5640    80.6020    65.8910   137.1320   118.4460   192.6330   174.5640 
  245.0000     2.2620   -13.7150   171.6600    81.6830    70.1070   134.1380   115.0910   152.5910   171.6600 
  245.1250     2.2330   -13.7840   165.9770    82.8090    75.7760   128.7860   110.5810   121.2890   165.9770 
  245.2500     2.2020   -13.8070   160.5590    84.0070    77.2420   127.4920   110.2400   123.6880   160.5590 
  245.3750     2.1860   -13.8130   157.4320    85.1180    74.9800   131.6960   114.8080   137.6620   157.4320 
  245.5000     2.1870   -13.7600   157.2700    85.8380    71.9510   138.8890   121.8410   146.3520   157.2700 
  245.6250     2.1970   -13.6800   159.5640    85.8750    70.4460   143.4940   126.1860   139.6910   159.5640 
  245.7500     2.2090   -13.5840   162.7180    85.4880    71.2660   142.6520   125.4110   125.4450   162.7180 
  245.8750     2.2160   -13.4250   166.1570    84.9380    73.4460   137.5420   121.0400   114.4310   166.1570 
  246.0000     2.2160   -13.2070   169.8730    84.3470    73.7970   131.3400   116.1950   120.7690   169.8730 
  246.1250     2.2140   -13.0020   174.2570    83.6090    70.2780   126.6670   113.0010   139.8870   174.2570 
  246.2500     2.2160   -12.7600   179.4020    82.6520    67.4740   123.5360   111.0850   151.9630   179.4020 
  246.3750     2.2230   -12.4860   185.2340    81.5610    68.9080   121.4870   109.9270   134.8950   185.2340 
  246.5000     2.2420   -12.2270   191.5950    80.5660    71.8160   120.6670   109.6950   116.5890   191.5950 
  246.6250     2.2840   -11.9120   198.9240    80.0390    71.6090   123.1940   112.2820   103.3800   198.9240 
  246.7500     2.3500   -11.5780   208.0940    80.0380    70.5020   131.8430   119.7780   101.6560   208.0940 
  246.8750     2.4400   -11.2490   220.1920    80.3620    70.9250   149.4890   133.9610   121.2870   220.1920 
  247.0000     2.5380   -10.8930   235.7260    80.4420    71.0140   175.6110   153.7800   187.5570   235.7260 
  247.1250     2.6120   -10.5220   254.6850    79.1790    67.9390   199.6240   168.5630   262.5230   254.6850 
  247.2500     2.6390   -10.1460   275.5760    75.8650    66.0710   202.9760   162.3910   290.0050   275.5760 
  247.3750     2.6270    -9.7470   297.7770    70.1000    66.9890   176.2800   132.5140   285.2390   297.7770 
  247.5000     2.5940    -9.3080   321.1350    61.9500    68.8240   129.6080    93.7480   294.1170   321.1350 
  247.6250     2.5520    -8.8460   344.6860    51.0760    68.7130    84.8080    62.3760   314.9930   344.6860 
  247.7500     2.5110    -8.3760   363.0830    38.3010    66.5250    52.5540    40.3420   255.5920   363.0830 
  247.8750     2.4790    -7.8860   366.5480    25.5640    63.4850    32.0410    25.4730   105.1550   366.5480 
  248.0000     2.4510    -7.4120   345.0310    15.6210    62.1810    19.5840    15.6650    28.5090   345.0310 
  248.1250     2.4150    -6.9950   291.1390    10.4960    65.7550    12.6680    10.0190    12.2580   291.1390 
  248.2500     2.3740    -6.6630   219.9470     8.2700    69.6170     8.6120     6.8630     7.2570   219.9470 
  248.3750     2.3440    -6.4130   148.0380     7.3960    69.3860     6.4560     5.4180     6.1830   148.0380 
  248.5000     2.3370    -6.2610    90.1850     7.1030    64.4670     5.5710     5.0880     6.2760    90.1850 
  248.6250     2.3470    -6.2310    56.0770     7.0660    57.9250     5.6230     5.5090     6.5060    56.0770 
  248.7500     2.3610    -6.2780    38.0780     7.1050    52.8230     6.1120     6.2020     6.8300    38.0780 
  248.8750     2.3770    -6.4020    29.2720     7.2320    50.5760     6.8610     6.7960     7.2250    29.2720 
  249.0000     2.3940    -6.5810    24.7530     7.4820    51.1330     7.4280     7.3760     7.6710    24.7530 
  249.1250     2.4100    -6.7710    22.2860     7.8370    53.4830     7.7830     7.8620     8.1920    22.2860 
  249.2500     2.4200    -6.9390    20.5460     8.1790    56.0280     8.0630     8.2580     8.5310    20.5460 
  249.3750     2.4210    -7.1080    19.1650     8.4590    57.3260     8.2950     8.5720     8.7280    19.1650 
  249.5000     2.4210    -7.2670    17.9740     8.7220    56.4640     8.4820     8.8000     8.8010    17.9740 
  249.6250     2.4310    -7.3870    16.8980     9.0570    53.4710     8.6320     8.9390     8.9790    16.8980 
  249.7500     2.4490    -7.4700    15.8730     9.4220    49.8150     8.7820     9.0290     9.3570    15.8730 
  249.8750     2.4680    -7.5250    14.8900     9.7050    47.3870     8.9330     9.0850     9.8350    14.8900 
  250.0000     2.4790    -7.5690    13.9650     9.8380    46.4770     9.0490     9.0910    10.0390    13.9650 
  250.1250     2.4820    -7.5740    13.1150     9.8300    46.6200     9.0530     8.9970     9.9760    13.1150 
  250.2500     2.4790    -7.5550    12.3240     9.7640    47.0540     8.9290     8.7980     9.6410    12.3240 
  250.3750     2.4730    -7.5130    11.5910     9.6580    48.4510     8.7060     8.5190     9.3600    11.5910 
  250.5000     2.4620    -7.4190    10.9310     9.4910    49.9890     8.4400     8.2050     9.1790    10.9310 
  250.6250     2.4430    -7.3290    10.3910     9.2500    49.6400     8.2010     7.9040     9.0600    10.3910 
  250.7500     2.4190    -7.2250     9.9740     9.0270    48.0230     8.0240     7.6510     8.9470     9.9740 
  250.8750     2.3960    -7.1060     9.6860     8.8960    46.5730     7.9190     7.4600     8.9480     9.6860 
  251.0000     2.3770    -6.9820     9.5160     8.8200    46.8800     7.8650     7.3250     8.9300     9.5160 
  251.1250     2.3650    -6.8590     9.4390     8.6360    48.7830     7.7990     7.2080     8.9830     9.4390 
  251.2500     2.3570    -6.7390     9.3650     8.3060    49.6140     7.6550     7.0460     8.9900     9.3650 
  251.3750     2.3530    -6.6100     9.2280     7.9400    49.3210     7.4200     6.8140     8.5460     9.2280 
  251.5000     2.3500    -6.5200     9.0060     7.6970    49.8510     7.1650     6.5530     7.4910     9.0060 
