~V
VERS. 2.00: Ver 2.00
~W
STRT.M 60.0000:
STOP.M 289.0000:
STEP.M 0.1250:
NULL. -999.2500:
UWI. FZI117:
~C
DEPT.M :
DEN.GM/CC :
SP.MV :
R2M. :
R025. :
RA2. :
GR.API :
RML.OHMM :
RI. :
RXO.OHMM :
~A
# ...
  133.0000     2.2490   -13.8330     8.8690     6.6780     8.8690    95.6480     7.3440     6.4070     6.1130 
  133.1250     2.2440   -13.7200     8.8300     6.9370     8.8300    87.9130     7.5970     6.5040     7.5600 
  133.2500     2.2370   -13.6520     8.7980     7.0100     8.7980    82.3890     7.8420     6.7010     8.7720 
  133.3750     2.2320   -13.6580     8.7100     6.9140     8.7100    82.4800     7.9700     6.8860     8.8510 
  133.5000     2.2300   -13.7460     8.5430     6.7900     8.5430    86.3860     7.9430     6.9640     8.7160 
  133.6250     2.2310   -13.9030     8.3420     6.8130     8.3420    90.5100     7.8080     6.9050     8.7070 
  133.7500     2.2320   -14.0560     8.1980     6.9960     8.1980    92.7760     7.7050     6.8120     7.9990 
  133.8750     2.2310   -14.1780     8.1760     7.3100     8.1760    90.4870     7.7260     6.7880     7.3980 
  134.0000     2.2260   -14.2690     8.3170     7.7090     8.3170    84.3280     7.9150     6.9050     7.6180 
  134.1250     2.2210   -14.3040     8.6010     8.1290     8.6010    79.4890     8.2890     7.1960     8.6810 
  134.2500     2.2220   -14.2560     8.9130     8.5280     8.9130    77.7990     8.7860     7.5930     9.7800 
  134.3750     2.2320   -14.1210     9.1880     8.8570     9.1880    76.4710     9.3530     8.0360    10.5320 
  134.5000     2.2480   -13.8950     9.4350     9.0970     9.4350    74.9560     9.9220     8.4700    11.0840 
  134.6250     2.2590   -13.5880     9.7560     9.2810     9.7560    77.4710    10.3990     8.8540    11.0640 
  134.7500     2.2550   -13.2680    10.1890     9.4300    10.1890    82.2010    10.7400     9.1850    11.2930 
  134.8750     2.2350   -12.9720    10.7190     9.4940    10.7190    83.5130    10.9450     9.4640    13.5050 
  135.0000     2.2060   -12.7090    11.3030     9.4360    11.3030    80.7050    11.0440     9.6850    21.8070 
  135.1250     2.1770   -12.5090    11.8240     9.2960    11.8240    77.7830    11.0730     9.8150    32.5720 
  135.2500     2.1560   -12.3690    12.1860     9.1370    12.1860    75.7080    11.0440     9.8330    28.7250 
  135.3750     2.1450   -12.2800    12.3250     8.9200    12.3250    73.8640    10.9020     9.7080    16.8520 
  135.5000     2.1470   -12.2190    12.1990     8.5610    12.1990    73.4650    10.5680     9.4100    10.5300 
  135.6250     2.1680   -12.1640    11.8020     8.0430    11.8020    75.5890     9.9740     8.9170     9.0320 
  135.7500     2.2070   -12.1360    11.2530     7.5270    11.2530    80.7930     9.2440     8.3160     8.8840 
  135.8750     2.2540   -12.1630    10.6380     7.1410    10.6380    87.9380     8.5420     7.7020     8.7420 
  136.0000     2.2960   -12.2600    10.0400     6.9650    10.0400    93.3840     8.0260     7.1820     8.1600 
  136.1250     2.3120   -12.4000     9.5150     7.0510     9.5150    93.7140     7.8370     6.8780     7.4510 
  136.2500     2.3040   -12.5370     9.0880     7.2860     9.0880    90.9190     7.9060     6.7910     7.1110 
  136.3750     2.2780   -12.6550     8.7970     7.5580     8.7970    87.7760     8.1460     6.8940     7.8190 
  136.5000     2.2490   -12.7400     8.6510     7.7530     8.6510    85.4000     8.4550     7.1290     8.6490 
  136.6250     2.2270   -12.7890     8.6410     7.8260     8.6410    83.0860     8.7470     7.4200     9.3640 
  136.7500     2.2150   -12.7850     8.7250     7.8670     8.7250    79.4510     8.9950     7.6960     9.5760 
  136.8750     2.2100   -12.7130     8.8930     7.9060     8.8930    76.4220     9.2020     7.9290     9.3850 
  137.0000     2.2060   -12.5430     9.1330     7.9190     9.1330    77.5260     9.3660     8.1080     9.2910 
  137.1250     2.1970   -12.2690     9.4040     7.8520     9.4040    81.6370     9.4270     8.2100     9.2180 
  137.2500     2.1860   -11.9350     9.6170     7.6850     9.6170    83.2630     9.3330     8.2200     9.3020 
  137.3750     2.1790   -11.5360     9.7320     7.4180     9.7320    82.5640     9.0550     8.1130     9.5970 
  137.5000     2.1850   -11.1010     9.7210     7.0760     9.7210    82.3920     8.6290     7.8840     9.8740 
  137.6250     2.2100   -10.6390     9.5520     6.7580     9.5520    83.9490     8.1770     7.5590     9.4700 
  137.7500     2.2430   -10.1320     9.3010     6.5980     9.3010    86.5040     7.8460     7.2320     8.7050 
  137.8750     2.2700    -9.5520     9.0450     6.6610     9.0450    89.5370     7.7180     6.9890     7.9110 
  138.0000     2.2840    -8.8960     8.9230     6.8790     8.9230    91.2800     7.8020     6.9010     7.6390 
  138.1250     2.2920    -8.1840     9.2150     6.8620     9.2150    90.4540     8.0310     6.9950     7.8700 
  138.2500     2.3110    -7.4630     9.9140     6.4120     9.9140    89.6070     8.2230     7.1450     8.3010 
  138.3750     2.3430    -6.7880    10.7300     5.7800    10.7300    90.6630     8.2140     7.1970     8.8600 
  138.5000     2.3800    -6.2020    11.1860     5.3310    11.1860    94.3480     7.8990     7.0150     9.0770 
  138.6250     2.4010    -5.7360    10.7760     5.1350    10.7760   102.0840     7.2770     6.5410     8.1390 
  138.7500     2.4000    -5.3890     9.6960     4.9690     9.6960   107.5700     6.5730     5.9500     6.0310 
  138.8750     2.3830    -5.1570     8.3650     4.8570     8.3650   105.9220     5.9690     5.4130     5.0890 
  139.0000     2.3610    -5.0470     7.2670     4.8740     7.2670    99.5990     5.5950     5.0600     5.0170 
  139.1250     2.3420    -5.0660     6.7670     4.9860     6.7670    96.9130     5.5520     4.9940     5.4040 
  139.2500     2.3270    -5.1800     6.6740     5.1460     6.6740    97.4970     5.7580     5.1480     5.6030 
  139.3750     2.3130    -5.3580     6.7460     5.3480     6.7460    96.7270     6.1200     5.4430     5.8190 
  139.5000     2.3010    -5.5450     6.8170     5.5430     6.8170    95.9670     6.5090     5.7830     6.3580 
  139.6250     2.2930    -5.6960     6.8210     5.6290     6.8210    97.2630     6.7750     6.0720     6.8630 
  139.7500     2.2900    -5.8220     6.7880     5.6120     6.7880    98.5110     6.8680     6.2770     7.1780 
  139.8750     2.2900    -5.9300     6.7610     5.5730     6.7610    99.0570     6.8070     6.3930     6.8450 
  140.0000     2.2910    -6.0260     6.7660     5.5630     6.7660    99.8390     6.6640     6.4310     6.5620 
  140.1250     2.2930    -6.1110     6.7870     5.5450     6.7870   101.0050     6.5340     6.4030     6.6310 
  140.2500     2.2980    -6.1860     6.8120     5.5190     6.8120   100.2330     6.4690     6.3520     6.6750 
  140.3750     2.3070    -6.2490     6.8450     5.5260     6.8450    99.1680     6.4660     6.3160     6.6750 
  140.5000     2.3180    -6.2920     6.8720     5.5660     6.8720    99.3010     6.5080     6.3350     6.5180 
  140.6250     2.3240    -6.3210     6.8590     5.5740     6.8590    99.4180     6.5890     6.4410     5.9850 
  140.7500     2.3240    -6.3250     6.7850     5.5060     6.7850    97.7000     6.6980     6.5880     6.1650 
  140.8750     2.3200    -6.3380     6.6520     5.3940     6.6520    95.7270     6.8020     6.6950     6.5970 
  141.0000     2.3180    -6.3820     6.4650     5.2830     6.4650    96.3430     6.8210     6.6580     6.7130 
  141.1250     2.3250    -6.4790     6.2070     5.1600     6.2070    99.4880     6.6230     6.3710     6.6850 
  141.2500     2.3390    -6.6340     5.8940     5.0450     5.8940   104.0270     6.2020     5.8970     6.2650 
  141.3750     2.3500    -6.8490     5.5710     5.0150     5.5710   109.8890     5.6340     5.3400     5.4250 
  141.5000     2.3530    -7.1430     5.3450     5.1560     5.3450   116.2530     5.0840     4.8380     4.8250 
  141.6250     2.3470    -7.5320     5.5280     5.6700     5.5280   120.1640     4.8450     4.5940     4.7930 
  141.7500     2.3550    -7.9910     6.4360     6.6620     6.4360   119.4410     5.1420     4.7540     5.1230 
  141.8750     2.3940    -8.5040     8.4020     8.5090     8.4020   113.8420     6.2370     5.5250     5.8960 
  142.0000     2.4670    -9.0580    11.5280    11.6880    11.5280   101.8110     8.4280     7.1740     7.4000 
