~V
VERS. 2.00: Ver 2.00
~W
STRT.M 60.0000:
STOP.M 289.0000:
STEP.M 0.1250:
NULL. -999.2500:
UWI. FZI117:
~C
DEPT.M :
DEN.GM/CC :
SP.MV :
R2M. :
R025. :
RA2. :
GR.API :
RML.OHMM :
RI. :
RXO.OHMM :
~A
   60.0000     2.6170    25.2440    -0.0560     0.5310    -0.0560    72.0470     0.3960     0.2010     0.8920 
   60.1250     2.5220    20.1860    -0.0420     2.0030    -0.0420    78.4660     0.6330     0.3210     1.8040 
   60.2500     2.4170    14.6300     0.0640     3.9010     0.0640    82.3350     0.9980     0.6090     3.8780 
   60.3750     2.3290     8.8180     0.1830     5.5070     0.1830    83.4990     1.5320     1.0310     6.1060 
   60.5000     2.2710     3.0340     0.2590     6.5010     0.2590    82.8490     2.2790     1.5300     8.4870 
   60.6250     2.2440    -2.2660     0.2920     7.0240     0.2920    81.1820     3.3460     2.3570    10.4270 
   60.7500     2.2300    -6.6880     0.3620     7.3300     0.3620    79.8920     4.6280     3.6800    11.3780 
   60.8750     2.2210   -10.0070     0.5110     7.4150     0.5110    81.0390     5.7740     5.0460    12.2920 
   61.0000     2.2160   -12.3880     0.6990     7.3000     0.6990    82.2700     6.5130     5.9510    12.9130 
   61.1250     2.2130   -14.1560     0.8110     7.1110     0.8110    79.6580     6.8070     6.3150    12.5260 
   61.2500     2.2120   -15.6350     0.7860     6.9860     0.7860    74.6070     6.8930     6.4380    12.0240 
   61.3750     2.2120   -16.9120     0.6480     6.9350     0.6480    72.1820     6.8720     6.4010    11.9140 
   61.5000     2.2110   -18.0330     0.4750     6.9140     0.4750    74.8180     6.7960     6.3040    11.8770 
   61.6250     2.2110   -18.9750     0.3410     6.9610     0.3410    79.4830     6.7530     6.2520    12.2680 
   61.7500     2.2100   -19.7810     0.2390     7.1260     0.2390    82.0980     6.7700     6.2860    12.4710 
   61.8750     2.2090   -20.4760     0.1660     7.3410     0.1660    81.2420     6.8960     6.4030    12.8040 
   62.0000     2.2080   -21.0830     0.1690     7.4610     0.1690    77.7030     7.1600     6.5720    13.0810 
   62.1250     2.2060   -21.5640     0.4290     7.3660     0.4290    73.4890     7.4280     6.7400    12.8920 
   62.2500     2.2040   -21.8550     1.0270     7.1580     1.0270    70.4480     7.5600     6.8630    12.5320 
   62.3750     2.2000   -21.9350     1.9520     6.9600     1.9520    70.1760     7.5960     6.9230    12.4960 
   62.5000     2.1970   -21.8630     3.0630     6.8290     3.0630    72.4670     7.5880     6.9340    12.6440 
   62.6250     2.2020   -21.6850     4.0880     6.7740     4.0880    74.6890     7.5550     6.9250    12.5470 
   62.7500     2.2180   -21.4200     4.8160     6.7610     4.8160    74.5300     7.5130     6.9210    12.3930 
   62.8750     2.2440   -21.1060     5.1860     6.7110     5.1860    73.6000     7.4770     6.9200    12.3010 
   63.0000     2.2680   -20.7450     5.2600     6.5450     5.2600    75.3300     7.4190     6.8990    12.4540 
   63.1250     2.2770   -20.3760     5.1550     6.3100     5.1550    80.0120     7.3050     6.8300    12.3350 
   63.2500     2.2690   -20.0640     5.0420     6.1240     5.0420    82.5080     7.1700     6.7170    12.1760 
   63.3750     2.2520   -19.8490     5.0330     6.0250     5.0330    82.8680     7.0400     6.5840    11.7950 
   63.5000     2.2380   -19.7070     5.1830     5.9670     5.1830    84.8400     6.9170     6.4660    11.4210 
   63.6250     2.2340   -19.7190     5.4390     5.9480     5.4390    88.5320     6.8580     6.4050    11.0660 
   63.7500     2.2390   -19.9230     5.6320     5.9730     5.6320    89.7730     6.8500     6.3970    10.5270 
   63.8750     2.2470   -20.2690     5.6790     6.0030     5.6790    87.9290     6.8820     6.4300     9.9200 
   64.0000     2.2510   -20.7430     5.6230     6.0190     5.6230    84.7060     6.9370     6.4790     9.5190 
   64.1250     2.2440   -21.2570     5.5910     6.0180     5.5910    81.5800     7.0030     6.5310     9.6680 
   64.2500     2.2270   -21.7710     5.6630     6.0350     5.6630    78.9370     7.0730     6.5850    10.1120 
   64.3750     2.2020   -22.2390     5.7640     6.0580     5.7640    77.0040     7.1470     6.6430    10.6060 
   64.5000     2.1770   -22.6580     5.7750     6.0820     5.7750    75.8690     7.2210     6.7010    10.8650 
   64.6250     2.1610   -22.9450     5.6580     6.1190     5.6580    77.0020     7.2900     6.7390    11.0100 
   64.7500     2.1570   -23.0970     5.5170     6.1620     5.5170    78.9160     7.3730     6.7540    10.9790 
   64.8750     2.1610   -23.1310     5.4300     6.2450     5.4300    77.8160     7.4430     6.7510    10.9580 
   65.0000     2.1680   -23.0230     5.3870     6.3480     5.3870    73.3850     7.4770     6.7470    11.0160 
   65.1250     2.1720   -22.7990     5.3030     6.4450     5.3030    68.5780     7.4920     6.7580    11.1250 
   65.2500     2.1760   -22.4370     5.1260     6.5600     5.1260    65.2280     7.5350     6.7850    11.2520 
   65.3750     2.1840   -21.9470     4.8990     6.7460     4.8990    63.7430     7.5830     6.8190    11.2050 
   65.5000     2.1960   -21.3190     4.7180     6.9770     4.7180    64.5220     7.6370     6.8500    11.4170 
   65.6250     2.2010   -20.4980     4.7170     7.1580     4.7170    65.1820     7.7370     6.9000    12.2440 
   65.7500     2.1960   -19.4690     4.9210     7.3120     4.9210    64.2010     7.9070     7.0240    13.4080 
   65.8750     2.1880   -18.2260     5.3730     7.4840     5.3730    63.5890     8.1350     7.2710    13.6040 
   66.0000     2.1990   -16.8020     6.1880     7.7260     6.1880    65.5160     8.4340     7.6360    12.9350 
   66.1250     2.2590   -15.2220     7.6680     8.0210     7.6680    69.7820     8.7220     8.0190    12.3320 
   66.2500     2.3490   -13.6820     9.7700     8.1880     9.7700    74.4880     8.8300     8.2620    12.9510 
   66.3750     2.4280   -12.2570    12.0610     8.0860    12.0610    79.3600     8.6510     8.2710    16.3950 
   66.5000     2.4530   -10.9960    13.7170     7.7910    13.7170    83.8450     8.2120     8.0520    19.3900 
   66.6250     2.4090    -9.9930    13.7190     7.5960    13.7190    86.0250     7.6920     7.7150    16.1630 
   66.7500     2.3470    -9.2040    12.2480     7.5500    12.2480    86.0340     7.3150     7.4160     9.0660 
   66.8750     2.3160    -8.6210    10.0130     7.4090    10.0130    85.8790     7.1650     7.2210     6.6470 
   67.0000     2.3350    -8.2360     7.8990     7.0260     7.8990    88.4960     7.2130     7.1240     7.7910 
   67.1250     2.3800    -8.0920     6.6270     6.5690     6.6270    94.8290     7.3400     7.0620    11.0710 
   67.2500     2.4090    -8.0620     5.9800     6.2810     5.9800    99.5320     7.3960     6.9450    12.6740 
   67.3750     2.4030    -8.0580     5.5710     6.1530     5.5710    99.8790     7.3150     6.7290     9.2530 
   67.5000     2.3740    -8.0820     5.1810     6.0320     5.1810    98.1030     7.0910     6.4060     6.6020 
   67.6250     2.3490    -8.1110     4.8370     5.7980     4.8370   100.2950     6.7400     5.9960     5.9210 
   67.7500     2.3420    -8.2310     4.6530     5.4990     4.6530   106.0240     6.3450     5.5710     5.9340 
   67.8750     2.3480    -8.5260     4.6400     5.2240     4.6400   110.0100     6.0000     5.2040     5.7330 
   68.0000     2.3540    -8.9910     4.7140     5.0550     4.7140   109.1300     5.8290     4.9840     5.3070 
   68.1250     2.3500    -9.6420     4.7860     5.0880     4.7860   104.9230     6.0130     5.0550     4.9630 
   68.2500     2.3350   -10.4300     4.9020     5.4550     4.9020    98.9530     6.5730     5.4430     4.8620 
   68.3750     2.3130   -11.3470     5.2390     6.2180     5.2390    91.8350     7.4860     6.1490     5.1070 
   68.5000     2.2860   -12.3100     5.9140     7.1740     5.9140    85.5220     8.6260     7.0910     6.0040 
   68.6250     2.2530   -13.2850     6.8600     7.9410     6.8600    81.8040     9.7040     8.0690     7.5860 
   68.7500     2.2150   -14.1890     7.7620     8.3990     7.7620    79.5870    10.4070     8.8180     8.7720 
   68.8750     2.1760   -14.9700     8.3730     8.6090     8.3730    76.8620    10.5720     9.1830     9.5090 
   69.0000     2.1430   -15.5740     8.5840     8.6090     8.5840    75.4830    10.2460     9.1500    10.1630 
