~V
VERS. 2.00: Ver 2.00
~W
STRT.M 60.0000:
STOP.M 284.0000:
STEP.M 0.1250:
NULL. -999.2500:
UWI. FZI118:
~C
DEPT.M :
DEN.GM/CC :
SP.MV :
R2M. :
R025. :
GR.API :
RML.OHMM :
RI. :
RXO.OHMM :
RA2. :
~A
# ...
  251.6250     2.3520    -6.4340     8.7270     7.6980    52.3940     7.0540     6.3850     7.4430     8.7270 
  251.7500     2.3600    -6.3630     8.4610     7.8330    53.6880     7.1550     6.3810     7.8900     8.4610 
  251.8750     2.3710    -6.2960     8.2310     7.9770    53.4250     7.4320     6.5340     8.0830     8.2310 
  252.0000     2.3810    -6.2180     8.0200     8.0490    53.6290     7.7570     6.7630     7.8640     8.0200 
  252.1250     2.3870    -6.1300     7.7820     8.0350    57.2480     7.9390     6.9250     7.7460     7.7820 
  252.2500     2.3890    -6.0630     7.5120     7.9790    63.2030     7.9290     6.9560     7.6020     7.5120 
  252.3750     2.3850    -6.0330     7.2470     7.9100    67.2660     7.7970     6.8900     7.3990     7.2470 
  252.5000     2.3790    -5.9880     7.0380     7.8870    68.4040     7.6750     6.8170     7.3030     7.0380 
  252.6250     2.3760    -5.9600     6.9410     7.9770    67.7420     7.6740     6.8270     7.5530     6.9410 
  252.7500     2.3750    -5.9220     6.9470     8.1070    66.6970     7.7690     6.9140     7.9360     6.9470 
  252.8750     2.3770    -5.8980     7.0370     8.1700    65.5840     7.8940     7.0360     8.2330     7.0370 
  253.0000     2.3810    -5.8990     7.1800     8.1330    64.9320     7.9770     7.1280     8.4030     7.1800 
  253.1250     2.3860    -5.9240     7.3470     8.0490    65.0260     7.9630     7.1270     8.1720     7.3470 
  253.2500     2.3870    -5.9220     7.5070     7.9590    64.3380     7.8850     7.0530     8.0380     7.5070 
  253.3750     2.3810    -5.8830     7.6190     7.8270    63.2880     7.7790     6.9400     8.1070     7.6190 
  253.5000     2.3730    -5.8340     7.6310     7.6330    63.5890     7.6490     6.8080     7.9390     7.6310 
  253.6250     2.3600    -5.7920     7.4760     7.4480    65.3410     7.4780     6.6480     7.4150     7.4760 
  253.7500     2.3490    -5.7780     7.1910     7.3610    67.1500     7.3030     6.4740     6.8550     7.1910 
  253.8750     2.3420    -5.7680     6.8350     7.3810    68.4220     7.1920     6.3290     6.8810     6.8350 
  254.0000     2.3410    -5.7880     6.4820     7.4530    68.8710     7.2010     6.2550     7.1060     6.4820 
  254.1250     2.3460    -5.8160     6.2160     7.4960    69.0910     7.3390     6.2810     7.2380     6.2160 
  254.2500     2.3500    -5.8930     6.0680     7.4830    72.3880     7.5180     6.3580     7.2660     6.0680 
  254.3750     2.3520    -5.9930     6.0600     7.4450    81.2690     7.6750     6.4470     7.2270     6.0600 
  254.5000     2.3490    -6.1080     6.2030     7.4620    92.5010     7.8120     6.5460     7.1670     6.2030 
  254.6250     2.3430    -6.1820     6.4960     7.7300   100.7550     8.0430     6.7250     7.5010     6.4960 
  254.7500     2.3390    -6.2220     6.8520     8.2790   104.5550     8.4490     7.0460     8.4750     6.8520 
  254.8750     2.3430    -6.2300     7.1950     8.9280   102.5880     9.0100     7.5110     9.7640     7.1950 
  255.0000     2.3550    -6.2140     7.4680     9.3960    98.8970     9.5860     8.0290    10.3880     7.4680 
  255.1250     2.3690    -6.1570     7.6420     9.4860   100.0320     9.9060     8.3900    10.2500     7.6420 
  255.2500     2.3790    -6.0630     7.7460     9.3550   104.5960     9.8550     8.4630     9.7490     7.7460 
  255.3750     2.3870    -5.9500     7.7960     9.1480   107.9940     9.4910     8.2540     9.2270     7.7960 
  255.5000     2.3900    -5.8260     7.7890     8.9580   111.9080     9.0100     7.8950     8.7770     7.7890 
  255.6250     2.3870    -5.7110     7.7170     8.8550   122.9320     8.6510     7.5660     8.4080     7.7170 
  255.7500     2.3820    -5.6200     7.6080     8.8350   134.7570     8.4940     7.3620     8.2540     7.6080 
  255.8750     2.3810    -5.5560     7.4860     8.8780   142.1520     8.5190     7.2950     8.5540     7.4860 
  256.0000     2.3840    -5.5170     7.3660     8.9470   143.9320     8.6510     7.3370     9.0150     7.3660 
  256.1250     2.3860    -5.4990     7.2400     8.9820   141.0260     8.7840     7.4350     9.1180     7.2400 
  256.2500     2.3850    -5.4940     7.0990     8.9980   137.1410     8.8630     7.5260     8.9400     7.0990 
  256.3750     2.3790    -5.5020     6.9480     9.0520   135.3640     8.9070     7.6000     8.8270     6.9480 
  256.5000     2.3710    -5.5130     6.8220     9.1990   136.4930     8.9860     7.6900     8.8410     6.8220 
  256.6250     2.3660    -5.5380     6.7980     9.4900   137.3890     9.2110     7.8750     9.1130     6.7980 
  256.7500     2.3650    -5.5480     6.9310     9.8840   137.1620     9.5900     8.1790     9.5290     6.9310 
  256.8750     2.3670    -5.5440     7.2510    10.2740   135.9670    10.0680     8.5800    10.0730     7.2510 
  257.0000     2.3720    -5.5160     7.7220    10.5230   132.8140    10.5240     8.9960    11.1620     7.7220 
  257.1250     2.3730    -5.5000     8.2080    10.5310   125.7950    10.7360     9.2560    11.9090     8.2080 
  257.2500     2.3680    -5.4900     8.5500    10.4020   120.1930    10.6170     9.2540    11.2400     8.5500 
  257.3750     2.3600    -5.4750     8.6780    10.2350   118.7440    10.2210     8.9960     9.8480     8.6780 
  257.5000     2.3500    -5.4700     8.6290    10.1220   118.6830     9.7350     8.6040     9.0950     8.6290 
  257.6250     2.3370    -5.4850     8.5490    10.1010   117.0390     9.3990     8.2630     9.0900     8.5490 
  257.7500     2.3230    -5.5230     8.5860    10.0910   116.3610     9.2930     8.0800     9.4390     8.5860 
  257.8750     2.3140    -5.5690     8.7590    10.0740   120.9500     9.3820     8.0660    10.2230     8.7590 
  258.0000     2.3150    -5.6250     8.9760    10.0610   129.7730     9.5490     8.1610    11.3940     8.9760 
  258.1250     2.3290    -5.6540     9.0840    10.0790   133.7450     9.6570     8.2620    10.5010     9.0840 
  258.2500     2.3450    -5.6500     9.0740    10.1920   129.1020     9.7030     8.3320     9.6120     9.0740 
  258.3750     2.3600    -5.5820     9.0780    10.4320   119.9190     9.8040     8.4330     9.2660     9.0780 
  258.5000     2.3760    -5.4380     9.2620    10.7390   113.5470    10.0970     8.6690    10.6010     9.2620 
  258.6250     2.3870    -5.2170     9.6490    10.9320   114.9840    10.5950     9.1030    13.8250     9.6490 
  258.7500     2.3810    -4.9540     9.9520    10.8940   122.4070    10.9750     9.5180    14.6260     9.9520 
  258.8750     2.3510    -4.6810     9.9100    10.5990   131.1950    10.8910     9.6190    11.6810     9.9100 
  259.0000     2.3130    -4.3910     9.4500    10.1470   135.0980    10.2500     9.2470     9.1300     9.4500 
  259.1250     2.2880    -4.1210     8.7600     9.7740   130.0180     9.3770     8.5660     8.5660     8.7600 
  259.2500     2.2770    -3.8850     8.1920     9.5010   120.9680     8.7500     7.9800     8.9170     8.1920 
  259.3750     2.2700    -3.7320     7.8600     9.2060   112.3290     8.4950     7.6420     9.5910     7.8600 
  259.5000     2.2650    -3.6480     7.6650     8.8500   106.9040     8.4610     7.4910     9.7340     7.6650 
  259.6250     2.2640    -3.6170     7.4220     8.5570   106.9470     8.3810     7.3410     8.5220     7.4220 
  259.7500     2.2640    -3.6070     7.1070     8.4520   107.3970     8.2280     7.1340     7.5070     7.1070 
  259.8750     2.2610    -3.6150     6.8310     8.5690   105.5750     8.1860     6.9980     7.5330     6.8310 
  260.0000     2.2510    -3.6450     6.7220     8.8460   103.2730     8.4330     7.0810     8.2460     6.7220 
  260.1250     2.2400    -3.6710     6.8450     9.1740   103.2450     9.0030     7.4680     9.1710     6.8450 
  260.2500     2.2330    -3.6920     7.0850     9.5090   102.0960     9.6490     8.0020     9.6620     7.0850 
  260.3750     2.2290    -3.6940     7.3860     9.9380    97.4020    10.2020     8.5460     9.3650     7.3860 
  260.5000     2.2220    -3.6840     7.7860    10.5530    92.4870    10.6750     9.0650     9.6720     7.7860 
  260.6250     2.2100    -3.6830     8.4440    11.3370    90.7750    11.2530     9.6770    11.0980     8.4440 
