~V
VERS. 2.00: Ver 2.00
~W
STRT.M 60.0000:
STOP.M 284.0000:
STEP.M 0.1250:
NULL. -999.2500:
UWI. FZI118:
~C
DEPT.M :
DEN.GM/CC :
SP.MV :
R2M. :
R025. :
GR.API :
RML.OHMM :
RI. :
RXO.OHMM :
RA2. :
~A
# ...
  224.2500     2.2650   -25.4380    83.0030    42.0180    71.9750    43.2180    42.6970    67.7760    83.0030 
  224.3750     2.2700   -25.5670    80.7710    41.3660    72.1330    42.2210    41.6270    64.3400    80.7710 
  224.5000     2.2820   -25.6860    78.4890    40.6500    71.0200    41.0740    40.3930    55.9410    78.4890 
  224.6250     2.3010   -25.7770    76.2980    39.9140    70.9370    39.9910    39.2710    51.6110    76.2980 
  224.7500     2.3210   -25.8430    74.2420    39.2250    74.1670    39.1350    38.4180    49.5520    74.2420 
  224.8750     2.3340   -25.9090    72.3170    38.6590    79.3280    38.5170    37.8160    45.6440    72.3170 
  225.0000     2.3410   -25.9760    70.5920    38.2020    82.9550    38.0480    37.3630    41.1910    70.5920 
  225.1250     2.3440   -25.9820    69.2000    37.7260    81.7730    37.6110    36.9270    43.6810    69.2000 
  225.2500     2.3460   -25.9770    67.9830    37.1240    77.0140    37.0370    36.3250    50.7510    67.9830 
  225.3750     2.3380   -25.9800    66.5860    36.2580    73.2230    36.0990    35.3200    53.5230    66.5860 
  225.5000     2.3160   -25.9410    64.5840    34.9790    74.4380    34.6280    33.7490    47.9480    64.5840 
  225.6250     2.2870   -25.8640    61.6360    33.3710    80.1510    32.6820    31.7180    41.0100    61.6360 
  225.7500     2.2680   -25.7990    58.1690    31.9460    84.4580    30.7860    29.8220    36.0150    58.1690 
  225.8750     2.2630   -25.7020    54.7270    31.0800    84.5050    29.4310    28.6040    32.5860    54.7270 
  226.0000     2.2670   -25.5410    51.7780    30.8500    80.8090    28.9480    28.3900    32.3160    51.7780 
  226.1250     2.2730   -25.3620    49.6220    31.0500    76.3490    29.4670    29.2140    34.7220    49.6220 
  226.2500     2.2760   -25.1760    47.9970    31.2260    74.4780    30.4590    30.4240    37.0780    47.9970 
  226.3750     2.2770   -24.9540    46.6720    31.2700    74.5540    31.5020    31.4490    36.9930    46.6720 
  226.5000     2.2750   -24.6950    45.4500    31.3470    74.2310    32.1660    32.0660    35.2470    45.4500 
  226.6250     2.2720   -24.4150    44.2550    31.7210    74.0320    32.4130    32.2580    34.0160    44.2550 
  226.7500     2.2700   -24.0710    43.1920    32.2920    75.8760    32.6480    32.3660    36.2170    43.1920 
  226.8750     2.2700   -23.6330    42.4690    32.8990    79.0490    33.1290    32.6550    39.3460    42.4690 
  227.0000     2.2760   -23.1790    42.3200    33.5380    79.2420    33.9580    33.2600    40.0550    42.3200 
  227.1250     2.2900   -22.7250    43.1830    34.4420    74.7060    35.2890    34.3230    39.5320    43.1830 
  227.2500     2.3090   -22.1560    45.2750    35.8220    70.3700    37.3370    36.0000    39.7220    45.2750 
  227.3750     2.3300   -21.3740    48.8870    37.6890    68.6760    40.4760    38.6350    41.2740    48.8870 
  227.5000     2.3530   -20.3620    54.1700    39.8160    69.6660    44.8080    42.4110    46.6590    54.1700 
  227.6250     2.3750   -19.1760    61.3740    41.7940    72.0220    49.5450    46.7990    58.3600    61.3740 
  227.7500     2.3940   -17.9280    70.0450    43.1710    73.4570    52.6860    50.0160    69.3660    70.0450 
  227.8750     2.4140   -16.6440    79.8130    43.4150    72.2700    52.3410    50.2050    82.3070    79.8130 
  228.0000     2.4410   -15.3050    89.8990    41.6600    68.8590    47.6930    46.2840   118.3810    89.8990 
  228.1250     2.4710   -13.9090    98.1410    36.5400    67.2380    39.3510    38.4590   196.3870    98.1410 
  228.2500     2.4950   -12.5690   101.7880    29.3640    70.2930    30.1360    29.5780   170.8120   101.7880 
  228.3750     2.5110   -11.5140    98.3760    22.4510    79.6480    21.8850    21.6110    63.4710    98.3760 
  228.5000     2.5160   -10.3090    87.2650    17.7350    94.4250    15.6920    15.6020    20.0800    87.2650 
  228.6250     2.5010    -9.6120    70.1260    15.6670   107.9700    12.2510    12.0240    11.6350    70.1260 
  228.7500     2.4800    -8.8020    52.5210    14.7990   113.8520    10.8530    10.1700    10.3930    52.5210 
  228.8750     2.4680    -8.4570    38.1960    14.4990   110.7390    10.9720     9.6350    11.8600    38.1960 
  229.0000     2.4690    -8.3400    28.8570    14.3440   104.1610    11.9520     9.9790    14.0500    28.8570 
  229.1250     2.4710    -8.3100    24.2870    13.9210   100.6200    12.9110    10.6230    14.8700    24.2870 
  229.2500     2.4640    -8.2200    21.6420    13.2970   100.7800    13.1380    10.9140    12.9020    21.6420 
  229.3750     2.4550    -8.2180    19.5210    12.7950   103.0160    12.6220    10.7020    10.6000    19.5210 
  229.5000     2.4500    -8.2490    17.4840    12.7080   106.8530    11.9460    10.2990     9.4510    17.4840 
  229.6250     2.4530    -8.2810    15.9380    13.1750   109.3940    11.9480    10.2770    11.0070    15.9380 
  229.7500     2.4580    -8.2990    15.3340    13.9260   106.7750    12.7980    10.8630    14.1230    15.3340 
  229.8750     2.4640    -8.2980    15.8330    14.6290   101.0400    14.2090    11.9730    17.8550    15.8330 
  230.0000     2.4720    -8.2820    17.1480    14.8970    97.8410    15.4950    13.1580    19.9660    17.1480 
  230.1250     2.4820    -8.2150    18.6310    14.4800   100.3140    15.6220    13.5390    18.7000    18.6310 
  230.2500     2.4850    -8.0940    19.6690    13.6960   103.1590    14.5450    12.8880    15.5150    19.6690 
  230.3750     2.4810    -7.9040    20.0930    12.7860   103.7600    12.8400    11.5980    13.4140    20.0930 
  230.5000     2.4790    -7.6310    20.0130    11.7940   104.2630    11.2000    10.2340    12.5640    20.0130 
  230.6250     2.4890    -7.3360    19.5540    10.6590   105.2950     9.9960     9.1290    12.3240    19.5540 
  230.7500     2.5110    -7.0190    18.7850     9.4750   106.0290     9.0570     8.2200    10.7880    18.7850 
  230.8750     2.5340    -6.6520    17.5950     8.3960   106.1060     8.2220     7.4060     9.3870    17.5950 
  231.0000     2.5450    -6.2600    15.9140     7.5590   103.9730     7.4440     6.6530     7.9800    15.9140 
  231.1250     2.5290    -5.9240    13.8080     7.0310    96.9230     6.8380     6.0450     7.0310    13.8080 
  231.2500     2.5020    -5.6420    11.6440     6.6900    87.1230     6.4820     5.6350     6.2100    11.6440 
  231.3750     2.4780    -5.4060     9.7080     6.4840    78.8580     6.3840     5.4380     5.7480     9.7080 
  231.5000     2.4580    -5.2500     8.2170     6.3920    74.6740     6.4910     5.4260     5.5440     8.2170 
  231.6250     2.4410    -5.1680     7.3900     6.3580    77.7140     6.7410     5.5660     5.6680     7.3900 
  231.7500     2.4300    -5.1230     7.1190     6.3080    86.3160     7.0370     5.7870     6.1660     7.1190 
  231.8750     2.4260    -5.1190     7.2650     6.2560    94.2900     7.3060     6.0340     6.7320     7.2650 
  232.0000     2.4220    -5.1670     7.5940     6.2290    96.7510     7.4720     6.2400     6.9380     7.5940 
  232.1250     2.4140    -5.2160     7.8070     6.2470    96.3700     7.4700     6.3310     6.8710     7.8070 
  232.2500     2.4050    -5.2320     7.7670     6.3360    97.7740     7.3850     6.3360     6.5320     7.7670 
  232.3750     2.3980    -5.2620     7.5180     6.4950    99.5450     7.3310     6.3320     6.2490     7.5180 
  232.5000     2.3910    -5.3030     7.2120     6.6420   100.3820     7.4060     6.4030     6.3440     7.2120 
  232.6250     2.3850    -5.3150     7.0130     6.7270   101.1080     7.6280     6.5920     6.8090     7.0130 
  232.7500     2.3820    -5.3350     6.9350     6.8210   102.2410     7.8650     6.8120     7.0730     6.9350 
  232.8750     2.3790    -5.3920     6.9160     6.9210   101.6600     8.0120     6.9690     6.9910     6.9160 
  233.0000     2.3760    -5.4710     6.8730     6.9670    96.9410     8.0440     7.0200     6.8850     6.8730 
  233.1250     2.3700    -5.5580     6.7510     6.9930    90.5810     8.0360     6.9980     6.9280     6.7510 
  233.2500     2.3650    -5.6820     6.5640     7.1080    87.6540     8.1040     7.0010     6.9520     6.5640 
