~V
VERS. 2.00: Ver 2.00
~W
STRT.M 60.0000:
STOP.M 289.0000:
STEP.M 0.1250:
NULL. -999.2500:
UWI. FZI117:
~C
DEPT.M :
DEN.GM/CC :
SP.MV :
R2M. :
R025. :
RA2. :
GR.API :
RML.OHMM :
RI. :
RXO.OHMM :
~A
# ...
  251.6250     2.6920   -13.9510   482.7580    38.9610   482.7580    57.8670   113.2820   138.6300   242.6310 
  251.7500     2.6810   -13.6600   490.6340    27.9820   490.6340    60.3280    68.1540    89.3610   156.2400 
  251.8750     2.6520   -13.3820   480.2510    18.3440   480.2510    61.9950    39.3870    51.8660    73.0600 
  252.0000     2.6050   -13.1290   442.4860    11.5510   442.4860    61.2090    22.9670    28.3440    25.8940 
  252.1250     2.5470   -12.9280   371.1140     8.2420   371.1140    57.4470    14.9380    16.7560    11.1630 
  252.2500     2.4960   -12.7790   282.4480     6.8270   282.4480    53.6630    10.6950    10.8570     6.4990 
  252.3750     2.4620   -12.6750   194.1730     6.2610   194.1730    50.9670     8.6380     8.0170     5.6400 
  252.5000     2.4480   -12.6230   122.3860     6.0550   122.3860    48.8190     7.7380     6.7680     6.0400 
  252.6250     2.4440   -12.6360    78.3080     6.0160    78.3080    46.8530     7.3490     6.4330     6.3520 
  252.7500     2.4420   -12.7000    53.9120     6.0380    53.9120    45.3790     7.3650     6.4710     6.6010 
  252.8750     2.4400   -12.8010    41.3590     6.1180    41.3590    44.5830     7.5670     6.6840     6.7220 
  253.0000     2.4400   -12.9230    34.3200     6.2510    34.3200    44.5530     7.7630     6.9600     6.8470 
  253.1250     2.4440   -13.0500    29.7500     6.4470    29.7500    45.8040     7.9230     7.2480     7.0670 
  253.2500     2.4500   -13.1820    26.1760     6.6700    26.1760    47.4110     8.0630     7.5170     7.3420 
  253.3750     2.4540   -13.3060    23.3210     6.8530    23.3210    50.6750     8.2070     7.7440     7.8930 
  253.5000     2.4550   -13.4120    21.0940     6.9760    21.0940    59.1830     8.3030     7.9100     8.7230 
  253.6250     2.4470   -13.4740    19.4640     7.0660    19.4640    69.5260     8.3570     8.0060     9.4240 
  253.7500     2.4330   -13.4880    18.1940     7.1230    18.1940    72.0950     8.4070     8.0520     9.2650 
  253.8750     2.4150   -13.4790    17.1340     7.1040    17.1340    66.2810     8.4460     8.0530     9.0590 
  254.0000     2.4010   -13.4550    16.1300     7.0050    16.1300    60.1690     8.4070     7.9950     8.7820 
  254.1250     2.4000   -13.3960    15.1180     6.8490    15.1180    58.7420     8.1440     7.8290     8.4960 
  254.2500     2.4070   -13.2840    14.1010     6.6290    14.1010    57.4940     7.7350     7.5490     8.3450 
  254.3750     2.4150   -13.1320    13.0460     6.3080    13.0460    54.5320     7.3000     7.1600     8.3150 
  254.5000     2.4180   -12.9550    11.9470     5.9440    11.9470    50.3250     6.8450     6.6960     7.9710 
  254.6250     2.4160   -12.7960    10.8450     5.6550    10.8450    47.0850     6.4130     6.2210     7.1580 
  254.7500     2.4130   -12.6710     9.8560     5.5300     9.8560    47.2040     6.0700     5.8250     6.2060 
  254.8750     2.4120   -12.5650     9.1070     5.6070     9.1070    50.1450     5.9690     5.5810     5.9790 
  255.0000     2.4120   -12.4730     8.6660     5.8240     8.6660    53.6900     6.1540     5.5360     6.2370 
  255.1250     2.4130   -12.4120     8.5540     6.0750     8.5540    57.5240     6.5280     5.7220     6.6080 
  255.2500     2.4200   -12.3790     8.6510     6.2690     8.6510    61.7070     6.9850     6.0490     6.8820 
  255.3750     2.4340   -12.3680     8.8740     6.4170     8.8740    62.9120     7.3070     6.4300     7.1520 
  255.5000     2.4540   -12.3580     9.1340     6.5660     9.1340    59.0770     7.4530     6.7700     7.5050 
  255.6250     2.4770   -12.3270     9.2980     6.6620     9.2980    54.8850     7.4570     6.9630     7.9470 
  255.7500     2.4940   -12.2820     9.3060     6.6210     9.3060    54.8390     7.3750     6.9900     8.2440 
  255.8750     2.5030   -12.2320     9.1960     6.4620     9.1960    56.2780     7.2730     6.8630     8.1850 
  256.0000     2.5020   -12.1810     9.0350     6.2730     9.0350    55.8000     7.1790     6.6300     7.8310 
  256.1250     2.4900   -12.1490     8.8610     6.1020     8.8610    54.2940     7.1080     6.3580     7.3410 
  256.2500     2.4720   -12.1390     8.6660     5.9340     8.6660    55.6250     7.0250     6.1130     6.9650 
  256.3750     2.4490   -12.1600     8.4110     5.8170     8.4110    59.5610     6.9310     5.9300     6.6610 
  256.5000     2.4290   -12.2120     8.0810     5.8340     8.0810    61.4960     6.8530     5.8330     6.3900 
  256.6250     2.4210   -12.2860     7.7130     6.0150     7.7130    58.1550     6.8620     5.8600     6.1130 
  256.7500     2.4260   -12.3680     7.3810     6.2290     7.3810    55.3930     6.9740     5.9980     5.9600 
  256.8750     2.4400   -12.4550     7.1310     6.3760     7.1310    55.3720     7.1460     6.2250     6.3380 
  257.0000     2.4600   -12.5360     6.9930     6.4450     6.9930    55.6820     7.2800     6.4850     6.8280 
  257.1250     2.4770   -12.5630     6.9830     6.4820     6.9830    55.7330     7.2720     6.6720     7.1450 
  257.2500     2.4860   -12.5490     7.0370     6.4760     7.0370    58.9030     7.1860     6.7070     7.1530 
  257.3750     2.4860   -12.5120     7.1060     6.3760     7.1060    62.9400     7.1060     6.5620     7.0260 
  257.5000     2.4770   -12.4820     7.1520     6.1870     7.1520    63.6920     6.9840     6.2800     6.7760 
  257.6250     2.4640   -12.4700     7.2180     6.0190     7.2180    63.8470     6.7680     5.9750     6.4680 
  257.7500     2.4520   -12.4460     7.3940     6.0240     7.3940    68.4080     6.5760     5.7840     6.1330 
  257.8750     2.4430   -12.3890     7.7190     6.2920     7.7190    75.2370     6.7030     5.7830     6.0440 
  258.0000     2.4350   -12.3060     8.1640     6.7600     8.1640    81.4420     7.2080     5.9900     6.4660 
  258.1250     2.4280   -12.1990     8.6080     7.1910     8.6080    86.8260     7.8190     6.3720     7.8990 
  258.2500     2.4230   -12.0710     8.8980     7.4230     8.8980    92.0660     8.2200     6.7960     8.6890 
  258.3750     2.4230   -11.9150     8.9540     7.4700     8.9540    98.7740     8.3130     7.1590     8.7150 
  258.5000     2.4240   -11.7140     8.7840     7.4170     8.7840   106.2090     8.1670     7.3930     8.4780 
  258.6250     2.4200   -11.4720     8.5120     7.3530     8.5120   110.8020     7.9660     7.4570     8.4620 
  258.7500     2.4090   -11.2320     8.2770     7.3110     8.2770   111.1970     7.8460     7.4090     8.3860 
  258.8750     2.3930   -11.0200     8.0770     7.2750     8.0770   110.9740     7.7860     7.3020     8.3640 
  259.0000     2.3810   -10.8420     7.8390     7.2170     7.8390   114.3800     7.7490     7.1860     8.2890 
  259.1250     2.3800   -10.7240     7.4950     7.1380     7.4950   118.1660     7.7250     7.1150     8.0850 
  259.2500     2.3890   -10.6560     7.1330     7.1050     7.1330   120.8160     7.7210     7.0990     8.0130 
  259.3750     2.4000   -10.6330     6.9030     7.1580     6.9030   125.8200     7.7190     7.1160     8.0060 
  259.5000     2.4100   -10.6590     6.8840     7.2430     6.8840   134.6950     7.7200     7.1290     8.0080 
  259.6250     2.4140   -10.7040     7.0330     7.2670     7.0330   141.1770     7.7270     7.1060     7.9500 
  259.7500     2.4150   -10.7570     7.1880     7.2480     7.1880   139.8210     7.7500     7.0680     7.8780 
  259.8750     2.4150   -10.8010     7.2820     7.2550     7.2820   133.3510     7.7930     7.0490     7.8720 
  260.0000     2.4130   -10.8430     7.3620     7.3360     7.3620   127.1410     7.8420     7.0790     7.8970 
  260.1250     2.4100   -10.8730     7.5190     7.4560     7.5190   125.0440     7.9130     7.1690     7.9290 
  260.2500     2.4090   -10.8920     7.6820     7.5710     7.6820   125.0310     8.0840     7.2930     8.0980 
  260.3750     2.4110   -10.9010     7.7580     7.7220     7.7580   125.0770     8.3770     7.4250     8.4070 
  260.5000     2.4150   -10.8980     7.7340     7.9180     7.7340   124.6570     8.5990     7.5460     8.7080 
  260.6250     2.4220   -10.8920     7.7100     8.1040     7.7100   122.7130     8.7420     7.6520     9.2020 
