~V
VERS. 2.00: Ver 2.00
~W
STRT.M 63.0000:
STOP.M 264.0000:
STEP.M 0.1250:
NULL. -999.2500:
UWI. FZI117T:
~C
DEPT.M :
SP.MV :
GR.API :
RI. :
RML.OHMM :
RXO.OHMM :
DEN.GM/CC :
~A
# ...
  204.6250   -34.4980    68.8470    24.0150    29.0980    31.9810     2.2230 
  204.7500   -33.1670    71.1200    17.9890    20.7690    33.4580     2.2690 
  204.8750   -31.8880    72.4420    12.2770    13.9790    26.7520     2.3050 
  205.0000   -30.9500    72.8000     8.7680     9.9310    14.9220     2.3220 
  205.1250   -30.2540    73.6490     6.8190     7.7000     8.2430     2.3240 
  205.2500   -29.5580    73.9760     5.6230     6.3690     6.5120     2.3180 
  205.3750   -28.8810    75.3750     4.9720     5.6900     5.5140     2.3100 
  205.5000   -28.4630    78.0350     4.7780     5.5340     5.5730     2.3080 
  205.6250   -28.2360    79.5590     4.8450     5.6430     6.3150     2.3100 
  205.7500   -28.0060    79.3840     5.0110     5.8300     6.8350     2.3150 
  205.8750   -27.7900    77.6830     5.1670     5.9860     6.9260     2.3180 
  206.0000   -27.6090    76.4710     5.2710     6.0720     6.7350     2.3210 
  206.1250   -27.5960    77.5180     5.3120     6.0860     6.5780     2.3270 
  206.2500   -27.7780    79.2270     5.3120     6.0600     6.5670     2.3320 
  206.3750   -27.8920    80.3710     5.2930     6.0230     6.6480     2.3330 
  206.5000   -27.9020    79.0440     5.2630     5.9900     6.7240     2.3260 
  206.6250   -27.9110    77.3800     5.2270     5.9690     6.6540     2.3160 
  206.7500   -28.0290    76.5450     5.1960     5.9820     6.5060     2.3100 
  206.8750   -28.3050    76.9310     5.2000     6.0670     6.5270     2.3120 
  207.0000   -28.5810    78.1320     5.2690     6.2470     6.8090     2.3210 
  207.1250   -28.6890    79.4090     5.3990     6.5090     7.3600     2.3330 
  207.2500   -28.5860    78.7350     5.5810     6.8300     8.0430     2.3450 
  207.3750   -28.3540    75.7700     5.7500     7.1130     8.5330     2.3540 
  207.5000   -28.1720    72.5700     5.8320     7.2500     8.9550     2.3540 
  207.6250   -28.2260    72.4330     5.8050     7.2200     9.0950     2.3450 
  207.7500   -28.4820    73.7150     5.7100     7.0870     8.4670     2.3310 
  207.8750   -28.6690    75.0230     5.6470     7.0020     7.6920     2.3200 
  208.0000   -28.7090    76.3260     5.7100     7.1090     7.7080     2.3110 
  208.1250   -28.7180    78.7630     5.9670     7.4880     8.7050     2.3050 
  208.2500   -28.8320    79.5390     6.4220     8.1270    10.1330     2.3010 
  208.3750   -29.1020    78.1920     6.9660     8.8670    11.1270     2.2950 
  208.5000   -29.5750    74.8780     7.4940     9.5540    11.4890     2.2880 
  208.6250   -30.0960    73.2300     7.8780    10.0170    11.7420     2.2810 
  208.7500   -30.4210    73.1970     8.0740    10.2210    12.1770     2.2800 
  208.8750   -30.6380    72.8250     8.1870    10.3200    12.5710     2.2810 
  209.0000   -30.7210    72.2920     8.2720    10.3960    12.6340     2.2830 
  209.1250   -30.6870    71.3810     8.3590    10.5010    12.7040     2.2820 
  209.2500   -30.4610    71.0680     8.4350    10.6010    13.2070     2.2750 
  209.3750   -30.1160    71.2140     8.4670    10.6420    13.7780     2.2660 
  209.5000   -29.9450    74.0920     8.4640    10.6400    13.6690     2.2580 
  209.6250   -29.9450    77.3240     8.4870    10.6690    12.6380     2.2500 
  209.7500   -30.0900    79.1210     8.5600    10.7660    11.7180     2.2400 
  209.8750   -30.3890    77.4530     8.7330    11.0010    12.4900     2.2270 
  210.0000   -30.7350    75.2740     9.0220    11.3830    14.6420     2.2140 
  210.1250   -31.1290    73.3520     9.3750    11.8300    15.6610     2.2070 
  210.2500   -31.6250    72.2320     9.8030    12.3520    14.9710     2.2030 
  210.3750   -32.1380    70.4530    10.3260    12.9890    14.3630     2.1970 
  210.5000   -32.6260    69.8040    10.9500    13.7600    14.9560     2.1850 
  210.6250   -33.0520    67.6060    11.6450    14.6310    16.9230     2.1720 
  210.7500   -33.3590    66.0600    12.3030    15.4290    18.8330     2.1640 
  210.8750   -33.5160    63.7190    12.7650    15.9120    18.8790     2.1650 
  211.0000   -33.5500    65.4700    12.9420    15.9810    17.6400     2.1760 
  211.1250   -33.5510    67.3870    12.8790    15.7310    16.9140     2.1890 
  211.2500   -33.5510    67.8750    12.7040    15.3830    17.1800     2.1970 
  211.3750   -33.5820    65.3880    12.5930    15.1710    18.1870     2.1980 
  211.5000   -33.9240    62.9310    12.6220    15.1760    19.1460     2.1930 
  211.6250   -34.2810    61.9320    12.6770    15.2160    19.4380     2.1860 
  211.7500   -34.3580    62.3610    12.6080    15.0890    19.6350     2.1830 
  211.8750   -34.3580    63.3190    12.3750    14.7680    19.2630     2.1840 
  212.0000   -34.3430    64.7260    11.9090    14.1370    17.7200     2.1880 
  212.1250   -34.0480    65.4250    11.1170    13.0880    16.1560     2.1920 
  212.2500   -33.4740    65.1560     9.9990    11.6560    15.5830     2.1950 
  212.3750   -32.8840    64.5970     8.8290    10.1770    14.8520     2.1990 
  212.5000   -32.7440    66.6760     7.8840     9.0050    11.5010     2.2060 
  212.6250   -32.7440    69.5070     7.4140     8.4410     8.1570     2.2150 
  212.7500   -32.7440    71.4980     7.5750     8.6640     9.4400     2.2240 
  212.8750   -32.7440    69.2120     8.3190     9.6030    12.8780     2.2320 
  213.0000   -32.7440    64.7950     9.4360    10.9500    16.0840     2.2330 
  213.1250   -32.7750    60.4070    10.5960    12.2750    18.8000     2.2240 
  213.2500   -33.0700    59.1360    11.4070    13.0820    18.3890     2.2060 
  213.3750   -33.1480    59.5550    11.6290    13.1510    15.7990     2.1890 
  213.5000   -33.1480    59.8270    11.4620    12.7970    14.0660     2.1790 
  213.6250   -33.1480    60.0790    11.0890    12.2560    13.2980     2.1780 
  213.7500   -33.1530    59.6140    10.7410    11.8220    12.8480     2.1830 
  213.8750   -33.2930    59.9080    10.5690    11.6500    12.7950     2.1920 
  214.0000   -33.5200    60.1290    10.5580    11.6900    13.3760     2.2000 
  214.1250   -33.5510    61.6380    10.6250    11.8200    14.0610     2.2030 
  214.2500   -33.5510    62.2210    10.6920    11.9370    14.1160     2.1990 
  214.3750   -33.5510    61.8890    10.6920    11.9520    13.6050     2.1920 
  214.5000   -33.5510    60.9470    10.6240    11.8610    12.8980     2.1860 
  214.6250   -33.5900    61.3930    10.5680    11.7670    12.2670     2.1850 
  214.7500   -33.8050    62.5720    10.6430    11.8210    11.9060     2.1860 
  214.8750   -34.0920    62.1170    11.0580    12.2840    12.1330     2.1850 
  215.0000   -34.5290    60.1790    11.9410    13.3120    13.1190     2.1790 
  215.1250   -34.7620    57.5660    13.1660    14.7450    14.8350     2.1750 
  215.2500   -34.7620    54.6090    14.7140    16.5420    18.3210     2.1810 
  215.3750   -34.7620    51.6650    16.2590    18.2950    22.6800     2.2010 
  215.5000   -34.8600    50.3070    17.3980    19.5080    25.4830     2.2270 
  215.6250   -35.1910    50.8390    17.7470    19.7630    27.1240     2.2470 
  215.7500   -35.5220    51.7770    17.2180    19.1640    26.4290     2.2480 
  215.8750   -35.5690    51.8760    16.1980    18.0290    21.3080     2.2300 
  216.0000   -35.5690    52.0790    15.0830    16.7060    15.4420     2.2010 
  216.1250   -35.5690    52.9580    14.2480    15.7610    13.0630     2.1760 
  216.2500   -35.5690    55.3300    13.7820    15.2610    12.9940     2.1650 
  216.3750   -35.5690    57.4670    13.6350    15.1360    13.1040     2.1670 
  216.5000   -35.5690    58.3850    13.7550    15.2790    13.0060     2.1770 
  216.6250   -35.5690    58.5930    13.8660    15.3540    13.2630     2.1900 
  216.7500   -35.5610    59.7540    13.7550    15.1390    14.0500     2.2000 
  216.8750   -35.3670    60.6760    13.4430    14.6870    14.1970     2.2030 
  217.0000   -35.1730    61.2340    13.0640    14.1830    13.3330     2.2030 
  217.1250   -35.1500    61.5070    12.7830    13.8230    12.2890     2.2030 
  217.2500   -34.9640    63.5800    12.7050    13.7280    12.0310     2.2030 
  217.3750   -34.7770    64.3280    12.8400    13.8970    12.7370     2.2010 
