~V
VERS. 2.00: Ver 2.00
~W
STRT.M 60.0000:
STOP.M 284.0000:
STEP.M 0.1250:
NULL. -999.2500:
UWI. FZI118:
~C
DEPT.M :
DEN.GM/CC :
SP.MV :
R2M. :
R025. :
GR.API :
RML.OHMM :
RI. :
RXO.OHMM :
RA2. :
~A
   60.0000     2.5060    22.7940     0.1160     0.2210    68.6520    20.1200     2.7220     2.9650     0.1160 
   60.1250     2.4690    16.7280     0.0920     1.5050    75.3730    39.9200     7.0660     6.0950     0.0920 
   60.2500     2.3680    10.6840     0.0780     3.7310    79.3150    77.6620    18.6460     9.0180     0.0780 
   60.3750     2.2510     4.9360     0.0860     6.0200    82.0620    83.7700    34.2840    10.2360     0.0860 
   60.5000     2.1660    -0.3590     0.1170     7.4970    84.5660    42.6380    30.8460    10.4450     0.1170 
   60.6250     2.1360    -4.9340     0.1680     8.0510    85.1240    21.1170    18.6650    10.6250     0.1680 
   60.7500     2.1340    -8.7070     0.2160     8.3540    84.4060    12.7110    11.9630    10.7500     0.2160 
   60.8750     2.1410   -11.5590     0.2520     8.5610    84.4590     9.3830     8.7700    10.7190     0.2520 
   61.0000     2.1420   -13.5330     0.2730     8.6820    84.8180     8.2200     7.4200    10.6000     0.2730 
   61.1250     2.1360   -14.7940     0.2800     8.7750    82.8350     8.1750     7.1740    10.5580     0.2800 
   61.2500     2.1260   -15.6920     0.2790     8.9260    80.1860     8.5030     7.3030    10.9430     0.2790 
   61.3750     2.1190   -16.3610     0.2780     9.1120    79.8070     8.8970     7.5200    11.6310     0.2780 
   61.5000     2.1160   -16.8370     0.2770     9.2600    80.6120     9.1910     7.7220    12.0140     0.2770 
   61.6250     2.1170   -17.1370     0.2790     9.3220    78.6350     9.2890     7.8360    11.9910     0.2790 
   61.7500     2.1200   -17.2780     0.2830     9.3270    75.7280     9.2090     7.8360    11.8960     0.2830 
   61.8750     2.1210   -17.2540     0.3020     9.2850    74.5340     8.9670     7.7220    11.7820     0.3020 
   62.0000     2.1210   -17.1140     0.3810     9.1480    76.5910     8.6080     7.5110    11.6200     0.3810 
   62.1250     2.1210   -16.8660     0.6240     8.8000    81.2590     8.1780     7.2250    11.1530     0.6240 
   62.2500     2.1230   -16.5750     1.0630     8.2860    86.3310     7.7630     6.9280    10.3730     1.0630 
   62.3750     2.1270   -16.2710     1.6800     7.7610    89.1150     7.4690     6.6960     9.5180     1.6800 
   62.5000     2.1310   -15.9880     2.3940     7.4290    89.0700     7.4100     6.6140     9.1750     2.3940 
   62.6250     2.1330   -15.7410     3.1020     7.4340    87.1410     7.7080     6.7770     8.9990     3.1020 
   62.7500     2.1290   -15.5460     3.7830     7.6300    85.7320     8.2790     7.1360     9.8010     3.7830 
   62.8750     2.1210   -15.3840     4.4770     7.8710    86.3460     8.9840     7.6090    10.6710     4.4770 
   63.0000     2.1180   -15.2150     5.2030     8.1220    88.5240     9.5900     8.0500    11.1870     5.2030 
   63.1250     2.1250   -15.0130     5.8530     8.3830    89.0710     9.7270     8.2260    10.7710     5.8530 
   63.2500     2.1340   -14.7620     6.2650     8.4480    89.8670     9.3210     8.0510     9.8600     6.2650 
   63.3750     2.1410   -14.4510     6.3370     8.1330    95.0160     8.4970     7.5570     8.5230     6.3370 
   63.5000     2.1510   -14.1310     6.0810     7.5200   102.9390     7.5530     6.9100     6.9210     6.0810 
   63.6250     2.1670   -13.8590     5.6020     6.9700   107.9090     6.8660     6.3730     6.7010     5.6020 
   63.7500     2.1810   -13.6440     5.0950     6.6780   109.8570     6.5810     6.1110     6.3330     5.0950 
   63.8750     2.1850   -13.5260     4.6470     6.6220   110.1090     6.7320     6.1870     6.1590     4.6470 
   64.0000     2.1770   -13.4800     4.2910     6.7700   107.2620     7.2910     6.6010     6.5030     4.2910 
   64.1250     2.1630   -13.5130     4.0660     7.1770   102.0210     8.2150     7.3510     7.4660     4.0660 
   64.2500     2.1510   -13.5120     3.9840     7.8000    96.6060     9.2420     8.2630     9.1320     3.9840 
   64.3750     2.1470   -13.4240     4.0700     8.4580    91.2940    10.0620     9.1220    10.5730     4.0700 
   64.5000     2.1560   -13.1900     4.3250     8.8410    87.5500    10.3170     9.6340    11.6090     4.3250 
   64.6250     2.1800   -12.7690     4.6910     8.6120    89.7740     9.6890     9.4370    10.6300     4.6910 
   64.7500     2.2060   -12.2420     5.0070     7.9470    97.3550     8.5730     8.7030     8.0110     5.0070 
   64.8750     2.2210   -11.6600     5.1630     7.1850   103.4820     7.4770     7.7840     6.1640     5.1630 
   65.0000     2.2240   -11.0740     5.1260     6.6610   103.3020     6.7880     7.0460     6.1260     5.1260 
   65.1250     2.2180   -10.5140     4.9680     6.5120   100.8950     6.6850     6.7190     6.9350     4.9680 
   65.2500     2.2080   -10.0140     4.8340     6.4470   101.8610     6.8910     6.6550     7.3080     4.8340 
   65.3750     2.2020    -9.6190     4.7810     6.2630   106.0840     7.0970     6.6390     6.5340     4.7810 
   65.5000     2.2120    -9.3620     4.7840     5.9680   111.1770     7.0530     6.4860     5.3570     4.7840 
   65.6250     2.2430    -9.2530     4.7630     5.7620   118.4020     6.7440     6.1680     5.1170     4.7630 
   65.7500     2.2790    -9.2320     4.6750     5.7230   124.2100     6.4680     5.8810     5.2150     4.6750 
   65.8750     2.3050    -9.2660     4.5220     5.7900   122.9480     6.4360     5.7800     5.0800     4.5220 
   66.0000     2.3220    -9.3700     4.3460     5.9280   115.4370     6.8130     5.9870     4.7860     4.3460 
   66.1250     2.3390    -9.6090     4.2610     6.3160   107.8400     8.0960     6.9080     5.0510     4.2610 
   66.2500     2.3650   -10.0250     4.4260     7.3160   102.1950    10.9330     9.3820     7.0960     4.4260 
   66.3750     2.4030   -10.6190     5.0070     9.7560    95.7520    16.4960    14.9080    13.7800     5.0070 
   66.5000     2.4540   -11.3570     6.1070    14.4480    88.2610    26.4000    25.0880    32.0240     6.1070 
   66.6250     2.5160   -12.2390     7.7800    21.0020    83.5990    40.8210    39.7300    64.0680     7.7800 
   66.7500     2.5660   -13.2040     9.7630    26.5400    81.8540    48.7380    49.2420    93.3300     9.7630 
   66.8750     2.5800   -14.2150    11.7910    28.5490    80.0340    41.3380    44.7550    96.0160    11.7910 
   67.0000     2.5490   -15.2290    13.4900    26.2650    78.5490    27.4340    31.4620    56.4620    13.4900 
   67.1250     2.4760   -16.1840    14.2030    21.1350    80.1810    17.5900    20.3860    24.5470    14.2030 
   67.2500     2.3760   -17.0240    13.6950    16.3180    83.3080    11.8560    13.7130    13.2890    13.6950 
   67.3750     2.2680   -17.6990    12.0140    13.1130    83.7870     8.8480    10.1110    10.1700    12.0140 
   67.5000     2.1850   -18.1670     9.5920    11.3840    81.0180     7.5900     8.2930     9.1970     9.5920 
   67.6250     2.1510   -18.3450     7.1500    10.6020    78.4450     7.6000     7.7020     8.5860     7.1500 
   67.7500     2.1500   -18.2840     5.2740    10.2860    76.9030     8.2410     7.7810     8.3740     5.2740 
   67.8750     2.1660   -17.9720     4.1650    10.2910    76.2990     9.1760     8.2530     8.9400     4.1650 
   68.0000     2.1910   -17.4550     3.7720    10.3300    78.8020    10.0730     8.8380    11.1400     3.7720 
   68.1250     2.2250   -16.7740     3.9540    10.0030    87.2400    10.4740     9.1620    12.7680     3.9540 
   68.2500     2.2620   -16.0400     4.3480     9.4030    98.0380    10.2100     9.0150    10.5170     4.3480 
   68.3750     2.2870   -15.3300     4.7260     8.8030   105.7300     9.4210     8.4380     7.0860     4.7260 
   68.5000     2.2810   -14.6930     4.9720     8.3840   107.9880     8.5160     7.6970     6.2080     4.9720 
   68.6250     2.2370   -14.1520     5.1390     8.1070   109.1690     7.9520     7.1220     6.7620     5.1390 
   68.7500     2.1910   -13.6930     5.4060     7.8560   112.3800     7.7760     6.8030     7.2140     5.4060 
   68.8750     2.1660   -13.3530     5.8550     7.6080   117.8210     7.8340     6.6840     6.9490     5.8550 
   69.0000     2.1710   -13.1450     6.4330     7.3340   123.2750     7.9370     6.6680     6.5220     6.4330 
