~V
VERS. 2.00: Ver 2.00
~W
STRT.M 63.0000:
STOP.M 264.0000:
STEP.M 0.1250:
NULL. -999.2500:
UWI. FZI117T:
~C
DEPT.M :
SP.MV :
GR.API :
RI. :
RML.OHMM :
RXO.OHMM :
DEN.GM/CC :
~A
# ...
   88.7500   -37.6330    63.0610     5.9270     6.9410     5.7460     2.0790 
   88.8750   -37.3180    66.1430     5.8770     6.8550     5.7300     2.0790 
   89.0000   -36.9870    68.1240     5.8520     6.8150     5.5750     2.0840 
   89.1250   -36.7740    68.6750     5.8910     6.8680     5.4620     2.1020 
   89.2500   -36.5160    68.6480     5.9620     6.9660     5.7760     2.1450 
   89.3750   -36.3760    70.1700     5.9930     7.0250     8.3620     2.2010 
   89.5000   -36.2360    71.9360     5.8920     6.9260    11.4910     2.2410 
   89.6250   -35.9100    74.4980     5.6560     6.6390    10.4790     2.2450 
   89.7500   -35.5380    77.2640     5.2790     6.1690     7.3540     2.2170 
   89.8750   -35.1970    79.3580     4.8560     5.6340     5.8750     2.1850 
   90.0000   -35.1580    80.7610     4.5120     5.2120     5.5550     2.1670 
   90.1250   -34.9640    81.3540     4.3990     5.1040     5.5500     2.1710 
   90.2500   -34.7700    83.5730     4.6100     5.3970     5.6370     2.2060 
   90.3750   -34.7620    84.9210     5.0380     5.9460     5.6200     2.2610 
   90.5000   -34.7620    83.9940     5.5940     6.6140     5.5860     2.2980 
   90.6250   -35.0100    78.6100     6.1170     7.1830     5.8550     2.2830 
   90.7500   -35.7400    72.3540     6.4320     7.4660     6.3460     2.2160 
   90.8750   -36.0970    67.7500     6.5150     7.4760     6.6290     2.1440 
   91.0000   -36.3610    67.5610     6.3680     7.2470     6.6970     2.1070 
   91.1250   -36.3760    68.9170     6.1160     6.9440     6.8120     2.1100 
   91.2500   -36.3610    70.8440     5.8490     6.6580     6.9720     2.1370 
   91.3750   -35.9730    72.4910     5.5680     6.3620     6.8850     2.1670 
   91.5000   -35.3050    75.3420     5.2650     6.0330     6.2980     2.1870 
   91.6250   -34.6380    80.0440     4.9700     5.7070     5.8210     2.1950 
   91.7500   -33.9700    85.5380     4.7410     5.4480     5.8420     2.1990 
   91.8750   -33.5820    89.9250     4.6760     5.3890     5.7600     2.2110 
   92.0000   -33.5510    91.7610     4.9410     5.7580     5.5270     2.2410 
   92.1250   -33.5510    91.8860     5.6270     6.6780     6.0380     2.2910 
   92.2500   -33.5510    91.2820     6.6290     8.0060     9.0970     2.3490 
   92.3750   -33.5820    90.5030     7.6350     9.3180    13.7690     2.3830 
   92.5000   -33.9550    89.4640     8.3420    10.1670    15.2580     2.3610 
   92.6250   -34.2960    87.1420     8.4530    10.1680    12.2670     2.2870 
   92.7500   -34.1410    84.2750     7.9650     9.3990     8.6240     2.1950 
   92.8750   -34.8860    80.4730     7.2280     8.3770     7.0710     2.1230 
   93.0000   -35.3050    76.7160     6.5480     7.5180     6.7750     2.0860 
   93.1250   -35.5850    72.4080     6.1830     7.1100     6.5130     2.0700 
   93.2500   -35.9100    67.7840     6.0920     7.0340     6.2430     2.0650 
   93.3750   -36.2520    62.7720     6.0990     7.0580     6.1160     2.0650 
   93.5000   -36.3510    60.2620     6.1720     7.1550     6.1710     2.0690 
   93.6250   -35.9360    62.7360     6.3010     7.3090     6.3150     2.0750 
   93.7500   -35.8320    67.2830     6.4310     7.4570     6.4270     2.0800 
   93.8750   -35.9740    70.3550     6.5230     7.5560     6.4810     2.0820 
   94.0000   -36.1240    70.8310     6.5480     7.5690     6.4950     2.0810 
   94.1250   -36.2510    71.0120     6.5000     7.4930     6.4450     2.0790 
   94.2500   -36.3430    71.5420     6.4020     7.3710     6.4910     2.0790 
   94.3750   -36.4130    71.5370     6.2800     7.2350     6.6800     2.0830 
   94.5000   -36.4510    69.8940     6.1480     7.1040     6.6630     2.0900 
   94.6250   -36.4280    68.6360     6.0350     6.9940     6.3240     2.0930 
   94.7500   -36.4090    66.3920     5.9330     6.8820     5.9150     2.0870 
   94.8750   -36.4450    65.5930     5.8560     6.7950     5.6990     2.0770 
   95.0000   -36.4890    65.3340     5.8570     6.8120     5.8690     2.0760 
   95.1250   -36.5300    67.5310     5.9330     6.9310     6.1420     2.0950 
   95.2500   -36.5790    69.8100     6.0520     7.0940     6.0020     2.1280 
   95.3750   -36.6060    70.9330     6.1520     7.2180     5.7510     2.1480 
   95.5000   -36.5910    71.4810     6.1840     7.2370     6.0300     2.1350 
   95.6250   -36.5530    71.0970     6.1570     7.1840     6.6380     2.1020 
   95.7500   -36.4900    69.9050     6.0980     7.1080     7.0290     2.0760 
   95.8750   -36.3690    66.1300     6.0450     7.0540     7.0890     2.0680 
   96.0000   -36.2300    62.6580     6.0270     7.0570     6.9430     2.0740 
   96.1250   -36.0950    59.8590     6.0260     7.0720     6.5590     2.0800 
   96.2500   -35.7930    60.5640     5.9990     7.0410     6.0160     2.0810 
   96.3750   -35.5690    62.6000     5.9390     6.9640     5.7370     2.0760 
   96.5000   -35.4290    64.9920     5.8530     6.8520     5.8020     2.0700 
   96.6250   -35.1810    65.6250     5.7740     6.7520     5.8650     2.0660 
   96.7500   -35.1650    66.8730     5.7300     6.6900     5.8630     2.0640 
   96.8750   -35.1650    67.6990     5.7220     6.6720     6.0640     2.0640 
   97.0000   -35.1650    68.8740     5.7610     6.7100     6.3670     2.0660 
   97.1250   -35.1650    66.7690     5.8300     6.7950     6.3630     2.0720 
   97.2500   -35.2430    63.6530     5.9130     6.8970     6.0370     2.0790 
   97.3750   -35.5380    61.0760     6.0000     7.0010     5.7600     2.0860 
   97.5000   -35.5690    60.0530     6.0770     7.0830     5.7610     2.0910 
   97.6250   -35.6000    59.0250     6.1430     7.1430     5.8310     2.0930 
   97.7500   -35.8950    57.1850     6.1790     7.1560     5.7440     2.0930 
   97.8750   -35.9730    56.0740     6.1770     7.1210     5.6080     2.0930 
   98.0000   -35.9730    55.7120     6.1400     7.0460     5.5430     2.0950 
   98.1250   -35.9730    56.2880     6.1030     6.9760     5.4860     2.0980 
   98.2500   -35.9730    57.2190     6.1000     6.9630     5.4110     2.1010 
   98.3750   -35.9730    57.6190     6.1600     7.0450     5.4310     2.1020 
   98.5000   -35.9730    57.8060     6.2830     7.2180     5.5530     2.1000 
   98.6250   -35.9730    57.8370     6.4680     7.4740     5.6170     2.0940 
   98.7500   -35.9730    58.1370     6.6790     7.7560     5.6000     2.0890 
   98.8750   -35.9730    58.6010     6.8540     7.9750     5.5680     2.0870 
   99.0000   -35.9730    58.0600     6.9360     8.0520     6.2940     2.0860 
   99.1250   -35.8480    59.1220     6.8830     7.9420     9.1730     2.0840 
   99.2500   -35.3670    58.7320     6.7080     7.6710    11.3330     2.0840 
   99.3750   -34.8760    58.1440     6.5030     7.3790     9.3340     2.0910 
   99.5000   -34.5600    56.0850     6.4930     7.3980     6.5360     2.1090 
   99.6250   -34.3690    55.3410     6.8460     7.9200     5.6740     2.1490 
   99.7500   -34.2810    57.1320     7.4510     8.7830     6.2450     2.2210 
   99.8750   -33.9860    60.5400     7.9470     9.4740    11.5270     2.3050 
  100.0000   -33.9390    63.0000     8.0110     9.5260    23.3340     2.3590 
  100.1250   -33.6750    64.3330     7.5130     8.8100    27.2920     2.3590 
  100.2500   -33.4740    66.2560     6.6590     7.6530    16.6490     2.3200 
  100.3750   -33.2650    71.0220     5.7450     6.5100     7.9280     2.2750 
  100.5000   -33.4310    75.9780     5.0220     5.6990     6.2290     2.2450 
  100.6250   -33.4840    80.2100     4.6210     5.3300     5.7560     2.2280 
  100.7500   -33.5200    84.4870     4.5470     5.3340     5.7500     2.2210 
  100.8750   -33.5330    87.9220     4.6040     5.4380     6.2290     2.2200 
  101.0000   -33.5190    90.1410     4.6290     5.4630     7.3700     2.2250 
  101.1250   -33.4700    88.7940     4.5820     5.3780     7.7520     2.2330 
  101.2500   -33.3770    87.8550     4.4840     5.2260     6.3700     2.2430 
  101.3750   -33.2530    86.6610     4.4070     5.1110     5.1080     2.2580 
  101.5000   -33.1240    86.7350     4.4020     5.1030     5.0720     2.2840 
