~V
VERS. 2.00: Ver 2.00
~W
STRT.M 60.0000:
STOP.M 284.0000:
STEP.M 0.1250:
NULL. -999.2500:
UWI. FZI118:
~C
DEPT.M :
DEN.GM/CC :
SP.MV :
R2M. :
R025. :
GR.API :
RML.OHMM :
RI. :
RXO.OHMM :
RA2. :
~A
# ...
  169.5000     2.3400    -9.6680     7.3600     6.0700   109.0830     6.5220     6.4010     5.9420     7.3600 
  169.6250     2.3400   -10.1140     7.0120     6.2710   109.3020     6.7420     6.4590     6.0370     7.0120 
  169.7500     2.3390   -10.6060     6.6580     6.5350   108.5910     7.0660     6.6270     6.4810     6.6580 
  169.8750     2.3350   -11.1530     6.4000     6.7930   107.1970     7.4160     6.8580     7.1960     6.4000 
  170.0000     2.3280   -11.7640     6.2710     6.9960   107.0660     7.6990     7.0760     7.7890     6.2710 
  170.1250     2.3160   -12.4100     6.2150     7.1520   108.2510     7.8510     7.2040     7.5360     6.2150 
  170.2500     2.3020   -13.0770     6.1240     7.3070   109.6310     7.9460     7.2630     7.3230     6.1240 
  170.3750     2.2880   -13.7900     5.9680     7.4720   109.2310     8.0800     7.3180     7.4650     5.9680 
  170.5000     2.2760   -14.5010     5.7830     7.6710   106.2770     8.3150     7.4300     7.7130     5.7830 
  170.6250     2.2650   -15.1310     5.6610     7.9540   102.7440     8.6550     7.6250     7.9590     5.6610 
  170.7500     2.2540   -15.6610     5.6550     8.2870   100.6450     8.9930     7.8500     8.2690     5.6550 
  170.8750     2.2420   -16.0450     5.7640     8.6060    99.9440     9.2150     8.0320     8.7890     5.7640 
  171.0000     2.2340   -16.2790     5.9470     8.8590    99.4680     9.2550     8.1150     9.0440     5.9470 
  171.1250     2.2300   -16.3440     6.1400     9.0200    97.9480     9.1400     8.0970     8.9980     6.1400 
  171.2500     2.2320   -16.2530     6.2930     9.1480    97.3780     9.0280     8.0740     9.0920     6.2930 
  171.3750     2.2390   -15.9510     6.4030     9.3120    96.8970     9.0540     8.1360     9.1850     6.4030 
  171.5000     2.2530   -15.4390     6.5210     9.5900    95.1370     9.3230     8.3640     9.2780     6.5210 
  171.6250     2.2780   -14.7140     6.8000    10.0740    92.5740     9.9100     8.8420     9.4600     6.8000 
  171.7500     2.3210   -13.8480     7.3820    10.8130    90.4610    10.6150     9.4660    10.3920     7.3820 
  171.8750     2.3820   -12.9220     8.3400    11.5920    89.1400    11.0740     9.9820    13.0050     8.3400 
  172.0000     2.4520   -11.9690     9.5420    11.7100    89.9100    10.8140     9.9980    16.0980     9.5420 
  172.1250     2.4930   -11.0010    10.4960    10.4630    95.1840     9.4790     9.1230    11.9980    10.4960 
  172.2500     2.4840   -10.0840    10.7200     8.6340   101.2360     7.7450     7.7800     7.3490    10.7200 
  172.3750     2.4440    -9.2780    10.0390     7.1450   104.9250     6.3020     6.4960     5.9960    10.0390 
  172.5000     2.4070    -8.5900     8.6760     6.3310   106.3880     5.5070     5.6080     6.1490     8.6760 
  172.6250     2.3930    -8.0860     7.1630     5.9290   106.0200     5.3740     5.2260     6.2210     7.1630 
  172.7500     2.3830    -7.7180     5.9890     5.5970   105.0470     5.4730     5.0980     5.8010     5.9890 
  172.8750     2.3620    -7.4430     5.2580     5.2380   103.2530     5.5000     5.0210     5.1690     5.2580 
  173.0000     2.3290    -7.2620     4.8390     4.8520   100.6730     5.3320     4.8770     4.6580     4.8390 
  173.1250     2.2990    -7.2090     4.5460     4.5310    99.4390     5.0950     4.6990     4.3780     4.5460 
  173.2500     2.2820    -7.2080     4.2820     4.3470   101.4150     5.0080     4.6070     4.2580     4.2820 
  173.3750     2.2770    -7.2350     4.0760     4.3080   104.6350     5.1510     4.6630     4.4240     4.0760 
  173.5000     2.2830    -7.3070     3.9800     4.3890   106.5410     5.5030     4.8720     4.8990     3.9800 
  173.6250     2.2970    -7.3900     4.0500     4.5760   109.4950     5.9800     5.2050     5.3440     4.0500 
  173.7500     2.3070    -7.4980     4.2480     4.8160   113.1810     6.4120     5.5500     5.5270     4.2480 
  173.8750     2.3040    -7.6190     4.5310     5.0380   113.6760     6.6800     5.8120     5.5760     4.5310 
  174.0000     2.2940    -7.7180     4.8560     5.1690   111.8050     6.7330     5.9310     5.6180     4.8560 
  174.1250     2.2840    -7.7790     5.1860     5.1870   113.5560     6.6040     5.8930     5.5830     5.1860 
  174.2500     2.2800    -7.8270     5.4870     5.1830   116.6480     6.4430     5.7900     5.5110     5.4870 
  174.3750     2.2780    -7.8740     5.7250     5.2140   115.6470     6.3400     5.6910     5.5040     5.7250 
  174.5000     2.2790    -7.9040     5.8750     5.2890   111.8830     6.3280     5.6320     5.5950     5.8750 
  174.6250     2.2820    -7.9290     5.9260     5.3680   110.6220     6.3980     5.6250     5.7540     5.9260 
  174.7500     2.2900    -7.9480     5.9230     5.4160   111.4080     6.4840     5.6390     5.8390     5.9230 
  174.8750     2.3040    -7.9760     5.8790     5.4360   112.1130     6.5460     5.6500     5.7430     5.8790 
  175.0000     2.3190    -8.0160     5.7860     5.4650   112.1220     6.5870     5.6560     5.5280     5.7860 
  175.1250     2.3270    -8.0610     5.6150     5.5520   111.8120     6.6540     5.6870     5.5520     5.6150 
  175.2500     2.3290    -8.1120     5.4000     5.6840   113.1060     6.7720     5.7580     5.7320     5.4000 
  175.3750     2.3290    -8.1450     5.2010     5.8000   116.4620     6.9130     5.8570     5.9820     5.2010 
  175.5000     2.3270    -8.1780     5.0730     5.8470   119.0180     7.0090     5.9430     6.1280     5.0730 
  175.6250     2.3230    -8.2190     5.0410     5.8340   117.1990     6.9970     5.9640     6.0340     5.0410 
  175.7500     2.3160    -8.2520     5.0480     5.8360   114.5060     6.9200     5.9350     5.8840     5.0480 
  175.8750     2.3070    -8.2660     5.0470     5.8820   112.7240     6.8510     5.8970     5.8440     5.0470 
  176.0000     2.3010    -8.2840     5.0210     5.9550   110.6870     6.8470     5.8920     5.9400     5.0210 
  176.1250     2.3010    -8.3010     4.9920     6.0140   108.6410     6.9130     5.9350     6.0830     4.9920 
  176.2500     2.3030    -8.3090     4.9910     6.0490   107.4380     6.9800     5.9880     6.1940     4.9910 
  176.3750     2.3010    -8.3090     5.0260     6.0700   105.9640     6.9950     6.0130     6.2100     5.0260 
  176.5000     2.2930    -8.2920     5.0770     6.0640   103.9260     6.9330     5.9890     6.1580     5.0770 
  176.6250     2.2860    -8.2660     5.1070     6.0190   103.7460     6.8120     5.9180     6.1410     5.1070 
  176.7500     2.2850    -8.2390     5.0890     5.9840   105.6500     6.6920     5.8390     6.0810     5.0890 
  176.8750     2.2860    -8.2070     5.0230     5.9840   106.6150     6.6120     5.7810     5.9670     5.0230 
  177.0000     2.2880    -8.1670     4.9260     5.9970   105.6710     6.5920     5.7610     5.8730     4.9260 
  177.1250     2.2910    -8.1400     4.8540     6.0020   104.5750     6.6480     5.8000     5.8700     4.8540 
  177.2500     2.3000    -8.1070     4.8690     6.0310   104.8650     6.7640     5.8930     6.0550     4.8690 
  177.3750     2.3170    -8.0740     5.0070     6.0950   105.8170     6.9190     6.0320     6.6270     5.0070 
  177.5000     2.3370    -8.0590     5.2480     6.1820   107.2450     7.0640     6.1840     7.3620     5.2480 
  177.6250     2.3470    -8.0340     5.4990     6.2630   108.1820     7.0930     6.2660     7.6190     5.4990 
  177.7500     2.3400    -8.0300     5.6410     6.2830   108.1550     6.9690     6.2270     6.9500     5.6410 
  177.8750     2.3190    -8.0580     5.6180     6.1960   107.5850     6.7220     6.0700     6.2820     5.6180 
  178.0000     2.2980    -8.0860     5.4440     6.0180   107.5700     6.4410     5.8500     5.9600     5.4440 
  178.1250     2.2880    -8.0900     5.1960     5.8400   108.8790     6.2350     5.6530     5.8900     5.1960 
  178.2500     2.2890    -8.1060     4.9720     5.7160   111.5730     6.1300     5.5230     5.9030     4.9720 
  178.3750     2.2960    -8.1440     4.8060     5.6310   113.2130     6.1040     5.4570     5.9290     4.8060 
  178.5000     2.3080    -8.1860     4.6940     5.5740   110.0650     6.1260     5.4370     5.9080     4.6940 
