~V
VERS. 2.00: Ver 2.00
~W
STRT.M 60.0000:
STOP.M 289.0000:
STEP.M 0.1250:
NULL. -999.2500:
UWI. FZI117:
~C
DEPT.M :
DEN.GM/CC :
SP.MV :
R2M. :
R025. :
RA2. :
GR.API :
RML.OHMM :
RI. :
RXO.OHMM :
~A
# ...
  105.6250     2.1970   -12.2440    10.6980     8.0630    10.6980    82.3970     9.2920     7.9420    10.0420 
  105.7500     2.2120   -11.6250    10.7310     7.5960    10.7310    86.3150     8.7080     7.5120     9.2160 
  105.8750     2.2400   -11.0530    10.7190     7.1160    10.7190    90.1320     8.2190     7.1160     8.1350 
  106.0000     2.2720   -10.5570    10.6090     6.7360    10.6090    93.4700     7.9530     6.8360     7.1550 
  106.1250     2.2920   -10.1860    10.3470     6.5660    10.3470    91.8050     7.9580     6.7270     7.3390 
  106.2500     2.2950    -9.9240    10.0430     6.5730    10.0430    84.6880     8.0810     6.7350     7.8330 
  106.3750     2.2830    -9.7500     9.8550     6.6730     9.8550    78.0450     8.1900     6.8030     8.2070 
  106.5000     2.2680    -9.6460     9.8520     6.7540     9.8520    76.0290     8.2050     6.8730     8.3530 
  106.6250     2.2600    -9.5890     9.9450     6.7470     9.9450    76.4890     8.1260     6.9000     8.0010 
  106.7500     2.2630    -9.5630     9.9500     6.6840     9.9500    78.3840     8.0480     6.8940     7.4430 
  106.8750     2.2700    -9.5510     9.8070     6.6070     9.8070    82.4280     8.0240     6.8870     7.1590 
  107.0000     2.2730    -9.5410     9.5880     6.5720     9.5880    84.7910     8.0550     6.9150     7.3480 
  107.1250     2.2620    -9.5030     9.4090     6.6220     9.4090    80.7160     8.0950     6.9860     8.1560 
  107.2500     2.2430    -9.4370     9.2740     6.7050     9.2740    76.8220     8.0940     7.0540     7.9490 
  107.3750     2.2230    -9.3800     9.1540     6.7620     9.1540    79.5720     8.0380     7.0640     7.4810 
  107.5000     2.2110    -9.3750     9.0630     6.7520     9.0630    85.3170     7.9320     6.9830     7.1680 
  107.6250     2.2120    -9.4700     9.0330     6.6680     9.0330    84.2620     7.7920     6.8260     7.1610 
  107.7500     2.2220    -9.6220     9.0130     6.5700     9.0130    77.8660     7.6610     6.6790     7.0550 
  107.8750     2.2390    -9.7880     8.9140     6.4900     8.9140    72.5110     7.5910     6.6080     6.7180 
  108.0000     2.2570    -9.9600     8.6820     6.4570     8.6820    73.2410     7.6350     6.6460     6.4850 
  108.1250     2.2710   -10.1520     8.3760     6.5420     8.3760    78.1510     7.8260     6.7860     6.9380 
  108.2500     2.2760   -10.3590     8.1400     6.7140     8.1400    83.1070     8.0740     6.9550     7.8280 
  108.3750     2.2690   -10.5710     8.0470     6.8960     8.0470    86.3590     8.2630     7.0930     8.3450 
  108.5000     2.2550   -10.7770     8.0590     7.0000     8.0590    88.0260     8.2970     7.1530     8.2350 
  108.6250     2.2440   -10.9640     8.0800     6.9450     8.0800    88.6610     8.1430     7.0960     7.8960 
  108.7500     2.2420   -11.1450     8.0890     6.8050     8.0890    88.0320     7.9310     6.9580     7.5350 
  108.8750     2.2490   -11.3180     8.1350     6.6700     8.1350    85.5380     7.7730     6.7840     7.5600 
  109.0000     2.2620   -11.4590     8.2530     6.6070     8.2530    81.9180     7.7200     6.6150     7.9040 
  109.1250     2.2760   -11.5630     8.4330     6.6500     8.4330    79.6950     7.7420     6.4800     7.9160 
  109.2500     2.2840   -11.6630     8.5730     6.7610     8.5730    77.5370     7.7520     6.3840     7.6190 
  109.3750     2.2820   -11.7630     8.5590     6.9460     8.5590    74.5470     7.7420     6.3470     7.5580 
  109.5000     2.2650   -11.8360     8.3420     7.2010     8.3420    74.5700     7.7880     6.4180     7.8380 
  109.6250     2.2270   -11.8770     7.9770     7.5550     7.9770    78.3530     8.1030     6.7200     8.1180 
  109.7500     2.1870   -11.9060     7.6530     8.0510     7.6530    78.8670     8.8300     7.3320     8.3280 
  109.8750     2.1710   -11.9580     7.5430     8.7550     7.5430    74.9110    10.0470     8.3320     8.7270 
  110.0000     2.2090   -12.0490     7.7620     9.7590     7.7620    72.4130    11.7010     9.7270     9.3110 
  110.1250     2.3160   -12.1800     8.3620    11.1820     8.3620    73.8830    13.5140    11.3670     9.8030 
  110.2500     2.4510   -12.3200     9.1870    12.7870     9.1870    75.3820    14.9270    12.7950    10.2480 
  110.3750     2.5700   -12.4600    10.1360    14.0500    10.1360    76.5370    15.4480    13.5470    10.7080 
  110.5000     2.6370   -12.6210    11.1000    14.3190    11.1000    79.6410    14.8550    13.3310    10.6070 
  110.6250     2.6270   -12.8040    11.8850    13.2880    11.8850    83.3160    13.3200    12.1530    10.6280 
  110.7500     2.5650   -12.9990    12.2790    11.7640    12.2790    84.9590    11.5900    10.6430    10.5910 
  110.8750     2.4790   -13.2080    12.1070    10.3740    12.1070    83.8710    10.1130     9.2320    10.3080 
  111.0000     2.3970   -13.4320    11.3590     9.3810    11.3590    81.5020     9.1140     8.1780     9.6390 
  111.1250     2.3410   -13.7080    10.2210     8.7710    10.2210    79.3280     8.7290     7.6320     9.0790 
  111.2500     2.3120   -14.0450     9.1570     8.4660     9.1570    77.6620     8.7940     7.4690     9.4510 
  111.3750     2.2990   -14.4280     8.4560     8.4360     8.4560    76.0070     9.1590     7.5790    10.2740 
  111.5000     2.2910   -14.8350     8.2010     8.5380     8.2010    74.0030     9.6180     7.8240    10.9900 
  111.6250     2.2780   -15.2450     8.3250     8.6210     8.3250    71.9210     9.9180     8.0570    11.6110 
  111.7500     2.2620   -15.6400     8.5500     8.6560     8.5500    68.8420     9.9670     8.1910    12.0440 
  111.8750     2.2450   -15.9800     8.7230     8.6680     8.7230    65.9110     9.8110     8.2230    11.7360 
  112.0000     2.2310   -16.2740     8.7900     8.6560     8.7900    65.0050     9.5950     8.1980    11.3960 
  112.1250     2.2250   -16.4930     8.7730     8.6210     8.7730    66.3430     9.5120     8.2030    11.3650 
  112.2500     2.2220   -16.6300     8.7610     8.6320     8.7610    68.7630     9.6160     8.2860    11.3830 
  112.3750     2.2180   -16.7170     8.8360     8.7860     8.8360    72.0290     9.8470     8.4380    11.2820 
  112.5000     2.2080   -16.7670     9.1030     9.0980     9.1030    75.9680    10.0670     8.5930    11.3120 
  112.6250     2.1950   -16.7440     9.7410     9.4060     9.7410    78.6030    10.1100     8.6370    11.5150 
  112.7500     2.1860   -16.6480    10.6970     9.5500    10.6970    79.2320     9.9700     8.5420    11.7090 
  112.8750     2.1860   -16.5010    11.7810     9.5320    11.7810    78.4360     9.7420     8.3540    11.8470 
  113.0000     2.1930   -16.3080    12.6570     9.4330    12.6570    76.5720     9.5640     8.1700    11.7230 
  113.1250     2.1990   -16.0520    12.9430     9.2470    12.9430    72.8830     9.5780     8.1080    11.5870 
  113.2500     2.2020   -15.7310    12.6920     8.9800    12.6920    70.2250     9.7740     8.1950    11.4560 
  113.3750     2.2020   -15.3370    12.1110     8.7460    12.1110    69.4510    10.0820     8.4090    11.3010 
  113.5000     2.2020   -14.8730    11.4740     8.6480    11.4740    69.5590    10.3680     8.6710    11.3010 
  113.6250     2.2000   -14.3560    10.9790     8.6720    10.9790    69.8990    10.4030     8.8190    11.2380 
  113.7500     2.1950   -13.7730    10.6120     8.6930    10.6120    71.8330    10.0750     8.7140    11.3120 
  113.8750     2.1880   -13.1120    10.3420     8.6670    10.3420    77.0400     9.3780     8.2920    11.3780 
  114.0000     2.1790   -12.3410    10.1730     8.6050    10.1730    83.4230     8.4460     7.6060    11.4110 
  114.1250     2.1720   -11.4630    10.1720     8.4890    10.1720    87.8270     7.5150     6.8160    11.1640 
  114.2500     2.1700   -10.5240    10.3050     8.1590    10.3050    90.8590     6.7770     6.1210    10.2080 
  114.3750     2.1790    -9.5480    10.4680     7.4960    10.4680    92.6210     6.3060     5.6270     8.3560 
  114.5000     2.2020    -8.5910    10.4980     6.6350    10.4980    92.4310     6.1110     5.3710     6.2180 
  114.6250     2.2380    -7.7410    10.1970     5.8990    10.1970    91.2930     6.1970     5.3830     5.3700 
