~V
VERS. 2.00: Ver 2.00
~W
STRT.M 63.0000:
STOP.M 264.0000:
STEP.M 0.1250:
NULL. -999.2500:
UWI. FZI117T:
~C
DEPT.M :
SP.MV :
GR.API :
RI. :
RML.OHMM :
RXO.OHMM :
DEN.GM/CC :
~A
# ...
  166.0000   -26.2940    89.2090     3.6320     4.7300     4.1210     2.2370 
  166.1250   -26.2560    86.5460     3.5790     4.6240     4.1140     2.2440 
  166.2500   -26.2290    85.6420     3.4620     4.4250     3.8530     2.2460 
  166.3750   -26.1870    86.4880     3.3420     4.2300     3.6070     2.2380 
  166.5000   -26.1080    90.4880     3.2860     4.1360     3.4940     2.2200 
  166.6250   -26.0010    92.3740     3.3210     4.1820     3.4180     2.1970 
  166.7500   -25.9040    92.0310     3.4650     4.3790     3.3790     2.1790 
  166.8750   -25.8560    88.2860     3.7060     4.6970     3.4040     2.1750 
  167.0000   -25.8260    86.0140     4.0010     5.0580     3.4540     2.1870 
  167.1250   -25.8180    84.2150     4.2670     5.3440     3.5750     2.2050 
  167.2500   -25.8460    84.3920     4.4320     5.4830     3.8360     2.2170 
  167.3750   -25.8820    83.1500     4.4800     5.4750     4.1180     2.2220 
  167.5000   -25.9560    81.5470     4.4530     5.3950     4.2040     2.2230 
  167.6250   -26.0910    80.6150     4.4390     5.3730     4.0040     2.2270 
  167.7500   -26.2490    82.4930     4.4890     5.4670     3.8990     2.2360 
  167.8750   -26.4020    87.3620     4.5850     5.6370     4.2960     2.2490 
  168.0000   -26.5580    94.5940     4.6800     5.8100     4.9890     2.2580 
  168.1250   -26.7260   100.3560     4.7210     5.9000     5.5240     2.2600 
  168.2500   -26.9430   101.1670     4.6770     5.8540     5.7090     2.2520 
  168.3750   -27.1810    98.7210     4.5690     5.6920     5.6600     2.2390 
  168.5000   -27.4150    95.9340     4.5110     5.5820     5.5970     2.2250 
  168.6250   -27.6160    96.8970     4.7580     5.8950     5.6110     2.2250 
  168.7500   -27.7670    97.2640     5.5850     7.0560     6.0640     2.2580 
  168.8750   -27.8580    97.1290     7.1090     9.2350    10.4690     2.3260 
  169.0000   -27.9150    90.5260     9.1910    12.1790    22.6450     2.4010 
  169.1250   -27.9690    82.3680    11.1990    14.8990    35.5760     2.4360 
  169.2500   -28.0430    73.0290    12.2010    15.9500    37.3250     2.4070 
  169.3750   -28.0740    67.4610    11.7500    14.9220    27.2040     2.3410 
  169.5000   -28.0340    64.5900    10.1800    12.4560    15.1450     2.2770 
  169.6250   -27.9220    64.2040     8.4110     9.9600     9.2070     2.2360 
  169.7500   -27.7440    66.1530     7.3290     8.6820     8.0320     2.2190 
  169.8750   -27.5220    68.5470     7.0500     8.5160     7.8840     2.2210 
  170.0000   -27.2350    70.0010     6.8930     8.4460     8.1990     2.2390 
  170.1250   -26.8840    69.7950     6.5120     8.0050     9.1380     2.2580 
  170.2500   -26.4870    70.6580     5.8120     7.0730     8.7290     2.2590 
  170.3750   -26.0700    73.8750     4.9570     5.9390     5.9540     2.2400 
  170.5000   -25.7300    78.8990     4.3220     5.1350     3.7160     2.2160 
  170.6250   -25.4980    81.5540     3.9140     4.6610     3.1710     2.2000 
  170.7500   -25.4280    81.1740     3.7420     4.5180     2.9940     2.2000 
  170.8750   -25.5100    78.7470     3.7220     4.5640     2.8080     2.2110 
  171.0000   -25.6950    78.0930     3.7220     4.5980     2.9400     2.2230 
  171.1250   -25.9200    78.0670     3.6250     4.4830     3.1710     2.2230 
  171.2500   -26.1350    79.4780     3.3790     4.1620     3.1340     2.1960 
  171.3750   -26.3660    80.7790     3.0370     3.7130     3.0280     2.1360 
  171.5000   -26.6040    82.2100     2.6970     3.2710     2.7770     2.0430 
  171.6250   -26.8400    80.9130     2.4580     2.9640     2.3210     1.9450 
  171.7500   -27.0250    78.1260     2.3900     2.8940     2.1110     1.8880 
  171.8750   -27.1600    76.0910     2.5100     3.0840     2.5320     1.9050 
  172.0000   -27.2340    77.5370     2.7970     3.4980     3.5030     1.9910 
  172.1250   -27.2590    80.7150     3.1460     3.9750     4.2370     2.0890 
  172.2500   -27.1820    82.9090     3.4420     4.3500     4.3140     2.1500 
  172.3750   -27.0040    84.3910     3.6040     4.5320     4.1470     2.1680 
  172.5000   -26.7460    86.3040     3.6160     4.5190     4.1470     2.1650 
  172.6250   -26.4550    89.2440     3.5680     4.4470     4.4060     2.1670 
  172.7500   -26.1780    91.4360     3.5210     4.3990     4.5360     2.1790 
  172.8750   -25.9700    92.3300     3.4980     4.3970     4.3970     2.1930 
  173.0000   -25.8250    91.4910     3.4990     4.4340     4.3960     2.2020 
  173.1250   -25.7570    91.5580     3.5110     4.4890     4.4870     2.2070 
  173.2500   -25.7310    91.4000     3.5280     4.5480     4.4330     2.2140 
  173.3750   -25.6780    92.9190     3.5530     4.6120     4.3910     2.2230 
  173.5000   -25.6300    94.9500     3.5920     4.6860     4.4520     2.2360 
  173.6250   -25.6230    98.3280     3.6530     4.7790     4.4740     2.2520 
  173.7500   -25.6560   100.5380     3.7060     4.8500     4.6160     2.2640 
  173.8750   -25.7510    99.6080     3.7160     4.8520     4.9450     2.2660 
  174.0000   -25.9370    97.0100     3.6660     4.7600     4.9160     2.2550 
  174.1250   -26.2200    95.1820     3.5660     4.6040     4.4540     2.2390 
  174.2500   -26.5790    94.7710     3.4580     4.4300     4.0790     2.2240 
  174.3750   -26.9600    94.7480     3.3550     4.2770     4.0080     2.2150 
  174.5000   -27.3840    93.2160     3.2850     4.1780     4.0710     2.2070 
  174.6250   -27.8110    90.5340     3.2560     4.1420     4.0250     2.1990 
  174.7500   -28.2490    86.8360     3.2800     4.1770     3.8920     2.1940 
  174.8750   -28.6470    84.9330     3.3400     4.2530     3.8710     2.1960 
  175.0000   -28.9190    85.9320     3.4100     4.3310     4.0580     2.2090 
  175.1250   -29.0580    88.4350     3.4670     4.3850     4.3410     2.2250 
  175.2500   -29.1150    90.7610     3.5010     4.4000     4.5050     2.2350 
  175.3750   -29.1170    90.6190     3.5120     4.3830     4.4220     2.2340 
  175.5000   -29.1080    88.5970     3.5130     4.3570     4.2130     2.2310 
  175.6250   -29.0360    85.1330     3.5210     4.3480     4.1710     2.2300 
  175.7500   -28.9040    83.0750     3.5390     4.3640     4.3390     2.2320 
  175.8750   -28.7200    82.5740     3.5630     4.3900     4.5060     2.2310 
  176.0000   -28.5110    82.8680     3.5880     4.4180     4.6060     2.2290 
  176.1250   -28.3080    83.5080     3.6120     4.4460     4.6490     2.2270 
  176.2500   -28.1480    83.1470     3.6430     4.4790     4.6770     2.2260 
  176.3750   -28.0230    82.9650     3.6830     4.5280     4.7090     2.2230 
  176.5000   -27.9070    82.8700     3.7220     4.5740     4.7060     2.2210 
  176.6250   -27.7940    84.0060     3.7420     4.5920     4.6390     2.2210 
  176.7500   -27.6930    86.5350     3.7260     4.5590     4.5020     2.2230 
  176.8750   -27.5620    89.0160     3.6760     4.4710     4.4020     2.2280 
  177.0000   -27.4140    89.3690     3.6150     4.3630     4.3110     2.2330 
  177.1250   -27.2740    87.2600     3.5850     4.2970     4.2670     2.2380 
  177.2500   -27.1120    85.7080     3.6380     4.3390     4.3960     2.2450 
  177.3750   -26.8990    85.0580     3.7490     4.4600     4.6070     2.2560 
  177.5000   -26.6160    86.5270     3.8790     4.6020     5.2010     2.2710 
  177.6250   -26.4060    88.6290     3.9780     4.6980     6.0550     2.2830 
  177.7500   -26.3640    89.5060     4.0050     4.6980     5.9930     2.2850 
  177.8750   -26.4300    87.1320     3.9760     4.6350     5.2050     2.2780 
  178.0000   -26.5210    83.2770     3.9240     4.5600     4.8620     2.2650 
  178.1250   -26.5600    82.1270     3.8860     4.5170     4.8780     2.2540 
  178.2500   -26.5240    83.7840     3.8690     4.5150     4.8900     2.2460 
  178.3750   -26.4400    84.1340     3.8610     4.5240     4.9390     2.2460 
  178.5000   -26.3100    83.1870     3.8290     4.5000     4.9030     2.2530 
  178.6250   -26.1590    81.6390     3.7700     4.4380     4.6620     2.2600 
  178.7500   -25.9010    83.8600     3.6950     4.3530     4.3980     2.2600 
