~V
VERS. 2.00: Ver 2.00
~W
STRT.M 60.0000:
STOP.M 284.0000:
STEP.M 0.1250:
NULL. -999.2500:
UWI. FZI118:
~C
DEPT.M :
DEN.GM/CC :
SP.MV :
R2M. :
R025. :
GR.API :
RML.OHMM :
RI. :
RXO.OHMM :
RA2. :
~A
# ...
  142.1250     2.1860   -13.9770    18.0210    15.2730    83.9410    14.6260    14.4570    12.1540    18.0210 
  142.2500     2.1890   -13.9640    17.5030    15.0860    79.8500    14.0110    13.9020    12.0240    17.5030 
  142.3750     2.1940   -13.9420    17.0940    14.8330    79.4900    13.6430    13.5110    12.0190    17.0940 
  142.5000     2.1980   -13.9230    16.8080    14.4220    83.1130    13.4140    13.2310    11.7360    16.8080 
  142.6250     2.2030   -13.8820    16.5710    13.9500    88.6800    13.1980    12.9640    11.2100    16.5710 
  142.7500     2.2090   -13.8570    16.2770    13.7010    91.3660    13.0100    12.7130    10.8910    16.2770 
  142.8750     2.2140   -13.8590    15.8890    13.7620    87.8560    12.9540    12.5610    11.0460    15.8890 
  143.0000     2.2110   -13.8950    15.4340    13.9600    82.2390    13.1000    12.5820    10.9610    15.4340 
  143.1250     2.1970   -13.9550    14.9950    14.0680    81.3390    13.4040    12.7790    10.4520    14.9950 
  143.2500     2.1870   -14.0240    14.6470    14.0680    83.7560    13.6790    13.0110    10.0530    14.6470 
  143.3750     2.1860   -14.0610    14.4260    14.0330    85.8540    13.8080    13.1710    10.1370    14.4260 
  143.5000     2.1900   -14.0500    14.3350    14.0210    86.7050    13.7760    13.2180    10.5880    14.3350 
  143.6250     2.1930   -14.0290    14.3700    14.0420    86.5510    13.6590    13.1910    10.8260    14.3700 
  143.7500     2.1930   -14.0020    14.4850    14.0310    85.8700    13.5580    13.1590    10.9000    14.4850 
  143.8750     2.1940   -13.9890    14.6420    13.9310    85.6060    13.4820    13.1220    10.9120    14.6420 
  144.0000     2.1980   -13.9970    14.7830    13.7670    86.5800    13.4040    13.0550    10.8420    14.7830 
  144.1250     2.2060   -14.0350    14.8260    13.6720    88.0740    13.3310    12.9580    10.8620    14.8260 
  144.2500     2.2120   -14.0810    14.7550    13.7200    88.8160    13.3280    12.8980    11.1670    14.7550 
  144.3750     2.2120   -14.1370    14.5900    13.8780    88.2490    13.4470    12.9310    11.7320    14.5900 
  144.5000     2.2040   -14.2200    14.3900    14.0520    85.5980    13.6850    13.0720    11.9170    14.3900 
  144.6250     2.1960   -14.3120    14.2340    14.1670    82.7560    13.9670    13.2750    11.8050    14.2340 
  144.7500     2.1920   -14.4220    14.1530    14.2230    82.2140    14.1650    13.4370    11.6470    14.1530 
  144.8750     2.1900   -14.5140    14.1430    14.2380    82.6290    14.2170    13.5010    11.1730    14.1430 
  145.0000     2.1880   -14.5700    14.1920    14.2370    82.2540    14.1420    13.4720    10.5650    14.1920 
  145.1250     2.1850   -14.5690    14.2840    14.2450    80.5790    14.0160    13.3970    10.2410    14.2840 
  145.2500     2.1830   -14.5470    14.3750    14.2750    80.7680    13.9090    13.3310    10.2250    14.3750 
  145.3750     2.1780   -14.5060    14.4300    14.3520    83.8840    13.8400    13.2910    10.4800    14.4300 
  145.5000     2.1700   -14.4560    14.4320    14.4920    87.2930    13.8270    13.2940    10.7900    14.4320 
  145.6250     2.1630   -14.4100    14.3870    14.6760    87.0070    13.9090    13.3800    10.9420    14.3870 
  145.7500     2.1600   -14.3390    14.3520    14.8910    83.8440    14.0910    13.5510    11.1750    14.3520 
  145.8750     2.1620   -14.2580    14.3730    15.1430    80.6230    14.3530    13.7910    11.6770    14.3730 
  146.0000     2.1670   -14.1720    14.4780    15.3590    79.0170    14.6170    14.0410    12.3940    14.4780 
  146.1250     2.1760   -14.0800    14.6700    15.3990    80.0520    14.7490    14.1930    12.5100    14.6700 
  146.2500     2.1890   -13.9690    14.8890    15.3210    84.3840    14.7010    14.2030    11.9560    14.8890 
  146.3750     2.2010   -13.8630    15.0840    15.2600    88.6750    14.5280    14.1000    11.0830    15.0840 
  146.5000     2.2060   -13.7410    15.2160    15.3060    88.5820    14.3710    13.9890    10.6350    15.2160 
  146.6250     2.1980   -13.6180    15.2590    15.4650    84.5830    14.3740    14.0030    10.8080    15.2590 
  146.7500     2.1830   -13.4980    15.2490    15.6310    82.8840    14.5000    14.1390    10.8110    15.2490 
  146.8750     2.1670   -13.3420    15.2360    15.7070    83.5280    14.6410    14.3240    10.6800    15.2360 
  147.0000     2.1560   -13.1520    15.2650    15.6700    82.8130    14.6920    14.4700    10.6890    15.2650 
  147.1250     2.1500   -12.9420    15.3660    15.6020    81.1550    14.6220    14.5170    10.9320    15.3660 
  147.2500     2.1470   -12.7320    15.5060    15.5680    82.2620    14.5250    14.5020    11.1840    15.5060 
  147.3750     2.1470   -12.5170    15.6600    15.5470    84.5570    14.4630    14.4630    11.2220    15.6600 
  147.5000     2.1550   -12.2750    15.8420    15.5020    84.2100    14.4230    14.3960    11.1400    15.8420 
  147.6250     2.1720   -11.9710    16.1640    15.3750    82.4540    14.2800    14.2220    11.0800    16.1640 
  147.7500     2.1960   -11.6170    16.6630    15.0080    83.2870    13.9040    13.8580    11.0510    16.6630 
  147.8750     2.2270   -11.2590    17.2130    14.2320    86.6460    13.1840    13.2170    11.2040    17.2130 
  148.0000     2.2590   -10.9100    17.4930    13.1230    89.0210    12.0980    12.2720    10.8740    17.4930 
  148.1250     2.2830   -10.6000    17.0030    12.1140    91.0580    10.8320    11.1550     9.5750    17.0030 
  148.2500     2.2910   -10.3230    15.7760    11.5630    94.3170     9.8540    10.2270     8.5290    15.7760 
  148.3750     2.2880   -10.0730    14.1620    11.5740    97.4250     9.5650     9.8010     8.7080    14.1620 
  148.5000     2.2860    -9.8510    12.7590    12.1850    96.2850    10.2370    10.1110     9.2620    12.7590 
  148.6250     2.2980    -9.6390    12.3660    13.5040    89.6240    12.0930    11.4350    10.1260    12.3660 
  148.7500     2.3260    -9.4710    13.1510    15.1870    82.3330    14.6370    13.5320    11.6360    13.1510 
  148.8750     2.3690    -9.3480    14.9390    16.6870    77.5480    17.0790    15.8840    14.4120    14.9390 
  149.0000     2.4200    -9.2740    17.1840    17.2260    76.2860    18.2700    17.4660    18.4330    17.1840 
  149.1250     2.4560    -9.2540    18.9170    16.0840    79.2810    17.0080    16.9100    18.2360    18.9170 
  149.2500     2.4550    -9.2780    19.4080    13.9890    85.5720    14.1570    14.7280    14.3020    19.4080 
  149.3750     2.4150    -9.3380    18.3880    11.8630    93.4430    10.9840    12.0090    10.5080    18.3880 
  149.5000     2.3560    -9.4710    16.1290    10.3580    98.8830     8.5200     9.6970     8.2990    16.1290 
  149.6250     2.3090    -9.7240    13.3390     9.7220    99.0760     7.3780     8.3680     7.3860    13.3390 
  149.7500     2.2810   -10.0430    10.9000     9.6770    98.2020     7.3100     7.9110     7.1620    10.9000 
  149.8750     2.2640   -10.4130     9.2010    10.0550    98.4280     8.1230     8.2290     7.5570     9.2010 
  150.0000     2.2490   -10.7920     8.2730    10.6920    97.1200     9.5590     9.1830     8.5560     8.2730 
  150.1250     2.2340   -11.1510     7.9580    11.4410    92.3270    11.2460    10.5720     9.3050     7.9580 
  150.2500     2.2220   -11.4740     7.8890    12.1330    88.6440    12.6920    11.9710     9.4010     7.8890 
  150.3750     2.2110   -11.7280     7.9170    12.7410    88.9450    13.6690    13.1090     9.3110     7.9170 
  150.5000     2.2020   -11.9240     8.0000    13.3860    91.0270    14.2180    13.9080     9.4980     8.0000 
  150.6250     2.1960   -12.0500     8.1920    14.1480    91.3320    14.5250    14.4330    10.3930     8.1920 
  150.7500     2.1900   -12.1230     8.5320    14.8590    88.9980    14.7760    14.8340    11.2360     8.5320 
  150.8750     2.1830   -12.1190     9.0360    15.3900    87.9610    14.9550    15.1100    11.6590     9.0360 
  151.0000     2.1780   -12.0480     9.6850    15.7270    91.3690    14.9820    15.1950    11.7930     9.6850 
  151.1250     2.1820   -11.8930    10.4530    15.8980    93.6250    14.8140    15.0410    11.7390    10.4530 
