~V
VERS. 2.00: Ver 2.00
~W
STRT.M 60.0000:
STOP.M 284.0000:
STEP.M 0.1250:
NULL. -999.2500:
UWI. FZI118:
~C
DEPT.M :
DEN.GM/CC :
SP.MV :
R2M. :
R025. :
GR.API :
RML.OHMM :
RI. :
RXO.OHMM :
RA2. :
~A
# ...
  105.6250     2.0930   -15.9410     9.0210     9.0000    82.4760    10.1390     8.3650    10.2460     9.0210 
  105.7500     2.0950   -15.9170     9.0240     8.9320    83.2280    10.0550     8.2890     9.8200     9.0240 
  105.8750     2.0980   -15.8840     8.9440     8.8260    84.4560     9.9370     8.1940     9.1150     8.9440 
  106.0000     2.0990   -15.8300     8.7830     8.6980    88.0470     9.8110     8.0840     8.6350     8.7830 
  106.1250     2.1010   -15.7610     8.5840     8.5740    91.0620     9.7290     7.9940     8.8320     8.5840 
  106.2500     2.1040   -15.6670     8.4070     8.4930    90.2770     9.6850     7.9440     9.1010     8.4070 
  106.3750     2.1080   -15.5400     8.2750     8.4670    89.3130     9.6490     7.9290     9.3800     8.2750 
  106.5000     2.1090   -15.3630     8.1880     8.4780    91.3130     9.6000     7.9390     9.7930     8.1880 
  106.6250     2.1090   -15.1530     8.1460     8.5100    92.5160     9.5290     7.9650    10.1980     8.1460 
  106.7500     2.1120   -14.9060     8.1510     8.5440    90.4370     9.4370     7.9970    10.2610     8.1510 
  106.8750     2.1210   -14.6410     8.2170     8.5590    89.9550     9.3200     8.0270    10.1970     8.2170 
  107.0000     2.1340   -14.3340     8.3450     8.5340    93.3910     9.1760     8.0480     9.9680     8.3450 
  107.1250     2.1470   -13.9920     8.5310     8.4900    94.4910     9.0270     8.0580     9.6830     8.5310 
  107.2500     2.1580   -13.5870     8.7620     8.4700    90.4410     8.9190     8.0740     9.4850     8.7620 
  107.3750     2.1640   -13.1090     9.0360     8.4750    85.4550     8.8480     8.0890     9.6980     9.0360 
  107.5000     2.1650   -12.5480     9.3300     8.4620    83.4810     8.7270     8.0390     9.3040     9.3300 
  107.6250     2.1650   -11.8680     9.5880     8.2950    83.5810     8.3730     7.7790     8.3810     9.5880 
  107.7500     2.1650   -11.1150     9.7520     7.8740    85.9470     7.7360     7.2700     7.4050     9.7520 
  107.8750     2.1710   -10.3110     9.7680     7.2070    93.3680     6.8820     6.5520     6.2150     9.7680 
  108.0000     2.1850    -9.5230     9.6080     6.4020   105.3310     5.9670     5.7400     5.2260     9.6080 
  108.1250     2.2060    -8.7830     9.2640     5.5480   116.4580     5.1830     4.9860     4.7530     9.2640 
  108.2500     2.2240    -8.1720     8.8070     4.7190   122.3880     4.6190     4.3810     4.2070     8.8070 
  108.3750     2.2340    -7.7120     8.2720     4.0450   125.5000     4.3340     3.9800     3.7500     8.2720 
  108.5000     2.2350    -7.4440     7.6860     3.6960   126.8830     4.3990     3.8300     3.6080     7.6860 
  108.6250     2.2210    -7.4510     7.0860     3.7710   127.3020     4.9550     4.0310     3.9700     7.0860 
  108.7500     2.2030    -7.6950     6.5200     4.1070   127.3860     5.9220     4.5430     4.5900     6.5200 
  108.8750     2.1970    -8.1230     6.0340     4.5970   127.0440     7.1550     5.3080     5.2110     6.0340 
  109.0000     2.1990    -8.6550     5.6630     5.1520   124.6980     8.3720     6.1820     5.7470     5.6630 
  109.1250     2.1890    -9.2540     5.4190     5.6930   117.4170     9.1400     6.9100     6.3170     5.4190 
  109.2500     2.1640    -9.8400     5.2470     6.1580   108.8330     9.3590     7.3410     6.8550     5.2470 
  109.3750     2.1360   -10.3810     5.1190     6.4930   101.4300     9.1600     7.4800     7.2490     5.1190 
  109.5000     2.1170   -10.8180     5.0250     6.6860    96.0780     8.7760     7.4270     7.3650     5.0250 
  109.6250     2.1120   -11.0550     4.9670     6.7820    94.5990     8.4060     7.2920     6.9550     4.9670 
  109.7500     2.1130   -11.0760     4.9360     6.8570    97.3280     8.1290     7.1510     6.8080     4.9360 
  109.8750     2.1170   -10.8760     4.9320     6.9020   103.6360     7.9370     7.0220     7.0590     4.9320 
  110.0000     2.1230   -10.4970     4.9550     6.8810   109.5160     7.7700     6.8890     7.2680     4.9550 
  110.1250     2.1340    -9.9220     4.9970     6.7930   112.8010     7.5460     6.7080     7.3310     4.9970 
  110.2500     2.1550    -9.2380     5.0360     6.6550   114.7050     7.2390     6.4610     6.9550     5.0360 
  110.3750     2.1820    -8.5080     5.0630     6.4340   115.5880     6.8800     6.1660     6.2680     5.0630 
  110.5000     2.2110    -7.8140     5.0720     6.1610   115.4450     6.5350     5.8670     5.6510     5.0720 
  110.6250     2.2360    -7.2120     5.0980     5.9240   113.2860     6.3020     5.6300     5.4400     5.0980 
  110.7500     2.2530    -6.7140     5.1840     5.7150   110.2400     6.2150     5.4880     5.6140     5.1840 
  110.8750     2.2620    -6.3710     5.3410     5.5140   107.6330     6.2750     5.4500     5.9690     5.3410 
  111.0000     2.2650    -6.1810     5.5180     5.3970   106.4500     6.4570     5.5080     5.6000     5.5180 
  111.1250     2.2590    -6.1830     5.6030     5.5120   106.0530     6.7560     5.6630     5.2860     5.6030 
  111.2500     2.2420    -6.3010     5.5480     5.7870   104.8520     7.1330     5.8910     5.5780     5.5480 
  111.3750     2.2170    -6.4830     5.3820     6.0730   102.5860     7.5250     6.1600     6.2010     5.3820 
  111.5000     2.1930    -6.6710     5.1950     6.2360    98.8750     7.8150     6.3960     6.3100     5.1950 
  111.6250     2.1820    -6.8610     5.0910     6.2050    96.0990     7.8520     6.5010     5.9250     5.0910 
  111.7500     2.1820    -7.0600     5.0740     6.1120    96.6350     7.6890     6.4850     5.7660     5.0740 
  111.8750     2.1870    -7.2590     5.0960     6.0680   100.0960     7.4730     6.4160     5.8480     5.0960 
  112.0000     2.1910    -7.4860     5.1050     6.1130   102.8520     7.3780     6.3920     5.8860     5.1050 
  112.1250     2.1860    -7.7410     5.0740     6.2380   100.8790     7.5160     6.4950     5.9710     5.0740 
  112.2500     2.1770    -8.0390     5.0200     6.4150    97.3000     7.7970     6.6970     6.1090     5.0200 
  112.3750     2.1660    -8.3510     4.9810     6.6420    95.2320     8.1270     6.9490     6.3700     4.9810 
  112.5000     2.1570    -8.6600     5.0060     6.9110    94.3910     8.4270     7.2070     6.9200     5.0060 
  112.6250     2.1520    -8.8910     5.1480     7.1630    92.6530     8.6190     7.4160     7.4390     5.1480 
  112.7500     2.1510    -9.0180     5.3720     7.3300    91.7030     8.6570     7.5260     7.8170     5.3720 
  112.8750     2.1590    -9.0170     5.6260     7.3800    93.4470     8.5450     7.5120     7.3880     5.6260 
  113.0000     2.1810    -8.8820     5.8770     7.3340    96.7820     8.3820     7.4180     6.9210     5.8770 
  113.1250     2.2170    -8.6270     6.1980     7.3040    98.9480     8.3790     7.3780     6.6550     6.1980 
  113.2500     2.2560    -8.2910     6.6970     7.3640    98.6540     8.6280     7.4920     7.8600     6.6970 
  113.3750     2.2880    -7.9290     7.3770     7.5150    95.0880     9.0030     7.7180    10.3550     7.3770 
  113.5000     2.3120    -7.5540     8.0640     7.6600    91.5610     9.1740     7.8620     9.5160     8.0640 
  113.6250     2.3240    -7.2510     8.3800     7.5970    92.5530     8.7440     7.6230     7.3400     8.3800 
  113.7500     2.3140    -7.0270     8.1730     7.3060    96.9760     7.8950     7.0560     5.9570     8.1730 
  113.8750     2.2860    -6.9000     7.5140     6.9230    98.9960     7.0320     6.4080     5.6220     7.5140 
  114.0000     2.2580    -6.8490     6.6530     6.6350    97.5830     6.5310     5.9480     5.5070     6.6530 
  114.1250     2.2490    -6.8610     5.9170     6.5500    98.2450     6.6670     5.9050     5.5160     5.9170 
  114.2500     2.2540    -6.9200     5.4680     6.6830   101.2050     7.3640     6.2750     5.6400     5.4680 
  114.3750     2.2670    -7.0200     5.3500     7.0990   100.6770     8.5930     7.0840     6.5090     5.3500 
  114.5000     2.2840    -7.1930     5.5720     7.8740    94.3290    10.2780     8.3490     8.2070     5.5720 
  114.6250     2.3090    -7.4100     6.1700     9.1170    87.5320    12.1170     9.9840    11.0250     6.1700 
