~V
VERS. 2.00: Ver 2.00
~W
STRT.M 60.0000:
STOP.M 284.0000:
STEP.M 0.1250:
NULL. -999.2500:
UWI. FZI118:
~C
DEPT.M :
DEN.GM/CC :
SP.MV :
R2M. :
R025. :
GR.API :
RML.OHMM :
RI. :
RXO.OHMM :
RA2. :
~A
# ...
  196.8750     2.1950   -18.1400   339.6070    67.9290    74.9470    75.0860    63.8620    55.9520   339.6070 
  197.0000     2.2100   -18.1040   318.5750    64.2540    79.0910    67.0820    57.5870    45.5580   318.5750 
  197.1250     2.2210   -18.0620   288.9890    62.2750    82.4140    64.8690    56.3670    50.1520   288.9890 
  197.2500     2.2220   -18.0290   257.4940    61.4790    82.4180    66.6930    58.6340    56.6300   257.4940 
  197.3750     2.2160   -18.0240   228.6880    61.6740    81.3650    71.5730    63.4860    58.2380   228.6880 
  197.5000     2.2090   -18.0150   205.2000    62.6580    79.7130    78.5700    70.1230    57.2050   205.2000 
  197.6250     2.2060   -18.0000   188.1380    64.3340    76.1860    87.2880    78.3150    62.7430   188.1380 
  197.7500     2.2050   -18.0160   175.5010    66.4810    72.8480    97.3850    87.8820    71.4950   175.5010 
  197.8750     2.2050   -18.0550   166.7200    69.0110    72.2990   108.8720    98.8940    76.8080   166.7200 
  198.0000     2.2070   -18.0910   161.5560    71.7890    73.1260   121.1890   110.8820    78.7730   161.5560 
  198.1250     2.2110   -18.1520   159.8310    74.6490    72.9440   132.9980   122.7350    82.9830   159.8310 
  198.2500     2.2170   -18.2260   159.9950    77.5210    72.9510   143.7510   133.9240    87.7920   159.9950 
  198.3750     2.2190   -18.2960   161.3710    80.4180    72.8250   153.7840   144.6740    95.2190   161.3710 
  198.5000     2.2140   -18.4110   163.6720    83.2110    73.1960   163.0020   154.6550   106.0430   163.6720 
  198.6250     2.2020   -18.5270   166.7810    85.5290    76.2280   168.7430   160.8040   113.1330   166.7810 
  198.7500     2.1910   -18.6040   170.1700    87.1440    80.1180   168.4840   160.4340   111.8690   170.1700 
  198.8750     2.1840   -18.6670   173.4000    87.9150    81.0930   161.5000   153.0370   110.4390   173.4000 
  199.0000     2.1820   -18.7000   176.1460    87.7860    78.6920   149.7010   140.9710   109.6520   176.1460 
  199.1250     2.1900   -18.7100   178.0840    86.6950    76.1240   136.3930   127.8580   107.2180   178.0840 
  199.2500     2.2030   -18.7070   179.2020    85.0530    74.8040   124.4920   116.4360    99.4460   179.2020 
  199.3750     2.2150   -18.6820   179.4140    83.2120    73.8210   115.1370   107.7000    91.0190   179.4140 
  199.5000     2.2250   -18.6350   178.9090    81.5220    74.1740   108.7710   101.9910    85.6860   178.9090 
  199.6250     2.2290   -18.5960   178.3750    80.2260    75.9440   105.8840    99.6090    85.3750   178.3750 
  199.7500     2.2290   -18.5600   178.7090    79.2240    74.2830   105.2950    99.1640    85.4710   178.7090 
  199.8750     2.2290   -18.5010   180.4010    78.3290    69.5680   105.6980    99.2560    84.2260   180.4010 
  200.0000     2.2320   -18.4610   183.2820    77.3740    66.7400   105.5910    98.5180    81.3490   183.2820 
  200.1250     2.2400   -18.4400   186.4740    76.3040    69.8800   104.0370    96.3920    80.1050   186.4740 
  200.2500     2.2470   -18.4160   188.8050    75.3110    73.5530   102.1330    94.2460    76.4090   188.8050 
  200.3750     2.2490   -18.4020   189.5900    74.7290    75.0660   101.4470    93.6330    76.3800   189.5900 
  200.5000     2.2440   -18.3840   188.6250    74.7830    75.5840   103.4010    95.7550    78.3860   188.6250 
  200.6250     2.2320   -18.3690   186.0960    75.5850    74.7380   109.1810   101.4280    76.2280   186.0960 
  200.7500     2.2150   -18.3880   183.2840    76.7950    74.0400   117.4940   109.2170    74.0970   183.2840 
  200.8750     2.1990   -18.4350   181.4190    78.0590    76.4060   126.6700   117.4700    80.7910   181.4190 
  201.0000     2.1910   -18.4540   181.4850    79.0980    81.5800   134.6590   124.2880    92.6860   181.4850 
  201.1250     2.1910   -18.4510   183.9970    79.8760    82.4860   139.1820   127.6630   103.4490   183.9970 
  201.2500     2.1940   -18.4580   187.7730    80.5710    76.5260   140.1370   127.7530   110.9370   187.7730 
  201.3750     2.1950   -18.4600   191.6730    81.0300    69.3990   137.9880   125.1680   112.7950   191.6730 
  201.5000     2.1970   -18.4380   194.7660    80.9820    67.6870   133.7190   120.9240   106.7470   194.7660 
  201.6250     2.2050   -18.3860   196.4400    80.3850    71.0330   128.4070   116.1280    99.8020   196.4400 
  201.7500     2.2170   -18.2800   197.2090    79.6250    73.9700   123.3700   111.9130    96.3610   197.2090 
  201.8750     2.2260   -18.1420   197.6690    78.9330    75.4890   119.2730   108.7470    99.4680   197.6690 
  202.0000     2.2230   -18.0130   198.4170    78.3810    75.1410   116.1030   106.3840   108.8660   198.4170 
  202.1250     2.2070   -17.8950   200.1060    77.8780    71.4900   112.8950   103.6210   118.4000   200.1060 
  202.2500     2.1850   -17.7700   202.6760    76.9830    68.4410   108.3350    99.2300   113.8740   202.6760 
  202.3750     2.1680   -17.6410   205.4920    75.2900    70.0450   102.1060    93.1370    90.1650   205.4920 
  202.5000     2.1620   -17.5520   207.2460    73.0660    75.8070    95.3650    86.7720    64.9550   207.2460 
  202.6250     2.1700   -17.5090   205.8790    71.5020    79.4790    91.2180    83.3170    57.6170   205.8790 
  202.7500     2.1800   -17.5130   201.2070    71.3420    78.3070    91.8380    84.5610    66.3920   201.2070 
  202.8750     2.1870   -17.5530   194.1920    72.4320    75.1890    97.9160    90.8470    81.5780   194.1920 
  203.0000     2.1910   -17.6270   186.8620    74.0930    73.5340   108.1580   100.7480    90.2440   186.8620 
  203.1250     2.1910   -17.7300   181.8800    75.6270    73.5590   118.6630   110.4710    89.5680   181.8800 
  203.2500     2.1890   -17.8300   179.8790    76.7070    73.4310   124.9280   115.9220    86.7170   179.8790 
  203.3750     2.1850   -17.9300   180.2190    77.3110    72.8700   125.4710   115.9200    86.9520   180.2190 
  203.5000     2.1800   -18.0260   181.5030    77.5500    73.0680   121.8160   112.1710    91.4610   181.5030 
  203.6250     2.1770   -18.1110   182.1530    77.5360    74.3930   116.9560   107.6910    89.7980   182.1530 
  203.7500     2.1760   -18.1740   181.4690    77.5010    74.1420   113.3990   104.7270    82.2040   181.4690 
  203.8750     2.1780   -18.2190   179.5140    77.6490    72.4070   112.1300   104.1090    79.3700   179.5140 
  204.0000     2.1810   -18.2490   176.8850    78.1170    71.5970   113.4160   105.9950    83.3970   176.8850 
  204.1250     2.1820   -18.2580   174.4350    78.8710    73.0110   116.9180   109.9520    89.2150   174.4350 
  204.2500     2.1830   -18.2590   172.6560    79.6800    73.4500   120.8180   114.2070    94.9480   172.6560 
  204.3750     2.1890   -18.2410   171.4930    80.4610    71.7330   123.7320   117.4620    96.9680   171.4930 
  204.5000     2.1970   -18.2140   170.6760    81.2460    70.9600   125.0390   119.1970    96.8560   170.6760 
  204.6250     2.2030   -18.2000   170.1660    82.0010    73.0720   125.2100   119.9860    96.5910   170.1660 
  204.7500     2.2070   -18.1610   170.2600    82.6190    75.4400   125.6790   121.2090    94.6320   170.2600 
  204.8750     2.2090   -18.0990   171.3970    83.1290    75.0550   127.2700   123.6530    91.3920   171.3970 
  205.0000     2.2080   -18.0400   173.7840    83.6930    71.3650   130.4840   127.8150    89.8110   173.7840 
  205.1250     2.2070   -17.9830   177.4750    84.5620    68.4770   136.1690   134.5150    96.5080   177.4750 
  205.2500     2.2030   -17.9220   181.9310    85.7440    67.8020   144.1510   143.4660   104.9170   181.9310 
  205.3750     2.1940   -17.8480   186.9630    87.1370    67.8750   153.8600   154.0030   112.1840   186.9630 
  205.5000     2.1820   -17.7620   192.5290    88.5230    68.5970   163.9210   164.6590   121.5670   192.5290 
  205.6250     2.1730   -17.6770   198.6900    89.6290    70.3250   171.9510   172.8690   131.0290   198.6900 
  205.7500     2.1660   -17.5980   205.3060    90.3950    72.0330   176.6800   177.2940   134.3040   205.3060 
  205.8750     2.1610   -17.4830   212.3240    90.7010    71.6330   177.8150   177.5870   133.2680   212.3240 
