~V
VERS. 2.00: Ver 2.00
~W
STRT.M 60.0000:
STOP.M 284.0000:
STEP.M 0.1250:
NULL. -999.2500:
UWI. FZI118:
~C
DEPT.M :
DEN.GM/CC :
SP.MV :
R2M. :
R025. :
GR.API :
RML.OHMM :
RI. :
RXO.OHMM :
RA2. :
~A
# ...
  215.1250     2.1970   -18.9730    76.8540    68.5360    70.0930   103.2280   100.1490    86.6350    76.8540 
  215.2500     2.2180   -19.1890    79.4530    70.2300    73.8310    96.6960    93.4470    74.8920    79.4530 
  215.3750     2.2260   -19.3870    80.8420    72.4570    77.4520    92.8910    90.3010    72.8460    80.8420 
  215.5000     2.2200   -19.5870    81.5130    75.1200    76.3210    94.9900    93.1150    74.5440    81.5130 
  215.6250     2.2040   -19.7680    82.5830    77.7200    72.7240   104.1500   102.2040    86.1900    82.5830 
  215.7500     2.1860   -19.9210    85.0230    79.6270    70.7840   116.2270   113.2580    88.4900    85.0230 
  215.8750     2.1720   -20.0600    89.3190    80.4410    69.9610   126.3990   121.4540    79.9600    89.3190 
  216.0000     2.1630   -20.1820    95.3800    79.9510    67.9620   129.5510   121.9970    76.7420    95.3800 
  216.1250     2.1630   -20.2910   102.5460    77.9250    66.0890   121.7040   112.0130    79.7470   102.5460 
  216.2500     2.1690   -20.3540   109.4280    74.7010    67.2230   107.1260    96.7230    75.6790   109.4280 
  216.3750     2.1760   -20.4220   114.9250    70.6970    71.1450    90.4760    80.7730    61.0540   114.9250 
  216.5000     2.1860   -20.4950   118.1720    66.6950    76.2690    75.6440    67.3890    47.0840   118.1720 
  216.6250     2.1980   -20.5300   118.4560    63.7710    79.6830    65.4340    58.7730    40.7440   118.4560 
  216.7500     2.2110   -20.5760   116.7350    62.1660    79.8830    59.7580    54.5900    40.8920   116.7350 
  216.8750     2.2220   -20.6680   114.0890    61.7280    78.5080    58.5360    54.6720    44.8240   114.0890 
  217.0000     2.2260   -20.7850   111.6940    62.2470    78.0140    61.4630    58.6330    48.6060   111.6940 
  217.1250     2.2220   -20.8830   110.5670    64.0050    78.6210    68.7380    66.5170    52.6620   110.5670 
  217.2500     2.2140   -21.0060   110.6950    66.9480    78.2330    79.3510    77.2950    58.1000   110.6950 
  217.3750     2.2040   -21.1510   111.8870    70.7030    75.9920    92.9210    90.5570    68.7990   111.8870 
  217.5000     2.1950   -21.2940   114.0260    74.6150    73.6040   108.7160   105.6230    85.6700   114.0260 
  217.6250     2.1850   -21.4240   117.2760    78.1350    71.6990   125.0560   120.9280   103.3920   117.2760 
  217.7500     2.1760   -21.5420   121.5460    81.1880    71.0020   139.1970   133.9670   122.1930   121.5460 
  217.8750     2.1700   -21.6600   126.7660    83.6400    69.7860   148.8570   142.6080   136.5930   126.7660 
  218.0000     2.1700   -21.7540   132.6760    85.3270    68.0930   152.8820   145.8260   147.5500   132.6760 
  218.1250     2.1720   -21.8230   138.7820    86.0370    67.3160   150.8340   143.3200   150.7290   138.7820 
  218.2500     2.1690   -21.9140   144.4420    85.9850    68.1480   144.9780   137.3030   143.8670   144.4420 
  218.3750     2.1630   -21.9910   149.2290    85.3530    70.2090   136.7490   129.1890   127.7620   149.2290 
  218.5000     2.1590   -22.0430   152.9180    84.2950    71.5370   127.6680   120.4700   115.5300   152.9180 
  218.6250     2.1630   -22.1390   155.4770    82.8890    70.7330   119.3730   112.6700   113.1370   155.4770 
  218.7500     2.1700   -22.2550   157.4770    81.2680    69.6280   112.4990   106.2050   114.8740   157.4770 
  218.8750     2.1770   -22.3350   159.3120    79.4410    70.8530   106.9100   100.8220   110.6550   159.3120 
  219.0000     2.1810   -22.4240   161.2150    77.3870    73.6950   102.1190    96.0260   104.8570   161.2150 
  219.1250     2.1840   -22.5770   163.4810    75.1970    73.6130    97.7150    91.4890   102.0650   163.4810 
  219.2500     2.1850   -22.7030   166.2350    73.0450    71.7510    93.5470    87.2010   101.9670   166.2350 
  219.3750     2.1840   -22.8150   169.5140    71.0080    70.8020    89.7530    83.3540   103.0460   169.5140 
  219.5000     2.1840   -22.9820   173.1730    69.0150    70.9530    86.3870    79.9900   107.8500   173.1730 
  219.6250     2.1860   -23.1770   176.6280    66.9040    71.0650    83.2840    76.9250   109.0010   176.6280 
  219.7500     2.1940   -23.3400   179.1000    64.7790    71.5750    80.2130    73.9360   102.5210   179.1000 
  219.8750     2.2040   -23.5270   179.9920    62.9490    74.5880    77.3150    71.2070    93.8270   179.9920 
  220.0000     2.2120   -23.7410   179.2500    61.7100    78.4340    75.0440    69.2240    87.7970   179.2500 
  220.1250     2.2120   -23.9510   177.2680    61.2110    78.2950    74.1810    68.7300    88.1770   177.2680 
  220.2500     2.2050   -24.1640   174.9720    61.0890    73.7560    74.6140    69.4800    94.9100   174.9720 
  220.3750     2.2000   -24.3770   172.7770    61.0020    69.6970    75.7300    70.7730   104.4440   172.7770 
  220.5000     2.2020   -24.5680   170.6480    60.6570    69.0240    76.5600    71.6460   104.4180   170.6480 
  220.6250     2.2150   -24.7150   168.1090    60.0480    68.4730    76.2200    71.3300    98.7410   168.1090 
  220.7500     2.2310   -24.8590   164.9150    59.5700    66.4800    75.1300    70.3940    92.3640   164.9150 
  220.8750     2.2450   -25.0030   161.2870    59.5200    64.9510    74.2580    69.8570    84.2400   161.2870 
  221.0000     2.2500   -25.1200   157.8190    59.9780    64.1980    74.6380    70.6510    80.8480   157.8190 
  221.1250     2.2430   -25.2010   155.3080    60.6770    64.2400    76.7650    73.0060   100.5250   155.3080 
  221.2500     2.2300   -25.2950   153.8690    61.0500    65.7350    79.2610    75.4080   118.9630   153.8690 
  221.3750     2.2180   -25.4110   153.2840    60.7440    67.8140    80.4070    76.1760   122.5590   153.2840 
  221.5000     2.2120   -25.5370   153.0860    59.7100    67.9370    78.8700    74.1820   108.6750   153.0860 
  221.6250     2.2130   -25.6490   152.5630    58.0850    67.2750    74.2970    69.3900    99.6710   152.5630 
  221.7500     2.2180   -25.7730   151.1500    56.1990    68.5530    68.4900    63.6760    97.2780   151.1500 
  221.8750     2.2250   -25.9020   148.3810    54.2100    70.7120    62.7040    58.1910    91.5140   148.3810 
  222.0000     2.2320   -25.9970   144.0430    52.2620    74.0490    57.6400    53.4920    78.4170   144.0430 
  222.1250     2.2350   -26.0530   138.1510    50.5810    76.5820    53.7560    49.9690    69.1630   138.1510 
  222.2500     2.2350   -26.0960   131.6590    49.3130    76.3870    51.0460    47.6030    68.8730   131.6590 
  222.3750     2.2340   -26.0850   125.3160    48.4360    74.3920    49.5320    46.3920    69.6330   125.3160 
  222.5000     2.2340   -25.9880   119.6810    47.7840    73.1170    49.0390    46.1270    68.0600   119.6810 
  222.6250     2.2350   -25.8810   115.1930    47.2790    73.1360    49.2400    46.4500    65.6610   115.1930 
  222.7500     2.2360   -25.7360   111.5940    46.8920    72.7710    49.5540    46.8280    63.9480   111.5940 
  222.8750     2.2390   -25.5210   108.7140    46.5960    73.8490    49.7160    47.0450    62.3460   108.7140 
  223.0000     2.2420   -25.3190   106.3050    46.3000    75.7930    49.6290    47.0370    64.1730   106.3050 
  223.1250     2.2460   -25.1700   104.1270    45.8930    76.6400    49.1980    46.7250    62.7940   104.1270 
  223.2500     2.2480   -25.0240   101.9640    45.3600    76.7870    48.4700    46.1590    59.4650   101.9640 
  223.3750     2.2510   -24.9100    99.7310    44.7820    77.1990    47.5520    45.4570    58.4140    99.7310 
  223.5000     2.2540   -24.8700    97.3620    44.2910    78.4780    46.6210    44.7940    62.3620    97.3620 
  223.6250     2.2570   -24.8780    94.7950    43.9880    78.9510    45.8700    44.3620    65.5510    94.7950 
  223.7500     2.2600   -24.9260    92.1790    43.7560    77.9030    45.3250    44.1490    65.3360    92.1790 
  223.8750     2.2620   -25.0290    89.6580    43.4650    75.6160    44.9210    44.0510    62.5000    89.6580 
  224.0000     2.2630   -25.1530    87.3150    43.0750    73.3100    44.5320    43.8980    62.5410    87.3150 
  224.1250     2.2630   -25.2950    85.1500    42.5880    71.9770    43.9860    43.4640    65.3190    85.1500 
