~V
VERS. 2.00: Ver 2.00
~W
STRT.M 60.0000:
STOP.M 289.0000:
STEP.M 0.1250:
NULL. -999.2500:
UWI. FZI117:
~C
DEPT.M :
DEN.GM/CC :
SP.MV :
R2M. :
R025. :
RA2. :
GR.API :
RML.OHMM :
RI. :
RXO.OHMM :
~A
# ...
  178.6250     2.4970    -8.3540    26.0730    19.3530    26.0730    81.3850    22.0640    18.7570    21.9960 
  178.7500     2.5010    -8.3640    27.7520    19.5140    27.7520    85.9790    23.2040    20.1490    21.4080 
  178.8750     2.5120    -8.3700    29.1770    19.2630    29.1770    88.5510    23.8060    21.1290    20.2630 
  179.0000     2.5270    -8.3730    30.5360    18.6320    30.5360    89.2390    23.9000    21.6420    21.2020 
  179.1250     2.5430    -8.3750    31.9490    17.4020    31.9490    89.7570    23.1310    21.3220    24.0070 
  179.2500     2.5550    -8.3810    33.2160    15.4160    33.2160    90.7440    21.2670    19.9410    24.0150 
  179.3750     2.5590    -8.4000    33.8440    12.6950    33.8440    91.9320    18.3270    17.4530    21.5070 
  179.5000     2.5510    -8.4500    33.2320     9.7870    33.2320    93.0810    14.8250    14.2580    18.3980 
  179.6250     2.5250    -8.5550    30.6060     7.6210    30.6060    94.3240    11.6280    11.1200    12.8860 
  179.7500     2.4890    -8.6720    26.3510     6.3460    26.3510    94.7180     9.1720     8.6050     7.9840 
  179.8750     2.4530    -8.7940    21.2140     5.7000    21.2140    94.2090     7.4330     6.8710     5.3110 
  180.0000     2.4250    -8.9180    16.1920     5.4190    16.1920    94.5240     6.1770     5.8620     4.7190 
  180.1250     2.4110    -9.0520    12.3810     5.4300    12.3810    97.9770     5.7850     5.5100     5.1290 
  180.2500     2.4070    -9.1920     9.9500     5.5640     9.9500   101.1840     5.8500     5.5540     5.4660 
  180.3750     2.4090    -9.3270     8.7020     5.6570     8.7020   100.2730     6.1120     5.8470     5.6530 
  180.5000     2.4130    -9.4350     8.2900     5.6510     8.2900    96.9330     6.3570     6.2400     5.9950 
  180.6250     2.4140    -9.4960     8.4960     5.6280     8.4960    98.1980     6.5090     6.5800     6.5450 
  180.7500     2.4100    -9.5470     8.9560     5.6820     8.9560   102.1960     6.6090     6.7980     6.9010 
  180.8750     2.4040    -9.6080     9.4430     5.7980     9.4430   102.6100     6.7150     6.9030     6.7690 
  181.0000     2.3990    -9.6780     9.8400     5.8900     9.8400    97.5360     6.8620     6.9360     6.4940 
  181.1250     2.4010    -9.7460    10.1520     5.9000    10.1520    93.2160     7.0310     6.9340     6.6590 
  181.2500     2.4110    -9.7930    10.4510     5.8980    10.4510    95.7910     7.1500     6.9040     7.4480 
  181.3750     2.4250    -9.8170    10.6550     5.9160    10.6550   101.7140     7.1600     6.8230     7.9660 
  181.5000     2.4410    -9.8470    10.5840     5.9120    10.5840   103.6520     7.0390     6.6690     7.2930 
  181.6250     2.4540    -9.8950    10.1320     5.8840    10.1320    99.2240     6.8180     6.4460     6.6010 
  181.7500     2.4620    -9.9280     9.5180     5.9070     9.5180    95.2270     6.5990     6.2210     6.2720 
  181.8750     2.4620    -9.9150     8.9770     6.0060     8.9770    94.8070     6.4640     6.0600     6.4680 
  182.0000     2.4560    -9.8630     8.6540     6.1910     8.6540    97.0270     6.4730     6.0180     6.8120 
  182.1250     2.4430    -9.7650     8.5400     6.4700     8.5400    99.5790     6.6950     6.1460     7.2720 
  182.2500     2.4260    -9.6670     8.5470     6.7720     8.5470    99.5770     7.0980     6.4100     7.6080 
  182.3750     2.4090    -9.5920     8.7470     7.0070     8.7470    94.5540     7.6370     6.7770     8.0830 
  182.5000     2.3900    -9.5440     9.2420     7.1460     9.2420    88.2680     8.2210     7.1890     8.6560 
  182.6250     2.3700    -9.5280     9.9950     7.1750     9.9950    88.6380     8.6660     7.5420     9.5860 
  182.7500     2.3520    -9.5430    10.6850     7.0430    10.6850    93.7520     8.8210     7.7320     9.7600 
  182.8750     2.3360    -9.5900    11.0330     6.7310    11.0330    97.1880     8.6070     7.6860     9.4060 
  183.0000     2.3260    -9.6580    10.9060     6.3470    10.9060    98.3710     8.0610     7.3960     9.2160 
  183.1250     2.3270    -9.7510    10.3170     6.0230    10.3170   100.0590     7.3330     6.9170     7.9730 
  183.2500     2.3400    -9.8740     9.5320     5.7450     9.5320   102.6290     6.6560     6.4040     6.3500 
  183.3750     2.3650   -10.0010     8.7110     5.4910     8.7110   104.1510     6.1590     5.9560     5.4210 
  183.5000     2.3960   -10.1140     7.9370     5.3170     7.9370   104.3870     5.8920     5.6360     5.1780 
  183.6250     2.4220   -10.1970     7.2740     5.2750     7.2740   101.9710     5.8670     5.4890     5.2700 
  183.7500     2.4350   -10.2690     6.7510     5.2990     6.7510    99.0550     5.9840     5.4730     5.3920 
  183.8750     2.4350   -10.3440     6.3890     5.3460     6.3890    99.3580     6.1780     5.5490     5.3650 
  184.0000     2.4270   -10.4360     6.1900     5.4290     6.1900   101.8090     6.3850     5.6760     5.4200 
  184.1250     2.4180   -10.5400     6.1900     5.6140     6.1900   102.7220     6.5420     5.8130     5.6630 
  184.2500     2.4090   -10.6150     6.3450     5.8750     6.3450   102.4360     6.6190     5.9340     6.0430 
  184.3750     2.3990   -10.6620     6.5740     6.1510     6.5740   103.5500     6.6200     6.0380     6.4590 
  184.5000     2.3890   -10.6960     6.7720     6.4270     6.7720   105.7000     6.5940     6.1420     6.6850 
  184.6250     2.3790   -10.7170     6.8560     6.7530     6.8560   104.5850     6.6570     6.3000     6.7940 
  184.7500     2.3700   -10.7110     6.9180     7.1830     6.9180   100.3070     6.9160     6.5630     7.0310 
  184.8750     2.3630   -10.6770     7.1250     7.7560     7.1250    95.6170     7.4510     6.9880     7.4930 
  185.0000     2.3530   -10.6150     7.6460     8.4710     7.6460    93.0650     8.2930     7.6230     8.3330 
  185.1250     2.3440   -10.5520     8.6360     9.2710     8.6360    92.1940     9.4030     8.4990    10.0960 
  185.2500     2.3480   -10.5100     9.9280     9.9140     9.9280    90.8340    10.5090     9.4660    12.1500 
  185.3750     2.3720   -10.4920    11.3170    10.0790    11.3170    88.4670    11.2930    10.2980    13.7270 
  185.5000     2.4150   -10.4730    12.5340     9.6290    12.5340    85.1840    11.4570    10.7220    15.1630 
  185.6250     2.4620   -10.4660    13.1160     8.7810    13.1160    82.6500    10.7940    10.4390    14.9680 
  185.7500     2.4870   -10.4960    12.8450     7.9940    12.8450    83.3250     9.6580     9.6200    12.1840 
  185.8750     2.4810   -10.5680    11.6790     7.4070    11.6790    85.6710     8.4020     8.5310     8.0180 
  186.0000     2.4500   -10.6970     9.8470     6.9910     9.8470    87.7750     7.3170     7.4720     5.7440 
  186.1250     2.4120   -10.8870     7.8040     6.7530     7.8040    88.6860     6.6170     6.7250     5.2920 
  186.2500     2.3880   -11.1020     6.0900     6.6850     6.0900    89.2460     6.2750     6.3360     5.5450 
  186.3750     2.3810   -11.3390     4.9630     6.7410     4.9630    90.0510     6.2680     6.2900     5.9920 
  186.5000     2.3890   -11.6170     4.4520     6.8680     4.4520    91.3660     6.5420     6.5210     6.4800 
  186.6250     2.3990   -11.9270     4.4560     7.0960     4.4560    92.9860     7.0380     6.9500     6.7280 
  186.7500     2.4060   -12.2600     4.6860     7.4050     4.6860    93.2250     7.6440     7.4400     6.9910 
  186.8750     2.4080   -12.6150     4.9970     7.7600     4.9970    91.9340     8.2800     7.9010     7.7960 
  187.0000     2.4070   -12.9640     5.3200     8.1210     5.3200    90.7780     8.7080     8.2640     9.0000 
  187.1250     2.4060   -13.2680     5.6780     8.4350     5.6780    91.0370     8.8430     8.4640     9.1900 
  187.2500     2.4050   -13.5520     6.0920     8.7310     6.0920    91.9510     8.8340     8.5300     8.6710 
  187.3750     2.4040   -13.8030     6.5250     9.0290     6.5250    92.4680     8.8300     8.5120     8.3820 
  187.5000     2.4030   -14.0180     6.9330     9.3800     6.9330    92.4090     8.9290     8.4880     8.7670 
  187.6250     2.4040   -14.2080     7.3180     9.9360     7.3180    91.3310     9.2560     8.5950     9.4790 
