~V
VERS. 2.00: Ver 2.00
~W
STRT.M 60.0000:
STOP.M 284.0000:
STEP.M 0.1250:
NULL. -999.2500:
UWI. FZI118:
~C
DEPT.M :
DEN.GM/CC :
SP.MV :
R2M. :
R025. :
GR.API :
RML.OHMM :
RI. :
RXO.OHMM :
RA2. :
~A
# ...
  133.0000     2.0890   -18.3740    10.0640    11.5620    77.9610    12.6730    10.7780    11.0490    10.0640 
  133.1250     2.0920   -18.3730    10.3920    11.5270    76.9070    12.6170    10.7410    10.6940    10.3920 
  133.2500     2.0980   -18.3540    10.6460    11.5060    78.1260    12.5450    10.7050    11.1580    10.6460 
  133.3750     2.1040   -18.3210    10.8510    11.4910    80.1090    12.4730    10.6850    11.7930    10.8510 
  133.5000     2.1080   -18.2490    11.0180    11.4850    81.8120    12.3940    10.6810    12.2020    11.0180 
  133.6250     2.1090   -18.1260    11.1500    11.4920    81.2970    12.2830    10.6840    11.9180    11.1500 
  133.7500     2.1070   -17.9260    11.2620    11.4920    78.3570    12.1330    10.6820    11.3180    11.2620 
  133.8750     2.1050   -17.6400    11.3730    11.4700    74.6680    11.9560    10.6740    10.7280    11.3730 
  134.0000     2.1010   -17.2440    11.5010    11.4200    71.5960    11.7700    10.6600    10.6320    11.5010 
  134.1250     2.0960   -16.7180    11.6680    11.3320    71.4470    11.5750    10.6340    10.9680    11.6680 
  134.2500     2.0900   -16.0700    11.8690    11.2130    73.4750    11.3410    10.5710    11.1240    11.8690 
  134.3750     2.0860   -15.2620    12.1070    11.0670    76.7530    11.0140    10.4270    10.9950    12.1070 
  134.5000     2.0870   -14.2980    12.4050    10.7210    79.9600    10.5220    10.1280    10.7470    12.4050 
  134.6250     2.0980   -13.2140    12.7370     9.8190    82.1260     9.7540     9.5590    10.3350    12.7370 
  134.7500     2.1250   -12.1300    12.9200     8.5800    87.3630     8.7470     8.7450     9.0990    12.9200 
  134.8750     2.1740   -11.1140    12.7380     7.4570    96.7980     7.6270     7.7820     7.2370    12.7380 
  135.0000     2.2350   -10.2180    12.0780     6.7310   107.4160     6.6160     6.8490     5.9140    12.0780 
  135.1250     2.2820    -9.4750    11.0060     6.3330   112.7650     5.9860     6.1710     5.5510    11.0060 
  135.2500     2.3000    -8.8910     9.8800     6.0450   112.5470     5.7350     5.7940     5.4750     9.8800 
  135.3750     2.2980    -8.4950     8.9360     5.8420   112.0480     5.7810     5.6840     5.4660     8.9360 
  135.5000     2.2910    -8.3100     8.2540     5.7110   114.4420     5.9860     5.7580     5.2950     8.2540 
  135.6250     2.2860    -8.3230     7.7930     5.6970   118.0870     6.2300     5.9390     5.1780     7.7930 
  135.7500     2.2790    -8.4210     7.4420     5.8110   118.3810     6.4900     6.1830     5.2750     7.4420 
  135.8750     2.2680    -8.5690     7.1990     6.0490   114.9830     6.8080     6.5040     5.6650     7.1990 
  136.0000     2.2550    -8.7270     7.0810     6.3560   110.5860     7.1800     6.9040     5.9970     7.0810 
  136.1250     2.2460    -8.8510     7.0960     6.6370   107.9310     7.5070     7.3270     6.2650     7.0960 
  136.2500     2.2450    -8.9120     7.1680     6.8110   106.9480     7.6730     7.6660     6.8000     7.1680 
  136.3750     2.2480    -8.9210     7.2230     6.8340   108.8020     7.6060     7.8300     7.0370     7.2230 
  136.5000     2.2530    -8.9010     7.1980     6.7260   114.6350     7.3230     7.7760     6.6150     7.1980 
  136.6250     2.2630    -8.8620     7.0460     6.5650   118.8030     6.9370     7.5390     6.1030     7.0460 
  136.7500     2.2760    -8.8380     6.8080     6.4650   117.3060     6.6340     7.2850     5.9500     6.8080 
  136.8750     2.2910    -8.8280     6.5310     6.4830   113.8030     6.5330     7.1370     5.9850     6.5310 
  137.0000     2.3020    -8.8480     6.2580     6.6360   112.9350     6.6870     7.1710     6.1150     6.2580 
  137.1250     2.3040    -8.9040     6.0150     6.9120   111.1310     7.0670     7.3920     6.3940     6.0150 
  137.2500     2.3010    -9.0050     5.8020     7.2010   105.7390     7.4600     7.6400     6.7230     5.8020 
  137.3750     2.3000    -9.1480     5.6380     7.4220   100.9020     7.6890     7.7690     6.7880     5.6380 
  137.5000     2.3040    -9.2960     5.5500     7.5440    99.6270     7.6740     7.7050     6.7130     5.5500 
  137.6250     2.3040    -9.4600     5.5640     7.5850   101.7860     7.4700     7.4820     6.9720     5.5640 
  137.7500     2.2980    -9.6270     5.6640     7.6190   107.0840     7.2900     7.2600     7.3620     5.6640 
  137.8750     2.2970    -9.8120     5.9360     7.7660   112.6310     7.3600     7.1820     6.9780     5.9360 
  138.0000     2.3120   -10.0310     6.6420     8.1910   113.7910     8.0710     7.4690     6.3660     6.6420 
  138.1250     2.3440   -10.3030     8.2910     9.5920   107.3250    10.4130     8.8480     6.9390     8.2910 
  138.2500     2.3870   -10.6210    10.7990    12.5280    97.5280    14.8770    12.0040    10.9570    10.7990 
  138.3750     2.4310   -10.9620    13.6440    16.4990    87.1570    21.4580    17.3730    22.6960    13.6440 
  138.5000     2.4530   -11.3340    15.9070    19.8270    79.0060    28.4160    24.0160    36.1220    15.9070 
  138.6250     2.4040   -11.7200    16.4240    20.7540    76.0480    30.2390    27.2740    29.4070    16.4240 
  138.7500     2.3050   -12.1040    15.2690    20.0990    75.7730    25.8170    24.8570    19.1230    15.2690 
  138.8750     2.2120   -12.4370    13.0150    19.0490    76.4620    19.4520    19.8590    13.9220    13.0150 
  139.0000     2.1600   -12.6970    10.4930    18.2060    77.2380    14.9740    15.8270    12.2740    10.4930 
  139.1250     2.1490   -12.8720     8.4610    17.6870    78.2540    13.3730    14.0730    11.7950     8.4610 
  139.2500     2.1480   -12.9760     7.0500    17.3270    77.8270    13.2360    13.6570    11.2830     7.0500 
  139.3750     2.1460   -13.0250     6.1560    17.0580    76.6910    13.7010    13.8590    10.7140     6.1560 
  139.5000     2.1410   -13.0350     5.6240    16.8780    78.2010    14.2670    14.2520    10.4850     5.6240 
  139.6250     2.1350   -13.0220     5.3760    16.8110    82.6280    14.7220    14.6530    10.5290     5.3760 
  139.7500     2.1280   -13.0060     5.3030    16.8370    84.5700    15.0690    15.0160    10.7110     5.3030 
  139.8750     2.1220   -13.0130     5.3710    16.9260    82.1280    15.3430    15.3360    10.9510     5.3710 
  140.0000     2.1140   -13.0440     5.5810    17.0380    79.0730    15.5730    15.6110    11.2910     5.5810 
  140.1250     2.1040   -13.0860     6.0890    17.0950    80.0570    15.7550    15.8190    11.6260     6.0890 
  140.2500     2.0930   -13.1270     7.0870    16.9990    82.1600    15.8710    15.9400    11.7810     7.0870 
  140.3750     2.0850   -13.1780     8.7580    16.7090    81.8400    15.8810    15.9340    11.8400     8.7580 
  140.5000     2.0860   -13.2350    11.1090    16.3020    79.5540    15.7530    15.7730    11.8900    11.1090 
  140.6250     2.0980   -13.2760    13.8750    15.8810    78.5760    15.4510    15.4290    11.8090    13.8750 
  140.7500     2.1150   -13.2950    16.4520    15.4460    80.7410    15.0230    14.9650    11.6580    16.4520 
  140.8750     2.1370   -13.2630    18.3940    14.9280    85.0240    14.5030    14.4260    11.7600    18.3940 
  141.0000     2.1660   -13.2200    19.4650    14.3700    88.9620    13.9470    13.8630    11.9190    19.4650 
  141.1250     2.2040   -13.2250    19.6170    14.0010    92.1860    13.4830    13.3730    11.4380    19.6170 
  141.2500     2.2440   -13.2850    19.3170    13.9760    95.0370    13.2900    13.0900    10.8360    19.3170 
  141.3750     2.2700   -13.3820    18.9220    14.3360    94.7600    13.5360    13.1610    11.4320    18.9220 
  141.5000     2.2660   -13.4970    18.7010    14.9450    90.1650    14.2450    13.6480    12.8180    18.7010 
  141.6250     2.2360   -13.6260    18.7490    15.4820    85.7480    15.1860    14.4430    13.9380    18.7490 
  141.7500     2.2080   -13.7390    18.8580    15.7150    87.0990    15.8570    15.1270    13.8770    18.8580 
  141.8750     2.1920   -13.8570    18.8210    15.6590    90.3200    15.9270    15.3630    13.3190    18.8210 
  142.0000     2.1860   -13.9450    18.5290    15.4720    89.1200    15.4020    15.0670    12.6490    18.5290 
