~V
VERS. 2.00: Ver 2.00
~W
STRT.M 60.0000:
STOP.M 289.0000:
STEP.M 0.1250:
NULL. -999.2500:
UWI. FZI117:
~C
DEPT.M :
DEN.GM/CC :
SP.MV :
R2M. :
R025. :
RA2. :
GR.API :
RML.OHMM :
RI. :
RXO.OHMM :
~A
# ...
  206.0000     2.2600   -17.5810   168.8300    84.1400   168.8300    58.7170   151.0000   149.9420   117.2920 
  206.1250     2.2550   -17.5470   174.6210    84.7560   174.6210    56.8560   151.3680   151.0830   113.8140 
  206.2500     2.2470   -17.5220   181.2100    85.1140   181.2100    55.9150   149.6020   149.9150   116.1810 
  206.3750     2.2420   -17.5020   188.5270    85.2020   188.5270    57.2590   146.6630   147.2290   121.3270 
  206.5000     2.2440   -17.4570   196.3590    85.1130   196.3590    60.0210   142.9400   143.3720   117.4230 
  206.6250     2.2580   -17.4110   203.8870    84.9850   203.8870    62.6310   139.0560   138.9660   104.7640 
  206.7500     2.2760   -17.3830   210.0750    85.0400   210.0750    63.5080   136.4270   135.5970    96.0590 
  206.8750     2.2900   -17.3640   214.6130    85.5630   214.6130    61.7540   136.7560   135.0830    91.2200 
  207.0000     2.2900   -17.3640   217.7930    86.6200   217.7930    57.3240   141.7050   139.1670    88.8100 
  207.1250     2.2740   -17.3790   220.9670    88.0760   220.9670    53.7840   153.1210   149.7620    91.2280 
  207.2500     2.2500   -17.4210   226.1110    89.4860   226.1110    55.4170   168.8300   164.7780   108.7270 
  207.3750     2.2280   -17.4950   234.1520    90.3910   234.1520    59.4100   184.9860   180.6600   135.8150 
  207.5000     2.2120   -17.6000   245.1160    90.5600   245.1160    60.5620   195.9500   192.2430   159.6760 
  207.6250     2.2080   -17.7140   258.1760    89.8620   258.1760    58.8260   195.1770   193.2510   175.4450 
  207.7500     2.2130   -17.8100   270.6900    88.6130   270.6900    58.6780   184.9170   184.8670   174.2320 
  207.8750     2.2230   -17.9010   280.9950    87.2610   280.9950    61.6060   170.1250   170.9840   151.0550 
  208.0000     2.2340   -18.0070   287.9890    86.1470   287.9890    65.0970   156.4380   156.8280   120.0620 
  208.1250     2.2420   -18.1520   290.6360    85.4660   290.6360    65.9950   148.7360   147.5370   104.3010 
  208.2500     2.2450   -18.3210   290.9320    85.2610   290.9320    64.6580   147.4240   144.3010   105.1510 
  208.3750     2.2440   -18.4990   290.5430    85.4800   290.5430    61.7270   152.1200   147.0830   113.4380 
  208.5000     2.2410   -18.6830   290.9450    85.8790   290.9450    59.0720   161.7070   154.9250   127.4880 
  208.6250     2.2360   -18.8870   294.0190    86.1380   294.0190    58.2240   174.3740   166.1790   153.3980 
  208.7500     2.2320   -19.1120   299.3920    85.9810   299.3920    58.1180   186.3920   177.2510   179.1710 
  208.8750     2.2280   -19.3420   306.4820    85.2680   306.4820    58.1120   194.5580   185.1350   191.9730 
  209.0000     2.2240   -19.5360   314.9900    83.9960   314.9900    58.0810   196.5360   187.5450   185.2820 
  209.1250     2.2220   -19.6830   323.9390    81.9530   323.9390    57.9070   190.9370   182.9280   162.8170 
  209.2500     2.2220   -19.7820   332.5620    79.3860   332.5620    56.9720   180.8170   173.8720   141.4050 
  209.3750     2.2230   -19.8260   340.3930    76.5690   340.3930    56.9490   168.6890   162.6680   125.5840 
  209.5000     2.2250   -19.8210   346.5320    73.6360   346.5320    59.1910   156.4930   151.2180   123.7150 
  209.6250     2.2250   -19.7730   350.4490    70.7090   350.4490    61.5410   145.1700   140.5370   127.8840 
  209.7500     2.2240   -19.6950   352.4930    67.8240   352.4930    61.8070   134.4020   130.3910   135.0500 
  209.8750     2.2270   -19.5840   352.3290    64.8390   352.3290    61.1850   123.8720   120.4500   126.9950 
  210.0000     2.2370   -19.4590   349.8120    61.7120   349.8120    60.6850   113.6170   110.6870   105.8140 
  210.1250     2.2530   -19.3260   344.3350    58.6250   344.3350    60.9170   104.2320   101.6030    88.1930 
  210.2500     2.2720   -19.2010   336.2000    55.7680   336.2000    62.1880    96.0420    93.5560    79.2600 
  210.3750     2.2870   -19.0770   326.3550    53.2180   326.3550    64.1340    89.0570    86.6330    75.1480 
  210.5000     2.2940   -18.9380   315.7970    50.8310   315.7970    66.4770    82.8850    80.5590    77.9180 
  210.6250     2.2930   -18.7770   305.0190    48.4270   305.0190    67.0630    76.9210    74.8790    80.3850 
  210.7500     2.2910   -18.6050   294.0340    46.0880   294.0340    66.4340    70.6820    69.2270    72.8770 
  210.8750     2.2940   -18.4360   281.8050    43.9100   281.8050    66.5190    64.1550    63.7200    60.4000 
  211.0000     2.3030   -18.2830   267.5450    42.0270   267.5450    68.4850    57.7070    58.7710    51.5380 
  211.1250     2.3150   -18.1410   251.2950    40.6920   251.2950    70.6390    53.9480    55.1600    47.6060 
  211.2500     2.3230   -18.0080   234.3700    39.8890   234.3700    72.1730    52.9780    53.1440    45.1400 
  211.3750     2.3250   -17.9110   218.2270    39.5940   218.2270    73.5160    53.5920    52.8070    44.3060 
  211.5000     2.3190   -17.8660   204.1980    39.6210   204.1980    74.1870    54.0980    53.8150    40.8070 
  211.6250     2.3070   -17.8770   193.3150    39.4720   193.3150    72.6430    54.2290    55.2460    49.6510 
  211.7500     2.2950   -17.9290   185.1130    38.7590   185.1130    70.8760    54.0430    55.6960    61.7680 
  211.8750     2.2890   -18.0140   178.6580    37.3520   178.6580    71.1020    52.5320    54.2080    71.1790 
  212.0000     2.2930   -18.1210   172.0360    35.4280   172.0360    73.4350    48.9350    50.5700    61.3930 
  212.1250     2.3090   -18.2270   162.8000    33.5680   162.8000    75.5820    43.8890    45.4290    42.4240 
  212.2500     2.3270   -18.3090   150.3390    32.2610   150.3390    76.0720    39.1800    40.3960    30.9720 
  212.3750     2.3390   -18.3590   135.3770    31.6950   135.3770    75.7310    35.7540    36.5050    28.4390 
  212.5000     2.3420   -18.4000   119.9480    31.9500   119.9480    76.2020    34.1280    34.3430    29.0350 
  212.6250     2.3360   -18.4710   106.7470    33.0360   106.7470    77.8850    34.7800    34.4070    30.7490 
  212.7500     2.3280   -18.5820    96.8410    34.6140    96.8410    79.9680    37.2280    36.2290    34.8570 
  212.8750     2.3220   -18.7110    90.3520    36.5440    90.3520    80.4410    41.0910    39.4580    40.1390 
  213.0000     2.3180   -18.8560    86.5480    38.6360    86.5480    77.9050    45.7900    43.5750    45.8660 
  213.1250     2.3120   -19.0220    84.6470    40.6330    84.6470    75.3790    50.5770    47.9300    51.6880 
  213.2500     2.3000   -19.2060    83.7430    42.3530    83.7430    73.9990    54.8380    51.9130    54.4310 
  213.3750     2.2830   -19.4040    83.6160    43.6920    83.6160    72.0340    58.3230    55.2450    54.3150 
  213.5000     2.2690   -19.5920    84.3910    44.7030    84.3910    68.3690    60.9700    57.8120    56.7190 
  213.6250     2.2640   -19.7380    86.3560    45.3160    86.3560    64.9560    62.5340    59.3560    61.8110 
  213.7500     2.2700   -19.8360    88.8880    45.4900    88.8880    63.9440    62.9580    59.8420    68.3170 
  213.8750     2.2810   -19.9140    91.2740    45.2970    91.2740    65.9910    62.1160    59.1660    65.8750 
  214.0000     2.2920   -19.9750    92.7640    44.8810    92.7640    70.4440    60.1900    57.4700    58.9770 
  214.1250     2.2960   -20.0020    92.6470    44.4220    92.6470    73.5540    57.8110    55.2640    53.8800 
  214.2500     2.2950   -20.0380    91.4440    44.1540    91.4440    72.4860    55.9640    53.4380    51.1100 
  214.3750     2.2920   -20.0740    89.8020    44.1020    89.8020    68.9400    55.2640    52.5850    50.7950 
  214.5000     2.2880   -20.1010    88.4540    44.1730    88.4540    66.2260    55.8810    52.9440    52.1270 
  214.6250     2.2830   -20.1070    88.4140    44.2170    88.4140    66.7610    57.4250    54.3220    55.4980 
  214.7500     2.2760   -20.0850    89.7560    43.9750    89.7560    68.4920    58.6120    55.6540    61.6200 
  214.8750     2.2660   -20.0310    92.2450    43.2380    92.2450    69.2870    58.2950    55.9020    66.0900 
  215.0000     2.2560   -19.9530    95.3840    41.9120    95.3840    69.2870    55.8610    54.3390    64.5460 
