~V
VERS. 2.00: Ver 2.00
~W
STRT.M 60.0000:
STOP.M 289.0000:
STEP.M 0.1250:
NULL. -999.2500:
UWI. FZI117:
~C
DEPT.M :
DEN.GM/CC :
SP.MV :
R2M. :
R025. :
RA2. :
GR.API :
RML.OHMM :
RI. :
RXO.OHMM :
~A
# ...
  260.7500     2.4290   -10.8800     7.8190     8.2900     7.8190   119.3610     8.9440     7.7720     9.4640 
  260.8750     2.4350   -10.8590     8.1160     8.5460     8.1160   114.8690     9.3290     7.9480     9.0390 
  261.0000     2.4390   -10.8190     8.6010     8.9290     8.6010   110.7620     9.9020     8.2190     8.7410 
  261.1250     2.4350   -10.7690     9.2160     9.4280     9.2160   108.2390    10.5730     8.6030     9.5590 
  261.2500     2.4220   -10.7160     9.8040     9.8790     9.8040   107.5450    11.0960     9.0060    11.8230 
  261.3750     2.4030   -10.6580    10.2520    10.1430    10.2520   110.6860    11.2460     9.3050    13.2190 
  261.5000     2.3820   -10.5940    10.5130    10.1720    10.5130   116.5040    10.9290     9.3890    13.0010 
  261.6250     2.3650   -10.5210    10.6060    10.0500    10.6060   119.0490    10.2850     9.2110    12.0450 
  261.7500     2.3560   -10.4450    10.6580    10.0040    10.6580   116.4210     9.7440     8.9560    11.0370 
  261.8750     2.3580   -10.3640    10.7300    10.1890    10.7300   112.9140     9.6270     8.8330    10.8180 
  262.0000     2.3740   -10.2710    10.8870    10.6310    10.8870   110.7970    10.1280     9.0220    10.1810 
  262.1250     2.4020   -10.1580    11.3100    11.1490    11.3100   108.6770    11.3160     9.6620    11.3490 
  262.2500     2.4300   -10.0360    12.0660    11.4850    12.0660   108.5320    12.7370    10.5530    14.8920 
  262.3750     2.4450    -9.9050    13.0330    11.4840    13.0330   110.0940    13.7920    11.3750    20.7130 
  262.5000     2.4430    -9.7710    13.8500    11.0100    13.8500   109.2030    13.8410    11.7220    20.5430 
  262.6250     2.4260    -9.6460    13.9470     9.9740    13.9470   104.7920    12.4740    11.2110    15.5220 
  262.7500     2.4100    -9.5300    13.2650     8.7290    13.2650   103.9490    10.4400    10.1020    11.4570 
  262.8750     2.4010    -9.4240    12.0180     7.5820    12.0180   107.3150     8.4890     8.7540     9.2370 
  263.0000     2.4010    -9.3320    10.5720     6.7120    10.5720   107.4370     7.1150     7.5100     7.9080 
  263.1250     2.4040    -9.2610     9.2720     6.1990     9.2720   101.7070     6.4880     6.6160     7.1940 
  263.2500     2.4050    -9.1950     8.2170     5.9170     8.2170    98.4700     6.2670     6.0350     6.7560 
  263.3750     2.4040    -9.1250     7.4090     5.7750     7.4090   100.7240     6.2380     5.7120     6.4080 
  263.5000     2.4030    -9.0520     6.8320     5.7240     6.8320   102.6210     6.2920     5.5900     6.3080 
  263.6250     2.4050    -8.9650     6.4860     5.7670     6.4860    99.9220     6.4390     5.6630     6.2500 
  263.7500     2.4080    -8.8480     6.3390     5.8790     6.3390    96.3270     6.6880     5.8850     6.0650 
  263.8750     2.4070    -8.7170     6.4330     6.0320     6.4330    94.4200     7.0180     6.2310     6.2140 
  264.0000     2.4000    -8.5770     6.8210     6.1980     6.8210    94.6440     7.3560     6.6510     6.7620 
  264.1250     2.3870    -8.4270     7.5570     6.2730     7.5570    97.5830     7.5770     7.0230     7.5960 
  264.2500     2.3780    -8.2810     8.4240     6.1500     8.4240   101.5440     7.6240     7.2110     8.5250 
  264.3750     2.3790    -8.1480     9.1550     5.8170     9.1550   102.9930     7.4890     7.1290     9.0300 
  264.5000     2.3920    -8.0340     9.5230     5.4190     9.5230   101.0430     7.1920     6.7890     8.2570 
  264.6250     2.4120    -7.9550     9.4210     5.1400     9.4210    99.6880     6.7570     6.3050     6.4220 
  264.7500     2.4260    -7.9300     9.0740     4.9990     9.0740   101.9230     6.3170     5.8680     5.7320 
  264.8750     2.4290    -7.9470     8.6550     4.9770     8.6550   105.1370     6.0190     5.5860     5.5750 
  265.0000     2.4190    -7.9920     8.2580     5.0670     8.2580   103.8750     5.9400     5.5040     5.5610 
  265.1250     2.4000    -8.0670     7.8910     5.2580     7.8910    99.0340     6.0780     5.6320     5.5520 
  265.2500     2.3830    -8.1630     7.5470     5.4490     7.5470    96.1400     6.3700     5.8800     5.5760 
  265.3750     2.3710    -8.2770     7.3130     5.5840     7.3130    95.5200     6.7890     6.1800     5.5140 
  265.5000     2.3690    -8.3890     7.2790     5.7180     7.2790    95.3140     7.2140     6.4640     5.8980 
  265.6250     2.3750    -8.4790     7.4380     5.9560     7.4380    94.5880     7.4500     6.6580     6.7800 
  265.7500     2.3860    -8.5390     7.6010     6.2410     7.6010    95.3420     7.4340     6.7430     7.4160 
  265.8750     2.3960    -8.5800     7.6550     6.4590     7.6550    97.2130     7.2270     6.7340     7.1080 
  266.0000     2.4020    -8.6340     7.5820     6.5930     7.5820    99.7620     7.0760     6.6830     6.6770 
  266.1250     2.4010    -8.6700     7.4360     6.7540     7.4360   101.0190     7.0940     6.6850     6.7800 
  266.2500     2.3950    -8.6860     7.3530     7.0130     7.3530    99.2080     7.2920     6.8080     6.8800 
  266.3750     2.3840    -8.6870     7.3990     7.3890     7.3990    94.3640     7.5980     7.0780     6.9140 
  266.5000     2.3720    -8.6890     7.5350     7.8640     7.5350    89.1250     8.0160     7.4650     7.7970 
  266.6250     2.3630    -8.7090     7.6170     8.3490     7.6170    88.3480     8.3060     7.8690     9.8470 
  266.7500     2.3620    -8.7410     7.5320     8.7580     7.5320    90.0430     8.5270     8.1690    10.8970 
  266.8750     2.3710    -8.7780     7.2650     9.1150     7.2650    90.2720     8.6950     8.3120     9.9030 
  267.0000     2.3860    -8.7930     6.9380     9.4750     6.9380    88.7540     8.8700     8.3360     8.6350 
  267.1250     2.3970    -8.8260     6.8480    10.0270     6.8480    87.2170     9.1600     8.3880     9.4370 
  267.2500     2.3950    -8.8970     7.1790    10.9390     7.1790    85.1950     9.6500     8.6570    12.3580 
  267.3750     2.3800    -9.0200     7.9440    12.2390     7.9440    82.2120    10.4000     9.3080    14.7350 
  267.5000     2.3600    -9.1840     9.0600    13.8420     9.0600    80.1110    11.5980    10.4970    14.8070 
  267.6250     2.3540    -9.4150    10.5730    15.6940    10.5730    78.8230    13.6820    12.4980    15.0010 
  267.7500     2.3700    -9.6730    12.4900    17.7210    12.4900    76.3630    16.6480    15.2250    18.3350 
  267.8750     2.4060    -9.9490    14.8460    19.5450    14.8460    73.4330    20.0330    18.3490    28.1590 
  268.0000     2.4490   -10.2590    17.5020    20.3010    17.5020    72.6970    22.6500    21.0500    41.3010 
  268.1250     2.4770   -10.6100    19.8450    19.2040    19.8450    75.3900    22.9500    21.8990    50.0130 
  268.2500     2.4860   -10.9740    21.1170    17.2030    21.1170    79.2420    21.5170    20.7120    40.0930 
  268.3750     2.4820   -11.3230    20.8240    15.2740    20.8240    83.5680    19.3880    18.1390    26.4450 
  268.5000     2.4780   -11.6510    19.0280    13.8480    19.0280    86.5480    17.1750    15.2620    17.5030 
  268.6250     2.4840   -11.9250    16.3520    12.9450    16.3520    87.8980    14.5080    13.0550    13.9430 
  268.7500     2.4950   -12.1700    13.8190    12.4540    13.8190    91.1050    12.7320    11.6790    15.1300 
  268.8750     2.5020   -12.3890    11.9080    12.2520    11.9080    95.5390    11.7410    11.0120    17.5070 
  269.0000     2.4990   -12.5740    10.6710    12.0900    10.6710    99.6740    11.4010    10.8240    15.8950 
  269.1250     2.4860   -12.7000     9.9030    11.8590     9.9030   102.8240    11.4420    10.8850    12.8170 
  269.2500     2.4700   -12.7940     9.3360    11.6330     9.3360   104.9770    11.6240    10.9570    11.8060 
  269.3750     2.4540   -12.8550     8.9980    11.4590     8.9980   105.1420    11.8440    10.9590    12.1150 
  269.5000     2.4380   -12.8980     8.9870    11.3470     8.9870   102.2530    11.8910    10.8820    13.1550 
  269.6250     2.4240   -12.9240     9.3980    11.2410     9.3980    98.0150    11.6930    10.7410    14.9490 
  269.7500     2.4140   -12.9560    10.0980    11.0940    10.0980    94.5960    11.5220    10.5650    17.3430 
