~V
VERS. 2.00: Ver 2.00
~W
STRT.M 60.0000:
STOP.M 289.0000:
STEP.M 0.1250:
NULL. -999.2500:
UWI. FZI117:
~C
DEPT.M :
DEN.GM/CC :
SP.MV :
R2M. :
R025. :
RA2. :
GR.API :
RML.OHMM :
RI. :
RXO.OHMM :
~A
# ...
   87.3750     2.1780   -15.8600     6.3870     8.1310     6.3870    83.0040     9.6630     8.0490     9.4760 
   87.5000     2.1870   -15.7080     6.3180     8.0360     6.3180    84.2440     9.5020     7.9640     9.6470 
   87.6250     2.1920   -15.6300     6.3340     7.8880     6.3340    84.6520     9.3480     7.8570     9.6750 
   87.7500     2.1940   -15.6280     6.3840     7.7360     6.3840    83.0650     9.2510     7.7700     9.3640 
   87.8750     2.1910   -15.6580     6.4430     7.6370     6.4430    79.9870     9.2390     7.7150     8.9620 
   88.0000     2.1860   -15.7190     6.5290     7.6080     6.5290    79.1340     9.2900     7.6680     9.1020 
   88.1250     2.1810   -15.8210     6.7490     7.6030     6.7490    83.4380     9.2980     7.5570     9.3860 
   88.2500     2.1800   -15.9600     7.1540     7.5230     7.1540    88.7550     9.1400     7.3440     9.0640 
   88.3750     2.1920   -16.1490     7.7330     7.3450     7.7330    89.1930     8.9720     7.2220     8.5790 
   88.5000     2.2190   -16.3770     8.4140     7.1340     8.4140    90.2870     8.9010     7.1770     7.5260 
   88.6250     2.2600   -16.6490     9.0880     7.0550     9.0880    89.1060     9.0640     7.2570     7.6080 
   88.7500     2.2990   -16.9560     9.6620     7.2140     9.6620    84.0200     9.4050     7.4320     8.6610 
   88.8750     2.3220   -17.2830    10.0180     7.5800    10.0180    78.5560     9.7910     7.6540    10.0660 
   89.0000     2.3240   -17.6030    10.0740     7.9900    10.0740    76.8920    10.0660     7.8530    10.8730 
   89.1250     2.3080   -17.9400     9.8030     8.2460     9.8030    78.4580    10.1080     7.9570    10.7380 
   89.2500     2.2860   -18.2770     9.3420     8.3450     9.3420    77.4410    10.0240     7.9800    10.4070 
   89.3750     2.2600   -18.5630     8.8510     8.3910     8.8510    74.3540     9.9740     7.9880     9.9890 
   89.5000     2.2250   -18.7980     8.4600     8.4500     8.4600    71.5690    10.1000     8.0730     9.8630 
   89.6250     2.1730   -18.9640     8.2630     8.5720     8.2630    69.7430    10.4800     8.3240     9.9660 
   89.7500     2.1220   -19.0450     8.3350     8.8200     8.3350    68.0630    10.9810     8.6960    10.2310 
   89.8750     2.0990   -19.0930     8.8240     9.0930     8.8240    66.4690    11.4470     9.0940    10.5140 
   90.0000     2.1230   -19.1940     9.8500     9.2190     9.8500    66.2700    11.7200     9.3860    10.9030 
   90.1250     2.1900   -19.4220    11.3190     9.2140    11.3190    67.9540    11.6410     9.4140    11.0150 
   90.2500     2.2570   -19.7420    12.6410     9.2100    12.6410    70.4820    11.2880     9.1990    10.2940 
   90.3750     2.2930   -20.1360    13.2930     9.1830    13.2930    72.8330    10.7870     8.8270     9.7580 
   90.5000     2.2900   -20.5900    12.9890     9.0620    12.9890    73.1250    10.2930     8.4230     9.5830 
   90.6250     2.2620   -21.1090    11.7770     8.8500    11.7770    71.1560     9.9750     8.1230     9.7750 
   90.7500     2.2350   -21.6730    10.3540     8.6540    10.3540    68.8160     9.8700     7.9650    10.0510 
   90.8750     2.2160   -22.2330     9.2150     8.4990     9.2150    68.1530     9.9430     7.9330    10.2680 
   91.0000     2.2020   -22.7310     8.5990     8.3740     8.5990    69.3400    10.0960     7.9740    10.4930 
   91.1250     2.1900   -23.0900     8.5240     8.3020     8.5240    70.0950    10.1980     8.0380    10.6390 
   91.2500     2.1770   -23.3410     8.6890     8.2630     8.6890    68.9710    10.1940     8.0900    10.7230 
   91.3750     2.1650   -23.5380     8.9110     8.2420     8.9110    66.2060    10.1070     8.1180    10.6700 
   91.5000     2.1530   -23.6820     9.0730     8.2300     9.0730    65.3370    10.0000     8.1220    10.5160 
   91.6250     2.1440   -23.7460     9.0950     8.2070     9.0950    68.5270     9.9300     8.1060    10.4040 
   91.7500     2.1410   -23.7550     9.0000     8.1550     9.0000    72.6600     9.8850     8.0800    10.4380 
   91.8750     2.1460   -23.7500     8.8590     8.0960     8.8590    74.7300     9.8340     8.0530    10.4090 
   92.0000     2.1610   -23.7670     8.7480     8.0630     8.7480    73.2410     9.7650     8.0310    10.3060 
   92.1250     2.1800   -23.8270     8.7550     8.0790     8.7550    72.5440     9.7200     8.0230    10.2330 
   92.2500     2.1970   -23.9340     8.9370     8.0920     8.9370    74.8430     9.7400     8.0320    10.3210 
   92.3750     2.2070   -24.0540     9.2860     8.0440     9.2860    76.3970     9.8230     8.0580    10.5050 
   92.5000     2.2080   -24.1800     9.7300     7.9700     9.7300    73.2720     9.9160     8.0890    10.6850 
   92.6250     2.2030   -24.3020    10.1860     7.9650    10.1860    67.8950     9.9390     8.1010    10.4750 
   92.7500     2.1980   -24.3810    10.5660     7.9960    10.5660    66.0300     9.8940     8.0850    10.2850 
   92.8750     2.1990   -24.4050    10.8090     8.0120    10.8090    66.7110     9.8320     8.0470    10.3260 
   93.0000     2.2030   -24.3690    10.8830     7.9940    10.8830    67.5500     9.8090     8.0060    10.5530 
   93.1250     2.2040   -24.2640    10.7670     7.9570    10.7670    68.3360     9.8390     7.9750    10.7450 
   93.2500     2.1970   -24.0900    10.5440     7.9580    10.5440    67.8530     9.8620     7.9460    10.8470 
   93.3750     2.1860   -23.8430    10.2820     8.0050    10.2820    66.7660     9.8400     7.9090    10.7570 
   93.5000     2.1780   -23.5490    10.0550     8.0560    10.0550    67.8470     9.7810     7.8670    10.7590 
   93.6250     2.1790   -23.2640     9.9540     8.0770     9.9540    70.4050     9.7470     7.8340    10.6430 
   93.7500     2.1860   -23.0090     9.9510     8.0860     9.9510    69.1580     9.7620     7.8180    10.5250 
   93.8750     2.1910   -22.7540     9.9860     8.1260     9.9860    64.2420     9.7870     7.8120    10.4570 
   94.0000     2.1900   -22.4620     9.9980     8.2170     9.9980    61.3060     9.7510     7.8010    10.4120 
   94.1250     2.1820   -22.0680     9.9330     8.3180     9.9330    62.9850     9.6210     7.7820    10.9380 
   94.2500     2.1740   -21.5790     9.8570     8.3980     9.8570    65.1880     9.5100     7.7930    11.1530 
   94.3750     2.1730   -21.0540     9.8410     8.4850     9.8410    66.0560     9.5690     7.8930    11.1750 
   94.5000     2.1820   -20.5440     9.8820     8.6420     9.8820    65.8770     9.9140     8.1480    11.1920 
   94.6250     2.2010   -20.0570     9.9520     8.9700     9.9520    63.9630    10.5740     8.6080    11.8710 
   94.7500     2.2220   -19.5980    10.0980     9.4710    10.0980    62.1210    11.3240     9.1740    14.5230 
   94.8750     2.2380   -19.1980    10.4470    10.0570    10.4470    62.2580    11.9200     9.6940    22.0600 
   95.0000     2.2390   -18.8830    11.0900    10.5010    11.0900    64.4330    12.1420     9.9830    36.0750 
   95.1250     2.2210   -18.7040    11.8890    10.5100    11.8890    66.2940    11.8470     9.8620    26.7960 
   95.2500     2.1940   -18.6410    12.3900    10.1820    12.3900    66.0630    11.2610     9.4470    16.0440 
   95.3750     2.1680   -18.6470    12.2820     9.7300    12.2820    64.6170    10.6100     8.9110    12.4160 
   95.5000     2.1520   -18.6620    11.5480     9.3060    11.5480    63.4450    10.0830     8.4300    11.9730 
   95.6250     2.1470   -18.6790    10.5040     8.9890    10.5040    63.3030     9.8250     8.1510    11.9870 
   95.7500     2.1480   -18.7070     9.6250     8.8220     9.6250    62.8160     9.7920     8.0540    11.9650 
   95.8750     2.1530   -18.7220     9.0720     8.7610     9.0720    61.8550     9.9060     8.0800    12.0410 
   96.0000     2.1600   -18.6980     8.8170     8.7140     8.8170    62.8060    10.0510     8.1500    12.3080 
   96.1250     2.1730   -18.6040     8.8080     8.6870     8.8080    66.6410    10.1100     8.1990    12.4080 
   96.2500     2.1870   -18.4740     8.9390     8.7010     8.9390    69.7010    10.0680     8.2170    12.3380 
   96.3750     2.2000   -18.3170     9.1620     8.7110     9.1620    69.4800     9.9700     8.2190    12.1020 
