~V
VERS. 2.00: Ver 2.00
~W
STRT.M 60.0000:
STOP.M 284.0000:
STEP.M 0.1250:
NULL. -999.2500:
UWI. FZI118:
~C
DEPT.M :
DEN.GM/CC :
SP.MV :
R2M. :
R025. :
GR.API :
RML.OHMM :
RI. :
RXO.OHMM :
RA2. :
~A
# ...
  187.7500     2.2610   -16.0720    29.8310    43.3030   101.0280    41.8400    42.5890    40.5150    29.8310 
  187.8750     2.2620   -16.1490    31.4330    42.9940   101.7210    40.0110    40.9640    41.4210    31.4330 
  188.0000     2.2610   -16.2230    32.9810    42.6670    99.5660    38.7970    39.8210    42.7770    32.9810 
  188.1250     2.2590   -16.2770    34.5460    42.3250   100.4100    38.2020    39.2610    40.4830    34.5460 
  188.2500     2.2610   -16.3120    36.1330    42.0080   103.6310    37.8440    38.9370    38.7480    36.1330 
  188.3750     2.2640   -16.3340    37.6900    41.7450   102.9890    37.6180    38.7280    39.5740    37.6900 
  188.5000     2.2650   -16.3530    39.1760    41.5470    97.9660    37.5870    38.6730    40.3590    39.1760 
  188.6250     2.2660   -16.3860    40.5500    41.4830    96.7910    37.9840    38.9770    38.4060    40.5500 
  188.7500     2.2720   -16.4400    41.8230    41.6540    98.6460    38.9680    39.8010    37.5490    41.8230 
  188.8750     2.2790   -16.4620    43.0310    42.2050    98.8150    40.7180    41.3400    39.1910    43.0310 
  189.0000     2.2780   -16.4600    44.2830    43.2360    96.3980    43.2820    43.7010    43.4560    44.2830 
  189.1250     2.2650   -16.4680    45.7810    44.6460    96.2030    46.5750    46.7290    46.9050    45.7810 
  189.2500     2.2510   -16.4580    47.6010    46.0790    97.5380    50.0820    49.5510    49.1700    47.6010 
  189.3750     2.2410   -16.4430    49.7340    47.3710    95.7520    52.8720    51.8710    50.5640    49.7340 
  189.5000     2.2340   -16.4130    52.0820    48.5000    91.7260    54.9470    53.1820    50.9380    52.0820 
  189.6250     2.2310   -16.3410    54.5580    49.5040    88.3700    56.5460    53.6970    52.4540    54.5580 
  189.7500     2.2290   -16.2340    57.1170    50.4290    86.9970    58.2000    54.0090    54.8310    57.1170 
  189.8750     2.2240   -16.1370    59.7900    51.2140    87.6890    59.9800    54.2350    56.2590    59.7900 
  190.0000     2.2160   -16.0430    62.6210    51.6950    90.6930    61.5600    54.1780    56.4650    62.6210 
  190.1250     2.2090   -15.9050    65.6370    51.6410    93.0100    62.2040    53.3510    55.2940    65.6370 
  190.2500     2.2100   -15.7450    68.7730    51.0470    91.2910    61.4730    51.4980    53.9480    68.7730 
  190.3750     2.2200   -15.5680    72.0230    49.7980    87.9160    58.9790    48.3770    57.1970    72.0230 
  190.5000     2.2350   -15.3800    75.3610    47.6450    88.6870    54.4720    43.8650    68.7690    75.3610 
  190.6250     2.2510   -15.1720    78.4670    44.1770    92.6540    47.7180    37.9290    69.5950    78.4670 
  190.7500     2.2700   -14.9300    80.5860    39.8320    94.8110    39.8150    31.4050    51.9640    80.5860 
  190.8750     2.2910   -14.6740    80.8110    35.2020    97.6730    31.9990    25.1540    32.4140    80.8110 
  191.0000     2.3110   -14.4250    78.4430    30.8710   104.1510    25.3890    19.9440    22.7310    78.4430 
  191.1250     2.3250   -14.2100    72.9220    27.2520   111.7240    20.8200    16.4160    17.1990    72.9220 
  191.2500     2.3290   -14.0600    65.2830    24.3820   115.1710    17.9870    14.4010    14.3130    65.2830 
  191.3750     2.3290   -13.9730    56.4330    22.5140   114.0200    16.9290    14.1320    11.8820    56.4330 
  191.5000     2.3310   -13.9510    47.5130    22.0270   109.5340    18.3710    16.4420    12.1370    47.5130 
  191.6250     2.3290   -14.0300    40.1640    23.9910   101.0950    25.4110    23.8190    18.4620    40.1640 
  191.7500     2.3130   -14.1840    35.3530    28.6170    91.8340    40.8160    37.8880    33.4070    35.3530 
  191.8750     2.2800   -14.3940    33.5060    35.4850    86.7320    67.3630    60.3110    58.7490    33.5060 
  192.0000     2.2460   -14.6430    34.2150    43.1640    87.4060   102.3990    88.3410    75.9500    34.2150 
  192.1250     2.2260   -14.9110    36.4740    49.7080    86.0790   125.6200   104.5300    73.1780    36.4740 
  192.2500     2.2170   -15.1570    38.8020    54.6370    81.1160   122.7040    99.2260    64.9060    38.8020 
  192.3750     2.2130   -15.3810    40.5690    58.3770    78.6490   104.9900    84.4030    58.2460    40.5690 
  192.5000     2.2110   -15.5860    41.6520    61.6530    81.4310    89.5700    73.6840    55.3810    41.6520 
  192.6250     2.2130   -15.7560    42.2210    65.2230    83.0450    84.8500    72.2450    59.7880    42.2210 
  192.7500     2.2150   -15.9230    42.6840    69.3780    81.5740    88.1880    77.4160    71.2860    42.6840 
  192.8750     2.2150   -16.0990    43.2490    73.9710    80.5940    97.0430    87.4290    78.8850    43.2490 
  193.0000     2.2130   -16.2840    43.9840    78.6950    80.4710   109.2030   100.6790    77.2480    43.9840 
  193.1250     2.2110   -16.4710    44.8530    83.6410    78.8220   123.8860   116.5450    76.9280    44.8530 
  193.2500     2.2060   -16.6610    45.8490    89.1120    77.4060   141.8340   135.3080    84.6790    45.8490 
  193.3750     2.1940   -16.8550    47.1730    94.9930    76.3830   164.9500   158.4150    99.7240    47.1730 
  193.5000     2.1770   -17.0490    49.2550   100.8000    74.7510   193.1020   185.6610   112.3060    49.2550 
  193.6250     2.1620   -17.2480    53.1170   105.7200    72.6720   219.7650   210.2570   126.0050    53.1170 
  193.7500     2.1570   -17.4200    59.4080   109.2660    70.0930   234.4700   221.5430   126.8180    59.4080 
  193.8750     2.1640   -17.5500    68.6890   111.0890    68.0250   232.1890   215.5370   124.2930    68.6890 
  194.0000     2.1760   -17.6680    80.9610   111.3490    67.8350   217.1910   198.6210   121.2400    80.9610 
  194.1250     2.1890   -17.7630    95.6880   110.6080    69.7540   199.1450   181.1370   116.6360    95.6880 
  194.2500     2.1990   -17.8190   110.9650   109.5320    70.6980   184.8500   168.0020   113.1680   110.9650 
  194.3750     2.2060   -17.8560   125.3290   108.3170    69.3260   174.9100   158.9350   111.9270   125.3290 
  194.5000     2.2090   -17.8660   137.7450   107.1150    68.7160   167.7980   152.3480   110.4310   137.7450 
  194.6250     2.2070   -17.8500   147.6310   105.9620    72.3200   161.9240   146.9340   109.0720   147.6310 
  194.7500     2.1990   -17.8490   155.9060   104.6590    76.7230   156.2950   141.9370   107.8810   155.9060 
  194.8750     2.1880   -17.8530   163.3260   103.0800    78.2480   151.0230   137.5160   103.3790   163.3260 
  195.0000     2.1770   -17.8320   170.5240   101.3770    76.1900   146.7060   134.2030    93.3560   170.5240 
  195.1250     2.1720   -17.8070   177.9630    99.8470    74.8340   144.7950   133.3300    81.8890   177.9630 
  195.2500     2.1750   -17.8240   185.9870    98.5350    74.9080   146.5980   135.9840    77.4040   185.9870 
  195.3750     2.1820   -17.8510   195.0870    97.4840    74.2140   153.7690   143.5420    87.7840   195.0870 
  195.5000     2.1880   -17.9020   205.8100    96.8720    71.7750   167.5180   156.9660   102.9620   205.8100 
  195.6250     2.1870   -17.9630   218.8490    96.9640    69.5750   188.5250   176.7490   116.4590   218.8490 
  195.7500     2.1810   -18.0130   233.7870    97.3870    68.5240   212.2560   198.6310   127.4710   233.7870 
  195.8750     2.1730   -18.0620   250.3760    97.6700    67.5430   232.3640   216.2120   135.1570   250.3760 
  196.0000     2.1660   -18.1360   268.3690    97.4410    65.3630   241.0490   221.4800   147.7800   268.3690 
  196.1250     2.1590   -18.2140   287.7230    96.2060    64.2800   230.0690   206.8790   164.8730   287.7230 
  196.2500     2.1550   -18.2470   307.5510    93.7370    66.4060   204.3120   179.2280   169.4290   307.5510 
  196.3750     2.1540   -18.2520   326.2400    89.8780    70.8800   170.6810   146.5070   146.4120   326.2400 
  196.5000     2.1590   -18.2360   341.6250    84.8010    74.6630   136.8320   115.8430   114.7110   341.6250 
  196.6250     2.1700   -18.2210   350.1120    78.8710    74.6830   109.3290    92.2520    97.2090   350.1120 
  196.7500     2.1820   -18.1850   350.0830    72.9910    73.7970    88.9050    75.1780    79.0840   350.0830 
