~V
VERS. 2.00: Ver 2.00
~W
STRT.M 63.0000:
STOP.M 264.0000:
STEP.M 0.1250:
NULL. -999.2500:
UWI. FZI117T:
~C
DEPT.M :
SP.MV :
GR.API :
RI. :
RML.OHMM :
RXO.OHMM :
DEN.GM/CC :
~A
# ...
  140.2500   -27.9020    73.4260    12.0650    13.7760    12.6450     2.3980 
  140.3750   -27.6220    70.0110    12.2800    14.0530    29.7890     2.4180 
  140.5000   -27.4820    66.9320    11.6810    13.3140    50.0800     2.4180 
  140.6250   -27.2190    65.7440    10.5140    11.8460    45.9540     2.3920 
  140.7500   -27.0790    69.4040     9.2330    10.2330    23.0190     2.3440 
  140.8750   -26.8150    75.6190     8.2960     9.0640     8.9800     2.2930 
  141.0000   -26.6910    80.8170     7.8960     8.6460     7.5310     2.2530 
  141.1250   -26.7220    80.6500     8.1720     9.0950     8.9370     2.2260 
  141.2500   -27.1720    76.9850     8.9860    10.1090    10.0080     2.2130 
  141.3750   -27.8860    72.5610     9.9030    11.1210    10.5140     2.2050 
  141.5000   -28.5380    70.9060    10.5220    11.6730    11.4770     2.1960 
  141.6250   -29.1120    70.6070    10.7870    11.7820    12.1610     2.1810 
  141.7500   -29.4690    71.0670    10.7620    11.5890    12.0190     2.1650 
  141.8750   -29.5160    71.5150    10.5220    11.1880    11.2810     2.1510 
  142.0000   -29.5160    71.5150    10.1020    10.6350    10.2720     2.1460 
  142.1250   -29.5160    71.0680     9.6860    10.1580     9.3840     2.1540 
  142.2500   -29.3680    68.6300     9.5260    10.0360     9.0890     2.1810 
  142.3750   -28.9260    67.8800     9.6850    10.3300     9.3220     2.2260 
  142.5000   -28.7160    68.2050     9.9830    10.8000    10.0350     2.2780 
  142.6250   -28.5530    70.5440    10.1030    11.0350    12.2230     2.3140 
  142.7500   -27.7930    71.2590     9.8150    10.7340    14.0240     2.3180 
  142.8750   -27.4670    73.1080     9.1670     9.9680    10.9580     2.2970 
  143.0000   -26.9700    76.0010     8.3930     9.0600     8.2490     2.2700 
  143.1250   -26.5670    81.4390     7.7980     8.4040     7.5000     2.2530 
  143.2500   -26.3030    83.7070     7.6340     8.2880     7.5630     2.2530 
  143.3750   -26.2870    82.6490     7.9400     8.7060     7.9300     2.2700 
  143.5000   -26.5670    77.2400     8.8120     9.7370     9.1910     2.3010 
  143.6250   -27.1880    72.5930    10.1740    11.3040    10.3540     2.3370 
  143.7500   -27.4900    70.0500    11.9650    13.3450    12.4780     2.3730 
  143.8750   -27.7100    69.2230    14.1450    15.8490    18.2300     2.4000 
  144.0000   -28.1110    68.4600    16.7230    18.8320    22.2520     2.4050 
  144.1250   -28.5740    66.9670    19.2990    21.6970    21.3540     2.3920 
  144.2500   -28.9100    65.3590    20.9320    23.3830    23.2290     2.3710 
  144.3750   -29.1430    62.6540    21.4170    23.7540    24.8650     2.3510 
  144.5000   -29.4460    60.2410    20.8210    22.9180    21.2370     2.3260 
  144.6250   -29.6710    58.1110    19.7450    21.6830    15.5750     2.2970 
  144.7500   -29.8800    57.9600    18.7720    20.6680    12.2390     2.2750 
  144.8750   -29.9190    57.9420    17.8840    19.7570    13.2940     2.2720 
  145.0000   -29.9190    59.5410    17.0360    18.9050    15.8450     2.2860 
  145.1250   -29.9190    60.3170    16.4690    18.3530    17.2940     2.3030 
  145.2500   -29.9190    59.9050    16.2180    18.1080    17.2250     2.3100 
  145.3750   -29.9970    57.8800    16.1680    18.0540    16.2840     2.3090 
  145.5000   -30.4780    56.9300    16.3090    18.2010    16.7290     2.3080 
  145.6250   -30.7260    57.7960    16.6110    18.5010    19.0010     2.3110 
  145.7500   -30.7260    60.3280    17.0220    18.8890    20.2390     2.3150 
  145.8750   -30.7260    62.3490    17.6000    19.4770    19.8140     2.3200 
  146.0000   -30.7260    62.5650    18.4660    20.4230    20.0180     2.3330 
  146.1250   -30.7260    62.2700    19.5700    21.6550    22.0630     2.3590 
  146.2500   -30.7260    62.5520    20.6380    22.8210    27.5130     2.3960 
  146.3750   -30.7260    64.8800    21.4240    23.6300    36.2820     2.4290 
  146.5000   -30.7260    66.6230    21.7760    23.8930    38.5560     2.4450 
  146.6250   -30.7260    67.6160    21.5120    23.4400    29.7770     2.4470 
  146.7500   -30.7260    66.3190    20.7000    22.4380    22.9710     2.4450 
  146.8750   -30.7260    65.9450    19.6030    21.1970    23.3870     2.4390 
  147.0000   -30.7260    65.3840    18.4830    20.0130    23.4680     2.4280 
  147.1250   -30.7260    64.6600    17.6070    19.0920    20.1740     2.4120 
  147.2500   -30.7260    62.4870    16.7870    18.1770    16.9650     2.3990 
  147.3750   -30.7260    60.9590    15.9560    17.2320    15.6220     2.3920 
  147.5000   -30.7260    61.2210    15.2330    16.4260    15.4070     2.3880 
  147.6250   -30.7260    62.3510    14.8100    15.9890    15.2590     2.3840 
  147.7500   -30.6950    63.6750    14.7240    15.9130    15.2540     2.3800 
  147.8750   -30.2450    64.3240    14.7790    15.9790    15.3050     2.3770 
  148.0000   -30.2810    63.3390    14.9190    16.1410    15.7660     2.3780 
  148.1250   -30.4680    61.6490    15.1220    16.3640    16.6440     2.3820 
  148.2500   -30.6950    59.7710    15.2840    16.5210    16.6400     2.3870 
  148.3750   -30.7370    59.2970    15.3090    16.5130    16.1370     2.3900 
  148.5000   -30.9330    58.7200    15.1660    16.3150    16.1170     2.3890 
  148.6250   -31.2640    59.0400    14.9110    15.9980    15.7420     2.3860 
  148.7500   -31.6420    59.5840    14.6730    15.7170    14.7450     2.3840 
  148.8750   -31.9220    60.1750    14.5780    15.6220    14.2480     2.3860 
  149.0000   -31.9370    59.8870    14.7380    15.8300    14.8630     2.3870 
  149.1250   -31.9370    60.1420    15.1080    16.2740    16.8470     2.3840 
  149.2500   -31.9370    61.5250    15.5960    16.8230    19.9750     2.3820 
  149.3750   -31.9370    63.9320    16.1020    17.3460    21.1810     2.3850 
  149.5000   -31.9370    65.1940    16.4550    17.6500    19.8100     2.3940 
  149.6250   -31.9370    65.0140    16.5310    17.6340    23.6000     2.4020 
  149.7500   -32.0150    64.1920    16.3410    17.3480    30.7370     2.4030 
  149.8750   -32.3100    64.0600    16.0600    16.9990    28.4150     2.3960 
  150.0000   -32.3410    63.3910    15.8810    16.7880    20.0590     2.3900 
  150.1250   -32.3410    62.2280    15.8520    16.7510    16.4410     2.3910 
  150.2500   -32.3410    60.8800    15.8610    16.7480    17.3850     2.3970 
  150.3750   -32.3410    60.7150    15.7980    16.6620    18.9430     2.3990 
  150.5000   -32.2630    61.4940    15.6100    16.4280    18.6990     2.3870 
  150.6250   -31.9370    62.4620    15.2890    16.0370    16.9060     2.3650 
  150.7500   -31.4710    63.2170    14.9270    15.6250    15.4090     2.3440 
  150.8750   -31.0210    64.0360    14.8190    15.5330    14.8390     2.3330 
  151.0000   -30.7420    65.5880    15.2550    16.0720    15.0140     2.3410 
  151.1250   -30.6490    67.5660    16.1660    17.1190    16.7950     2.3660 
  151.2500   -30.2300    68.1780    17.2970    18.3480    21.3910     2.3980 
  151.3750   -29.9350    67.2660    18.2730    19.3530    25.7100     2.4190 
  151.5000   -29.9190    65.4380    18.9660    20.0270    24.6000     2.4200 
  151.6250   -29.8420    66.0330    19.4390    20.4760    20.4000     2.4130 
  151.7500   -29.4850    68.8360    19.7060    20.7690    19.3860     2.4130 
  151.8750   -29.1430    70.6760    19.9080    21.0510    21.5270     2.4210 
  152.0000   -29.1120    70.3010    20.0220    21.2370    23.6560     2.4270 
  152.1250   -29.1120    68.5610    20.0100    21.2620    24.5920     2.4260 
  152.2500   -29.1280    68.7900    19.8970    21.1600    22.9360     2.4200 
  152.3750   -29.4430    68.2470    19.8140    21.1280    20.0880     2.4120 
  152.5000   -29.8520    65.9940    20.1680    21.6800    19.8910     2.4030 
  152.6250   -30.1930    62.0150    21.2300    23.0770    23.0910     2.3970 
  152.7500   -30.5970    58.2900    22.5570    24.6940    29.3310     2.4000 
  152.8750   -31.0060    56.7110    23.2870    25.4870    35.8400     2.4090 
  153.0000   -31.1300    55.4890    22.8680    24.8470    35.4160     2.4130 
