~V
VERS. 2.00: Ver 2.00
~W
STRT.M 60.0000:
STOP.M 289.0000:
STEP.M 0.1250:
NULL. -999.2500:
UWI. FZI117:
~C
DEPT.M :
DEN.GM/CC :
SP.MV :
R2M. :
R025. :
RA2. :
GR.API :
RML.OHMM :
RI. :
RXO.OHMM :
~A
# ...
  160.3750     2.4800    -8.8770    21.2910    13.1600    21.2910    79.4160    16.6230    17.4700    24.5080 
  160.5000     2.4420    -8.8920    18.9810    11.0420    18.9810    84.3430    12.8510    13.6510    16.8460 
  160.6250     2.4230    -8.8230    15.9050    10.0170    15.9050    85.0520    10.4590    10.8080    10.5260 
  160.7500     2.4120    -8.6930    12.8050     9.5840    12.8050    85.1080     9.2730     9.1260     8.6890 
  160.8750     2.4010    -8.5120    10.1170     9.4700    10.1170    86.8010     9.0100     8.4350     8.4960 
  161.0000     2.3900    -8.2980     8.0920     9.5880     8.0920    87.8330     9.3890     8.5040     8.9290 
  161.1250     2.3800    -8.0610     6.9530     9.8310     6.9530    84.1570    10.1260     9.1150     9.2670 
  161.2500     2.3760    -7.8030     6.4980     9.9340     6.4980    79.6510    10.7720     9.8250    10.4860 
  161.3750     2.3780    -7.5260     6.5050     9.7400     6.5050    79.2810    10.9910    10.2810    12.6250 
  161.5000     2.3860    -7.2530     6.6670     9.2720     6.6670    82.9460    10.6030    10.2400    14.3800 
  161.6250     2.3940    -7.0190     6.6750     8.7320     6.6750    87.4040     9.6530     9.6240    10.8550 
  161.7500     2.3940    -6.8250     6.5060     8.3270     6.5060    90.4010     8.5770     8.7700     7.9830 
  161.8750     2.3820    -6.6720     6.3540     8.1210     6.3540    91.7230     7.7030     7.9620     7.1130 
  162.0000     2.3610    -6.5670     6.4770     8.1280     6.4770    92.1400     7.2760     7.4400     7.2680 
  162.1250     2.3440    -6.4980     7.1700     8.4440     7.1700    90.5290     7.5800     7.4900     7.4960 
  162.2500     2.3510    -6.4570     8.4360     9.1760     8.4360    86.1950     8.6300     8.1870     7.7800 
  162.3750     2.3920    -6.4420    10.2490    10.4090    10.2490    79.4740    10.4350     9.5940     9.4240 
  162.5000     2.4620    -6.4440    12.4720    11.9250    12.4720    72.7500    12.7660    11.5760    13.7810 
  162.6250     2.5370    -6.4260    14.7330    12.9470    14.7330    67.7260    14.8310    13.5390    21.7860 
  162.7500     2.5850    -6.3850    16.4260    12.9660    16.4260    66.8960    15.6560    14.5940    23.4730 
  162.8750     2.5870    -6.3200    17.0480    12.2230    17.0480    73.2240    14.8440    14.2650    19.3720 
  163.0000     2.5430    -6.2460    16.3400    11.3980    16.3400    83.9290    12.8920    12.7950    13.6370 
  163.1250     2.4670    -6.2000    14.3510    11.0680    14.3510    90.1260    10.9400    11.0430     9.1080 
  163.2500     2.3970    -6.1780    12.0050    11.3260    12.0050    89.1900     9.8490     9.8600     7.8590 
  163.3750     2.3600    -6.1610    10.0650    12.2510    10.0650    83.5940     9.9110     9.6100     8.4860 
  163.5000     2.3700    -6.1470     9.0760    13.9280     9.0760    76.1300    11.1960    10.4440    10.1370 
  163.6250     2.4260    -6.1430     9.2990    16.3970     9.2990    70.0200    13.8440    12.5650    14.4370 
  163.7500     2.4950    -6.1550    10.1400    19.1090    10.1400    67.1530    17.4560    15.5750    21.3420 
  163.8750     2.5520    -6.1810    11.1290    21.5520    11.1290    65.8590    21.5020    18.9750    27.6770 
  164.0000     2.5850    -6.1880    11.9900    23.5010    11.9900    63.3450    24.9510    22.0870    27.0610 
  164.1250     2.5920    -6.1550    12.6700    25.0290    12.6700    59.8760    26.9830    24.2140    23.6580 
  164.2500     2.5880    -6.1010    13.3420    26.4090    13.3420    58.1230    28.0090    25.5040    23.5330 
  164.3750     2.5830    -6.0480    14.1500    27.7160    14.1500    58.9830    28.6660    26.3690    25.6560 
  164.5000     2.5810    -5.9970    15.2000    28.8960    15.2000    60.8290    29.4770    27.2650    28.8140 
  164.6250     2.5860    -5.9750    16.6640    29.8720    16.6640    61.1260    30.7610    28.4970    30.3070 
  164.7500     2.5960    -5.9810    18.5360    30.7010    18.5360    59.6620    32.3380    29.9550    32.8600 
  164.8750     2.6090    -6.0040    20.6720    31.3720    20.6720    58.6940    33.9120    31.3990    35.9540 
  165.0000     2.6200    -6.0560    22.7660    31.8600    22.7660    59.9880    35.1350    32.5440    37.7350 
  165.1250     2.6260    -6.1290    24.4120    32.0430    24.4120    61.3890    35.6150    33.0490    36.3240 
  165.2500     2.6280    -6.2050    25.5050    31.9240    25.5050    60.7200    35.4110    32.9320    35.3300 
  165.3750     2.6260    -6.2670    26.2050    31.6250    26.2050    58.9170    34.7070    32.3030    35.6080 
  165.5000     2.6210    -6.3170    26.8810    31.2310    26.8810    57.4630    33.8080    31.3980    33.2850 
  165.6250     2.6130    -6.3270    28.0080    30.7980    28.0080    56.2560    33.0760    30.5500    30.6670 
  165.7500     2.6030    -6.3000    29.7870    30.4680    29.7870    56.0690    32.6750    29.9970    29.5270 
  165.8750     2.5950    -6.2650    32.2290    30.2760    32.2290    57.9130    32.5760    29.8010    30.5300 
  166.0000     2.5910    -6.2350    35.1510    30.1600    35.1510    60.3960    32.6190    29.8780    30.7060 
  166.1250     2.5970    -6.2200    38.2540    29.9790    38.2540    60.9580    32.5660    30.0340    31.4060 
  166.2500     2.6060    -6.2310    41.0590    29.6450    41.0590    60.6030    32.3030    30.0720    31.7300 
  166.3750     2.6080    -6.2570    43.2820    29.2340    43.2820    59.6620    31.8690    29.9430    30.1020 
  166.5000     2.6010    -6.2700    44.9210    28.9230    44.9210    57.3950    31.4170    29.7070    27.6180 
  166.6250     2.5910    -6.2730    46.1100    28.7940    46.1100    54.4780    31.1460    29.4930    27.4250 
  166.7500     2.5900    -6.2750    47.2450    28.6630    47.2450    53.5000    31.1050    29.3830    29.0790 
  166.8750     2.5990    -6.2730    48.5250    28.3880    48.5250    53.9350    31.2360    29.3720    32.0820 
  167.0000     2.6110    -6.2620    49.8380    27.9270    49.8380    54.5000    31.3850    29.3730    33.5900 
  167.1250     2.6140    -6.2480    51.0470    27.3090    51.0470    56.9070    31.2810    29.1970    27.3010 
  167.2500     2.6080    -6.2280    52.1110    26.5440    52.1110    60.9600    30.7890    28.7310    24.8760 
  167.3750     2.5990    -6.2260    52.8900    25.6410    52.8900    64.3450    29.8700    27.9450    26.5950 
  167.5000     2.5920    -6.2730    53.2690    24.7020    53.2690    64.5940    28.5870    26.8960    27.5750 
  167.6250     2.5870    -6.3790    52.8950    23.7550    52.8950    63.4060    27.0710    25.7050    24.0220 
  167.7500     2.5810    -6.5130    51.7310    22.8120    51.7310    64.8170    25.5620    24.5440    21.3530 
  167.8750     2.5750    -6.6690    49.9970    21.9700    49.9970    68.3590    24.2210    23.5040    21.0730 
  168.0000     2.5720    -6.8320    48.0510    21.2690    48.0510    71.5000    23.1430    22.6230    21.7370 
  168.1250     2.5760    -7.0060    46.3670    20.6620    46.3670    73.0060    22.3750    21.9220    21.9140 
  168.2500     2.5820    -7.1940    45.1510    20.0750    45.1510    74.6410    21.7820    21.3250    21.4670 
  168.3750     2.5840    -7.3830    44.2090    19.4700    44.2090    75.7870    21.2570    20.7650    20.9550 
  168.5000     2.5760    -7.5510    43.1830    18.8380    43.1830    75.7030    20.7370    20.1910    20.1530 
  168.6250     2.5600    -7.6420    41.7100    18.2870    41.7100    75.0770    20.2270    19.5940    18.6150 
  168.7500     2.5420    -7.6690    39.8470    17.8730    39.8470    74.4410    19.7560    19.0040    17.0190 
  168.8750     2.5300    -7.6270    37.9410    17.5330    37.9410    73.6920    19.3200    18.4410    16.3470 
  169.0000     2.5260    -7.5300    36.3880    17.1650    36.3880    73.7880    18.8840    17.9160    16.7870 
  169.1250     2.5290    -7.3880    35.3480    16.7870    35.3480    74.4480    18.4080    17.4420    17.5720 
  169.2500     2.5310    -7.2060    34.5140    16.5410    34.5140    73.5450    17.9250    17.0380    17.6760 
  169.3750     2.5300    -7.0060    33.6390    16.4580    33.6390    71.7590    17.5260    16.7630    16.2530 
