~V
VERS. 2.00: Ver 2.00
~W
STRT.M 63.0000:
STOP.M 264.0000:
STEP.M 0.1250:
NULL. -999.2500:
UWI. FZI117T:
~C
DEPT.M :
SP.MV :
GR.API :
RI. :
RML.OHMM :
RXO.OHMM :
DEN.GM/CC :
~A
# ...
  191.7500   -44.5240    57.5500   252.3930   265.5910   259.5110     2.0960 
  191.8750   -44.5240    55.8890   236.7680   247.4060   222.7750     2.1010 
  192.0000   -44.5300    56.6730   216.5920   225.7600   182.7850     2.1060 
  192.1250   -44.6240    57.8050   198.5020   207.6470   157.8810     2.1100 
  192.2500   -44.9270    58.9230   189.1560   199.5760   158.8650     2.1110 
  192.3750   -45.2310    59.3000   190.6850   203.2020   180.3320     2.1080 
  192.5000   -45.3250    59.6370   200.5040   215.5380   179.5710     2.1030 
  192.6250   -45.3310    58.1390   214.6210   232.2410   181.1240     2.0970 
  192.7500   -45.3310    56.4190   229.7080   249.6490   180.0020     2.0930 
  192.8750   -45.3310    55.9590   242.7770   264.7490   216.2550     2.0910 
  193.0000   -45.3310    56.3380   254.7170   278.7960   318.6810     2.0900 
  193.1250   -45.3310    58.2950   267.4630   293.9810   399.0840     2.0880 
  193.2500   -45.3310    61.1010   282.2970   311.8170   323.0510     2.0820 
  193.3750   -45.3290    63.2360   300.4860   333.3940   410.8130     2.0710 
  193.5000   -45.2620    62.1620   319.8590   355.5790   531.3860     2.0590 
  193.6250   -45.0260    58.3960   335.6700   373.2190   490.0470     2.0510 
  193.7500   -44.8800    54.2980   345.9610   384.1740   597.9220     2.0520 
  193.8750   -45.0880    52.1720   349.0950   387.2440   749.0130     2.0560 
  194.0000   -45.4330    52.8070   342.9840   380.1380   599.8170     2.0610 
  194.1250   -45.8070    54.1170   321.5690   354.7590   389.9260     2.0660 
  194.2500   -46.0680    53.6050   281.0850   307.3770   303.4340     2.0710 
  194.3750   -46.1370    51.8450   226.3510   244.8990   260.0830     2.0810 
  194.5000   -46.1380    51.7060   171.7910   184.8230   176.7890     2.0990 
  194.6250   -46.1380    54.2690   131.5750   142.4300   123.2940     2.1260 
  194.7500   -46.1380    58.3860   111.2340   122.3890   105.2940     2.1480 
  194.8750   -46.1380    59.7840   108.8710   121.5770   131.9720     2.1490 
  195.0000   -46.1380    57.3040   122.6570   138.8210   290.4370     2.1220 
  195.1250   -46.1270    52.7590   152.1270   173.8930   463.5920     2.0830 
  195.2500   -45.9890    50.5480   189.9730   215.9920   490.2930     2.0530 
  195.3750   -45.6610    50.4490   210.8620   235.5390   401.5150     2.0400 
  195.5000   -45.4010    51.6820   200.3570   219.1220   289.8800     2.0420 
  195.6250   -45.3320    52.3650   163.4950   174.5360   222.9410     2.0580 
  195.7500   -45.3310    53.6530   117.0780   122.8050   141.3070     2.0870 
  195.8750   -45.3310    56.0690    83.8880    87.9910    77.5990     2.1180 
  196.0000   -45.3310    58.8740    66.3380    69.7870    59.4210     2.1360 
  196.1250   -45.3310    60.7980    57.7020    60.7810    49.4590     2.1380 
  196.2500   -45.3470    60.1100    54.5170    57.3930    55.2720     2.1320 
  196.3750   -45.5190    57.9490    53.0280    55.6370    61.4100     2.1320 
  196.5000   -46.0680    56.6370    51.9330    54.1630    64.5820     2.1440 
  196.6250   -46.6770    56.7610    50.7280    52.5450    57.2590     2.1590 
  196.7500   -46.9170    59.1540    49.4170    50.8760    50.5770     2.1730 
  196.8750   -46.9440    61.1640    48.1120    49.3370    49.5970     2.1840 
  197.0000   -46.8970    62.5170    46.9140    48.0780    52.1540     2.1930 
  197.1250   -46.6420    62.0270    46.2180    47.5180    50.3530     2.1980 
  197.2500   -46.0740    61.8810    46.5160    48.1360    47.7960     2.1960 
  197.3750   -45.4540    62.4650    47.9650    50.0990    45.9070     2.1850 
  197.5000   -44.9530    63.0810    50.5750    53.4350    47.7960     2.1700 
  197.6250   -44.6240    62.2310    53.5810    57.1990    53.0040     2.1540 
  197.7500   -44.5300    61.0420    55.6380    59.7740    68.0830     2.1400 
  197.8750   -44.5240    60.6420    55.8840    60.2550    79.0420     2.1310 
  198.0000   -44.5300    60.6010    54.9010    59.4300    72.3790     2.1260 
  198.1250   -44.6240    60.7320    54.2840    59.1860    57.6570     2.1240 
  198.2500   -44.9270    62.4940    55.9950    61.7320    58.9590     2.1180 
  198.3750   -45.2310    65.2640    61.5680    68.6740    83.7570     2.1070 
  198.5000   -45.3250    65.6090    71.4160    80.2310    96.9560     2.0950 
  198.6250   -45.3310    61.9480    82.3930    92.1460    87.0490     2.0830 
  198.7500   -45.3310    58.2480    89.8630    99.4610    94.5270     2.0780 
  198.8750   -45.3310    57.3230    91.2930    99.8330   111.9410     2.0860 
  199.0000   -45.3310    60.2100    87.3530    94.6290   103.5430     2.1050 
  199.1250   -45.3310    63.5160    81.7060    88.3710    79.0530     2.1250 
  199.2500   -45.3250    64.2730    76.4930    82.8170    62.4240     2.1320 
  199.3750   -45.2250    62.9100    70.5330    76.1750    63.1860     2.1300 
  199.5000   -44.7930    61.0180    62.2870    66.9850    63.4370     2.1290 
  199.6250   -44.0220    60.8740    52.7600    56.5690    49.5050     2.1350 
  199.7500   -43.2890    60.6110    44.6530    47.9600    36.1630     2.1450 
  199.8750   -42.9550    60.6200    39.5640    42.9300    32.7910     2.1430 
  200.0000   -42.9210    59.7970    39.0060    42.9950    47.0340     2.1180 
  200.1250   -43.0220    58.9840    42.1660    47.2390    75.6450     2.0800 
  200.2500   -43.3130    55.9220    49.3940    55.9360    99.1040     2.0480 
  200.3750   -43.6040    54.1370    58.5320    66.3960   107.0380     2.0390 
  200.5000   -43.7220    53.1270    66.8600    75.6740    96.8530     2.0560 
  200.6250   -43.8660    54.8310    72.5290    81.9100    76.1470     2.0850 
  200.7500   -44.1900    55.1490    73.9910    83.7170    53.8830     2.1100 
  200.8750   -44.4540    55.0600    73.2190    83.3540    54.0530     2.1260 
  201.0000   -44.5240    53.8720    71.3780    81.8390    92.2770     2.1360 
  201.1250   -44.5930    52.6560    69.1550    79.8440   107.7780     2.1450 
  201.2500   -44.8580    52.2890    67.1600    78.0940    81.1060     2.1570 
  201.3750   -45.1820    52.6140    66.0100    77.3880    71.8570     2.1630 
  201.5000   -45.3150    54.7920    66.7650    79.0660    86.1360     2.1560 
  201.6250   -45.2920    56.1600    70.2050    83.9970   101.7970     2.1390 
  201.7500   -45.0670    55.7590    77.3460    93.2230   107.3810     2.1200 
  201.8750   -44.7220    53.6580    87.8330   106.4130   127.0990     2.1000 
  202.0000   -44.5490    51.7650    99.7660   121.2300   272.8980     2.0790 
  202.1250   -44.5240    48.7680   108.4650   131.3640   416.6530     2.0600 
  202.2500   -44.5240    46.6020   106.5890   128.0570   322.7920     2.0570 
  202.3750   -44.5240    45.5530    94.1260   111.9470   156.6240     2.0740 
  202.5000   -44.5240    48.8160    75.5820    89.1320    80.1690     2.1060 
  202.6250   -44.5230    52.1050    58.1830    68.7430    50.4780     2.1380 
  202.7500   -44.4980    55.5110    48.4070    58.0380    44.2580     2.1530 
  202.8750   -44.3570    54.9590    45.2570    55.3530    51.1140     2.1430 
  203.0000   -44.0560    55.0400    48.4660    60.3480    68.4540     2.1200 
  203.1250   -43.7790    53.1670    55.8870    70.4270    81.7480     2.1020 
  203.2500   -43.4920    52.4460    65.6570    83.1290    81.1300     2.0930 
  203.3750   -42.9360    49.9160    76.1700    96.4790    76.8570     2.0790 
  203.5000   -42.1440    48.2010    84.4150   106.4330    98.8760     2.0520 
  203.6250   -41.4340    47.4610    85.4060   106.8850   225.4460     2.0230 
  203.7500   -40.8930    48.4890    78.7210    97.9750   395.5190     2.0180 
  203.8750   -40.3780    49.8370    67.5930    83.5770   350.8330     2.0470 
  204.0000   -39.7270    51.0410    55.4550    68.3000   141.6090     2.0940 
  204.1250   -38.8070    52.5230    46.9480    57.8280    42.9210     2.1300 
  204.2500   -37.7570    54.6100    40.5890    50.3180    44.4260     2.1440 
  204.3750   -36.7470    58.6550    35.1720    44.2360    40.4550     2.1540 
  204.5000   -35.6760    63.8230    29.7850    38.0000    32.3900     2.1800 
