~V
VERS. 2.00: Ver 2.00
~W
STRT.M 60.0000:
STOP.M 289.0000:
STEP.M 0.1250:
NULL. -999.2500:
UWI. FZI117:
~C
DEPT.M :
DEN.GM/CC :
SP.MV :
R2M. :
R025. :
RA2. :
GR.API :
RML.OHMM :
RI. :
RXO.OHMM :
~A
# ...
   78.2500     2.2980   -18.1740    13.3590    10.1880    13.3590    64.9120     9.6020     9.1510    13.0730 
   78.3750     2.2540   -18.0750    10.6480     9.7780    10.6480    62.1280     9.3730     8.5030    13.1740 
   78.5000     2.2210   -17.8650     8.5330     9.5660     8.5330    63.2410     9.6440     8.4010    13.5070 
   78.6250     2.1980   -17.4790     7.3560     9.4390     7.3560    64.5270    10.1750     8.6700    13.7260 
   78.7500     2.1810   -16.9220     6.8510     9.3200     6.8510    63.4900    10.6750     9.0380    13.7090 
   78.8750     2.1720   -16.1490     6.8190     9.1810     6.8190    60.7230    10.9390     9.3310    13.3760 
   79.0000     2.1750   -15.1910     7.1090     8.9670     7.1090    60.2450    10.8110     9.3920    13.1320 
   79.1250     2.1970   -14.0740     7.6160     8.4900     7.6160    67.5810    10.1460     9.0430    13.0630 
   79.2500     2.2340   -12.8280     8.2150     7.6970     8.2150    79.7040     9.1180     8.3450    12.5750 
   79.3750     2.2790   -11.5690     8.8400     6.7420     8.8400    92.7280     7.9340     7.4210    10.6730 
   79.5000     2.3190   -10.4410     9.3990     5.9100     9.3990   103.0540     6.8290     6.4570     7.2430 
   79.6250     2.3450    -9.5280     9.7960     5.4080     9.7960   109.2490     6.0450     5.6710     5.7140 
   79.7500     2.3580    -8.8510    10.0090     5.1120    10.0090   111.6160     5.6270     5.1590     5.2450 
   79.8750     2.3630    -8.4750    10.0100     4.9720    10.0100   108.8710     5.5880     4.9550     5.2970 
   80.0000     2.3630    -8.3830     9.8310     5.0470     9.8310   102.7500     5.9040     5.0530     5.6000 
   80.1250     2.3580    -8.5520     9.5280     5.3880     9.5280    94.4470     6.5520     5.4460     5.7230 
   80.2500     2.3440    -8.8920     9.1940     5.8960     9.1940    85.7870     7.3570     6.0050     6.2930 
   80.3750     2.3170    -9.2780     8.8940     6.4910     8.8940    78.5510     8.1620     6.6190     7.8140 
   80.5000     2.2820    -9.5900     8.6720     7.0580     8.6720    75.0610     8.7930     7.1530     9.5320 
   80.6250     2.2490    -9.7290     8.6450     7.4440     8.6450    77.0970     9.0640     7.4480     9.9310 
   80.7500     2.2340    -9.7180     8.9170     7.6030     8.9170    81.6270     9.0600     7.5160     9.5700 
   80.8750     2.2500    -9.6110     9.5680     7.4760     9.5680    87.3870     8.9500     7.4580     8.9270 
   81.0000     2.2940    -9.4310    10.5920     7.1840    10.5920    92.2090     8.9350     7.4280     8.4270 
   81.1250     2.3530    -9.2170    11.7530     7.3000    11.7530    91.7340     9.1610     7.5690     8.7790 
   81.2500     2.4040    -9.0760    12.6030     7.9480    12.6030    87.7180     9.5240     7.8350     9.9440 
   81.3750     2.4350    -9.0500    12.8960     8.6320    12.8960    85.4810     9.8250     8.0940    12.5990 
   81.5000     2.4370    -9.1550    12.5800     8.7950    12.5800    89.5790     9.8370     8.1710    18.2650 
   81.6250     2.4120    -9.4530    11.6950     8.3640    11.6950    97.6590     9.3990     7.9160    15.0130 
   81.7500     2.3710    -9.8900    10.5480     7.8590    10.5480   103.4740     8.7330     7.4570     9.4300 
   81.8750     2.3280   -10.4080     9.2770     7.4680     9.2770   103.7040     8.0920     6.9690     7.6850 
   82.0000     2.2920   -10.9910     7.9690     7.2030     7.9690    99.8330     7.6710     6.6100     7.8120 
   82.1250     2.2750   -11.5730     6.8210     7.0800     6.8210    95.3730     7.5930     6.4930     7.9650 
   82.2500     2.2690   -12.1100     6.0340     7.0410     6.0340    93.0690     7.7660     6.5670     7.8190 
   82.3750     2.2680   -12.6420     5.6760     7.0690     5.6760    93.6910     8.0990     6.7640     7.6410 
   82.5000     2.2670   -13.1320     5.6460     7.1900     5.6460    95.4670     8.5100     7.0140     7.5170 
   82.6250     2.2640   -13.5420     5.7530     7.3920     5.7530    93.4190     8.9420     7.2720     7.9510 
   82.7500     2.2590   -13.9000     5.8460     7.5840     5.8460    88.9100     9.3500     7.5230     8.6380 
   82.8750     2.2480   -14.1760     5.9320     7.7340     5.9320    84.3490     9.7020     7.7610     9.2740 
   83.0000     2.2320   -14.3390     6.1000     7.8190     6.1000    80.4820     9.9680     7.9720     9.6950 
   83.1250     2.2120   -14.3630     6.4460     7.7940     6.4460    77.9360    10.0920     8.1250     9.9860 
   83.2500     2.1950   -14.2440     6.9110     7.6760     6.9110    78.1900    10.0440     8.1860    10.2240 
   83.3750     2.1870   -13.9230     7.4090     7.4870     7.4090    80.1050     9.7730     8.1050    10.3580 
   83.5000     2.1880   -13.4470     7.9120     7.2370     7.9120    82.4000     9.2580     7.8390    10.2820 
   83.6250     2.2000   -12.8650     8.4580     6.8490     8.4580    85.5800     8.5370     7.3710     9.4590 
   83.7500     2.2190   -12.2010     8.9810     6.3350     8.9810    90.7780     7.8020     6.8170     8.0780 
   83.8750     2.2420   -11.4960     9.3130     5.7960     9.3130    96.9780     7.2080     6.2950     6.7470 
   84.0000     2.2610   -10.8090     9.3100     5.3990     9.3100   101.9450     6.8520     5.9070     5.7360 
   84.1250     2.2670   -10.2630     8.9250     5.2940     8.9250   102.9670     6.7820     5.7350     5.5400 
   84.2500     2.2600    -9.8870     8.4010     5.3850     8.4010   100.7490     6.8890     5.7210     5.8200 
   84.3750     2.2480    -9.6990     7.9460     5.5110     7.9460    98.3430     7.0880     5.7980     6.4490 
   84.5000     2.2420    -9.6790     7.6540     5.5520     7.6540    99.4710     7.3010     5.8960     6.7950 
   84.6250     2.2500    -9.8370     7.5040     5.5160     7.5040   104.5440     7.4800     5.9710     6.4160 
   84.7500     2.2670   -10.1700     7.4350     5.5000     7.4350   107.3300     7.6250     6.0300     5.9460 
   84.8750     2.2830   -10.6250     7.4720     5.5670     7.4720   104.3180     7.7560     6.0950     5.8310 
   85.0000     2.2930   -11.1550     7.6390     5.7390     7.6390    99.0540     7.8820     6.1790     6.1950 
   85.1250     2.2920   -11.7360     7.8770     5.9870     7.8770    95.6810     7.9710     6.2670     6.9850 
   85.2500     2.2860   -12.3260     8.0090     6.2550     8.0090    91.7740     7.9780     6.3240     7.6810 
   85.3750     2.2760   -12.8980     7.9130     6.4900     7.9130    88.2020     7.8990     6.3440     7.7550 
   85.5000     2.2640   -13.4670     7.5980     6.6600     7.5980    88.4010     7.8290     6.3710     7.4480 
   85.6250     2.2510   -14.0620     7.2730     6.8870     7.2730    88.4900     8.0010     6.5350     7.4880 
   85.7500     2.2440   -14.5980     7.2490     7.3320     7.2490    82.7270     8.5640     6.9230     7.6330 
   85.8750     2.2560   -15.0390     7.7550     7.9940     7.7550    75.5760     9.5560     7.5610     8.6520 
   86.0000     2.2920   -15.4060     8.8750     8.7250     8.8750    73.2980    10.8360     8.3750    11.2910 
   86.1250     2.3420   -15.7100    10.4290     9.3620    10.4290    74.6020    12.0000     9.1390    16.2240 
   86.2500     2.3770   -15.9740    11.7990     9.8200    11.7990    75.0050    12.6260     9.5990    18.6720 
   86.3750     2.3750   -16.2140    12.4700     9.9900    12.4700    75.3150    12.5600     9.6370    14.3080 
   86.5000     2.3320   -16.4000    12.1820     9.8290    12.1820    77.2480    11.9650     9.3130    10.7290 
   86.6250     2.2670   -16.4240    10.9700     9.4260    10.9700    78.8530    11.1990     8.8200    10.3500 
   86.7500     2.2100   -16.3690     9.4770     9.0230     9.4770    77.7080    10.5800     8.3960    10.5730 
   86.8750     2.1750   -16.3370     8.1670     8.7200     8.1670    75.6780    10.1910     8.1380    10.4840 
   87.0000     2.1600   -16.3070     7.2680     8.4920     7.2680    75.7780     9.9920     8.0480    10.0330 
   87.1250     2.1610   -16.1960     6.7990     8.3250     6.7990    78.2820     9.8940     8.0650     9.6520 
   87.2500     2.1680   -16.0320     6.5400     8.2120     6.5400    81.1910     9.7950     8.0820     9.4800 
