~V
VERS. 2.00: Ver 2.00
~W
STRT.M 63.0000:
STOP.M 264.0000:
STEP.M 0.1250:
NULL. -999.2500:
UWI. FZI117T:
~C
DEPT.M :
SP.MV :
GR.API :
RI. :
RML.OHMM :
RXO.OHMM :
DEN.GM/CC :
~A
# ...
  256.1250   -28.7000    94.4170     4.6290     5.4390     8.0530     2.1910 
  256.2500   -28.7000    94.2770     4.6300     5.4410     7.6500     2.1940 
  256.3750   -28.7000    94.2770     4.6310     5.4430     7.4630     2.1970 
  256.5000   -28.7000    94.2770     4.6310     5.4450     7.3270     2.1990 
  256.6250   -28.7000    94.2770     4.6300     5.4470     6.9620     2.1980 
  256.7500   -28.7000    94.2770     4.6310     5.4480     6.8740     2.1990 
  256.8750   -28.7000    94.2770     4.6330     5.4470     6.7780     2.2020 
  257.0000   -28.7000    94.2770     4.6350     5.4480     6.6810     2.2060 
  257.1250   -28.7000    94.2770     4.6360     5.4470     6.5220     2.2070 
  257.2500   -28.7000    94.2770     4.6370     5.4480     6.2470     2.2000 
  257.3750   -28.7000    94.2770     4.6380     5.4500     5.8800     2.1890 
  257.5000   -28.7000    94.2770     4.6390     5.4520     5.6860     2.1770 
  257.6250   -28.7000    94.2770     4.6370     5.4530     5.8980     2.1680 
  257.7500   -28.7000    94.2770     4.6340     5.4520     6.0790     2.1620 
  257.8750   -28.7000    94.2770     4.6310     5.4480     5.6350     2.1560 
  258.0000   -28.7000    94.2770     4.6310     5.4490     5.1390     2.1520 
  258.1250   -28.7000    94.2770     4.6340     5.4530     4.8520     2.1500 
  258.2500   -28.7000    94.2770     4.6310     5.4560     4.6860     2.1500 
  258.3750   -28.7000    94.2770     4.6290     5.4580     4.5170     2.1500 
  258.5000   -28.7000    94.2770     4.6240     5.4560     4.4230     2.1490 
  258.6250   -28.7000    94.2770     4.6220     5.4550     4.4190     2.1480 
  258.7500   -28.7000    94.2770     4.6220     5.4540     4.4190     2.1460 
  258.8750   -28.7000    94.2770     4.6220     5.4540     4.4190     2.1430 
  259.0000   -28.7000    94.2770     4.6220     5.4540     4.4190     2.1420 
  259.1250   -28.7000    94.2770     4.6220     5.4540     4.4190     2.1440 
  259.2500   -28.7000    94.2770     4.6220     5.4540     4.4190     2.1470 
  259.3750   -28.7000    94.2770     4.6220     5.4540     4.4190     2.1470 
  259.5000   -28.7000    94.2770     4.6220     5.4540     4.4190     2.1450 
  259.6250   -28.7000    94.2770     4.6220     5.4540     4.4190     2.1420 
  259.7500   -28.7000    94.2770     4.6220     5.4540     4.4190     2.1420 
  259.8750   -28.7000    94.2770     4.6220     5.4540     4.4190     2.1450 
  260.0000   -28.7000    94.2770     4.6220     5.4540     4.4190     2.1470 
  260.1250   -28.7000    94.2770     4.6220     5.4540     4.4190     2.1460 
  260.2500   -28.7000    94.2770     4.6220     5.4540     4.4190     2.1440 
  260.3750   -28.7000    94.2770     4.6220     5.4540     4.4190     2.1460 
  260.5000   -28.7000    94.2770     4.6220     5.4540     4.4190     2.1510 
  260.6250   -28.7000    94.2770     4.6220     5.4540     4.4190     2.1540 
  260.7500   -28.7000    94.2770     4.6220     5.4540     4.4190     2.1550 
  260.8750   -28.7000    94.2770     4.6220     5.4540     4.4190     2.1520 
  261.0000   -28.7000    94.2770     4.6220     5.4540     4.4190     2.1470 
  261.1250   -28.7000    94.2770     4.6220     5.4540     4.4190     2.1400 
  261.2500   -28.7000    94.2770     4.6220     5.4540     4.4190     2.1360 
  261.3750   -28.7000    94.2770     4.6220     5.4540     4.4190     2.1400 
  261.5000   -28.7000    94.2770     4.6220     5.4540     4.4190     2.1470 
  261.6250   -28.7000    94.2770     4.6220     5.4540     4.4190     2.1520 
  261.7500   -28.7000    94.2770     4.6220     5.4540     4.4190     2.1510 
  261.8750   -28.7000    94.2770     4.6220     5.4540     4.4190     2.1500 
  262.0000   -28.7000    94.2770     4.6220     5.4540     4.4190     2.1490 
  262.1250   -28.7000    94.2770     4.6220     5.4540     4.4190     2.1500 
  262.2500   -28.7000    94.2770     4.6220     5.4540     4.4190     2.1500 
  262.3750   -28.7000    94.2770     4.6220     5.4540     4.4190     2.1510 
  262.5000   -28.7000    94.2770     4.6220     5.4540     4.4190     2.1540 
  262.6250   -28.7000    94.2770     4.6220     5.4540     4.4190     2.1590 
  262.7500   -28.7000    94.2770     4.6220     5.4540     4.4190     2.1630 
  262.8750   -28.6700    94.2770     4.6220     5.4540     4.4190     2.1650 
  263.0000   -28.3810    94.2770     4.6220     5.4540     4.4190     2.1650 
  263.1250   -28.3050    94.2770     4.6220     5.4540     4.4190     2.1650 
  263.2500   -28.3050    94.2770     4.6220     5.4540     4.4190     2.1650 
  263.3750   -28.3050    94.2770     4.6220     5.4540     4.4190     2.1650 
  263.5000   -28.3050    94.2770     4.6220     5.4540     4.4190     2.1650 
  263.6250   -28.3050    94.2770     4.6220     5.4540     4.4190     2.1650 
  263.7500   -28.3050    94.2770     4.6220     5.4540     4.4400     2.1650 
  263.8750   -28.3050    94.2770     4.6220     5.4540     4.4620     2.1650 
  264.0000   -28.3050    94.2770     4.6220     5.4540     4.4620     2.1650 
