~V
VERS. 2.00: Ver 2.00
~W
STRT.M 63.0000:
STOP.M 264.0000:
STEP.M 0.1250:
NULL. -999.2500:
UWI. FZI117T:
~C
DEPT.M :
SP.MV :
GR.API :
RI. :
RML.OHMM :
RXO.OHMM :
DEN.GM/CC :
~A
# ...
  243.2500   -30.4500    62.0950     2.6130     2.8120     2.4800     2.2490 
  243.3750   -30.5500    53.4740     2.2310     2.4930     2.3330     2.2160 
  243.5000   -30.6800    44.1150     2.1920     2.5310     2.3540     2.2120 
  243.6250   -30.7730    38.6780     2.3110     2.7100     2.5570     2.2220 
  243.7500   -30.7920    37.4660     2.4910     2.9140     2.7310     2.2350 
  243.8750   -30.7920    37.3480     2.6860     3.1030     2.7580     2.2450 
  244.0000   -30.7920    37.5650     2.8700     3.2670     2.8140     2.2500 
  244.1250   -30.7920    38.4030     3.0490     3.4280     2.9380     2.2510 
  244.2500   -30.7920    39.4730     3.2170     3.5910     3.1130     2.2500 
  244.3750   -30.8010    39.0960     3.3680     3.7450     3.3060     2.2500 
  244.5000   -30.8430    37.6330     3.4840     3.8690     3.6040     2.2490 
  244.6250   -30.9010    35.9280     3.5510     3.9500     3.8940     2.2330 
  244.7500   -30.9130    35.7960     3.5590     3.9780     3.8430     2.1900 
  244.8750   -30.9130    36.0980     3.5290     3.9800     3.6890     2.1370 
  245.0000   -30.9130    36.6720     3.4950     3.9930     3.5660     2.1010 
  245.1250   -30.9130    37.0800     3.4860     4.0330     3.2650     2.0910 
  245.2500   -30.9170    38.3870     3.5180     4.1200     2.9550     2.1060 
  245.3750   -30.9440    39.8380     3.5870     4.2510     3.1250     2.1340 
  245.5000   -30.9970    41.3760     3.6660     4.3940     3.8040     2.1630 
  245.6250   -31.0320    42.3490     3.7200     4.5060     4.5050     2.1780 
  245.7500   -31.0340    42.0010     3.6840     4.4860     4.9350     2.1760 
  245.8750   -31.0340    41.3660     3.5400     4.3110     4.8270     2.1740 
  246.0000   -31.0340    41.5910     3.3220     4.0240     4.2140     2.1830 
  246.1250   -31.0340    43.8880     3.1040     3.7350     3.5350     2.2010 
  246.2500   -31.0340    48.2930     2.9530     3.5410     3.1330     2.2160 
  246.3750   -31.0340    55.6010     2.8880     3.4720     3.1550     2.2150 
  246.5000   -31.0340    62.1370     2.9070     3.5150     3.2480     2.1900 
  246.6250   -31.0340    63.2730     2.9710     3.6070     3.1050     2.1550 
  246.7500   -31.0340    58.0240     3.0510     3.7010     3.0940     2.1380 
  246.8750   -31.0180    52.8380     3.1250     3.7720     3.5080     2.1520 
  247.0000   -30.9330    51.8290     3.1960     3.8270     3.8440     2.1870 
  247.1250   -30.8450    53.9340     3.2560     3.8640     3.6770     2.2110 
  247.2500   -30.8000    56.0030     3.2960     3.8760     3.3710     2.2090 
  247.3750   -30.7510    57.8390     3.3030     3.8530     3.2120     2.2010 
  247.5000   -30.6130    58.1740     3.2670     3.7860     3.0120     2.2040 
  247.6250   -30.4630    56.5660     3.1950     3.6790     2.6980     2.2170 
  247.7500   -30.3110    54.3390     3.0800     3.5240     2.5800     2.2260 
  247.8750   -30.2240    52.9110     2.9330     3.3310     2.9530     2.2260 
  248.0000   -30.1540    52.8330     2.7900     3.1540     3.3690     2.2190 
  248.1250   -30.0750    51.9820     2.6780     3.0260     3.1910     2.2140 
  248.2500   -29.9020    49.7870     2.6160     2.9680     2.9560     2.2090 
  248.3750   -29.7390    47.6110     2.6010     2.9750     3.1470     2.1790 
  248.5000   -29.6140    46.7080     2.6240     3.0210     3.3230     2.1220 
  248.6250   -29.3860    47.5400     2.6750     3.0900     3.3650     2.0890 
  248.7500   -29.2550    49.3680     2.7420     3.1640     3.3690     2.1130 
  248.8750   -29.0970    52.0820     2.8410     3.2700     3.3190     2.1590 
  249.0000   -28.9760    55.6510     3.0000     3.4440     3.2570     2.1990 
  249.1250   -28.8640    60.6240     3.2060     3.6790     3.6780     2.2350 
  249.2500   -28.8270    67.4830     3.4540     3.9700     4.9000     2.2650 
  249.3750   -28.6590    75.1870     3.7050     4.2650     5.7920     2.2890 
  249.5000   -28.5520    81.5710     3.8810     4.4550     5.6500     2.3030 
  249.6250   -28.4540    86.7470     3.9530     4.5120     5.2580     2.3040 
  249.7500   -28.3800    90.5380     3.9250     4.4520     5.1360     2.2980 
  249.8750   -28.4540    93.7180     3.8520     4.3570     5.1610     2.2940 
  250.0000   -28.5170    95.4600     3.7940     4.2980     5.1620     2.2940 
  250.1250   -28.6640    95.5470     3.7520     4.2590     5.2750     2.2970 
  250.2500   -28.7270    94.6150     3.7300     4.2370     5.4420     2.3010 
  250.3750   -28.6490    92.9180     3.7500     4.2670     5.2510     2.3050 
  250.5000   -28.6100    91.7250     3.8390     4.3880     4.9790     2.3080 
  250.6250   -28.6100    91.7910     3.9550     4.5440     5.2400     2.3090 
  250.7500   -28.6100    93.9010     4.0560     4.6770     5.9050     2.3080 
  250.8750   -28.6100    94.8760     4.1270     4.7620     6.2200     2.3070 
  251.0000   -28.6100    94.6840     4.1330     4.7550     5.8120     2.3100 
  251.1250   -28.6100    93.0700     4.1050     4.7000     5.3490     2.3150 
  251.2500   -28.6100    92.0640     4.0550     4.6240     5.3750     2.3220 
  251.3750   -28.6100    91.1540     4.0260     4.5900     5.4960     2.3270 
  251.5000   -28.6100    91.0480     4.0490     4.6270     5.5040     2.3260 
  251.6250   -28.6100    92.4960     4.0930     4.6890     5.6110     2.3220 
  251.7500   -28.6100    93.7360     4.1670     4.7790     5.7880     2.3190 
  251.8750   -28.7000    94.2190     4.2500     4.8800     6.0750     2.3190 
  252.0000   -28.7000    93.2720     4.3440     5.0020     6.6830     2.3190 
  252.1250   -28.7000    92.4300     4.4410     5.1250     7.1490     2.3130 
  252.2500   -28.7000    91.6610     4.5210     5.2230     6.9230     2.2960 
  252.3750   -28.7000    91.4720     4.5680     5.2680     6.7000     2.2720 
  252.5000   -28.7000    92.0030     4.6020     5.2950     6.8700     2.2500 
  252.6250   -28.7000    92.9940     4.6090     5.2910     6.7040     2.2390 
  252.7500   -28.7000    93.7820     4.6000     5.2770     6.2980     2.2440 
  252.8750   -28.7000    93.7870     4.5990     5.2810     6.4780     2.2610 
  253.0000   -28.7000    93.1380     4.5980     5.2880     7.5030     2.2770 
  253.1250   -28.7000    92.9130     4.6010     5.2950     8.0670     2.2800 
  253.2500   -28.7000    93.2820     4.6060     5.3060     6.9650     2.2700 
  253.3750   -28.7000    94.6420     4.6120     5.3160     5.6330     2.2580 
  253.5000   -28.7000    95.0100     4.6140     5.3280     5.2910     2.2530 
  253.6250   -28.7000    94.6620     4.6120     5.3400     5.3180     2.2530 
  253.7500   -28.7000    93.3560     4.6120     5.3530     5.2110     2.2550 
  253.8750   -28.7000    92.3710     4.6130     5.3640     5.1330     2.2570 
  254.0000   -28.7000    92.0680     4.6140     5.3700     5.2730     2.2590 
  254.1250   -28.7000    92.5650     4.6160     5.3790     5.4340     2.2560 
  254.2500   -28.7000    92.9750     4.6170     5.3860     5.2060     2.2450 
  254.3750   -28.7000    93.3260     4.6180     5.3940     5.2000     2.2280 
  254.5000   -28.7000    92.5600     4.6190     5.4060     6.6670     2.2110 
  254.6250   -28.7000    91.6530     4.6190     5.4150     8.3630     2.2020 
  254.7500   -28.7000    91.2280     4.6200     5.4230     8.3310     2.2010 
  254.8750   -28.7000    91.2140     4.6200     5.4270     7.5180     2.2030 
  255.0000   -28.7000    90.6730     4.6210     5.4270     7.1180     2.2070 
  255.1250   -28.7000    90.4460     4.6220     5.4280     6.7230     2.2130 
  255.2500   -28.7000    91.7980     4.6230     5.4330     6.6700     2.2150 
  255.3750   -28.7000    93.3430     4.6230     5.4360     7.7630     2.2100 
  255.5000   -28.7000    92.5180     4.6240     5.4370     9.3460     2.1970 
  255.6250   -28.7000    91.0890     4.6250     5.4350     9.9700     2.1860 
  255.7500   -28.7000    91.5030     4.6260     5.4320     9.5440     2.1820 
  255.8750   -28.7000    93.4550     4.6270     5.4340     8.9800     2.1840 
  256.0000   -28.7000    94.4630     4.6280     5.4370     8.5080     2.1880 
