~V
VERS. 2.00: Ver 2.00
~W
STRT.M 63.0000:
STOP.M 264.0000:
STEP.M 0.1250:
NULL. -999.2500:
UWI. FZI117T:
~C
DEPT.M :
SP.MV :
GR.API :
RI. :
RML.OHMM :
RXO.OHMM :
DEN.GM/CC :
~A
# ...
  153.1250   -31.1300    54.6070    21.4210    23.0120    26.7240     2.4080 
  153.2500   -31.1300    53.4300    19.7430    21.0230    18.2300     2.3960 
  153.3750   -31.1300    53.7560    18.7430    19.9320    15.7120     2.3920 
  153.5000   -31.1300    54.6530    19.0490    20.4040    28.1230     2.4060 
  153.6250   -31.1300    55.2120    20.4660    22.1560    56.9000     2.4350 
  153.7500   -31.1770    55.8920    22.5180    24.5350    66.8540     2.4630 
  153.8750   -31.4560    57.0590    24.2140    26.4010    46.7740     2.4740 
  154.0000   -31.5330    58.0280    24.5550    26.6650    33.4240     2.4670 
  154.1250   -31.5330    57.1100    23.6720    25.5190    33.8270     2.4520 
  154.2500   -31.5330    55.0060    21.9680    23.5260    29.9380     2.4390 
  154.3750   -31.5330    52.9020    20.1480    21.4860    21.7040     2.4260 
  154.5000   -31.5330    52.1440    18.7600    19.9940    16.7240     2.4140 
  154.6250   -31.5330    51.7640    17.8770    19.1120    16.0060     2.4090 
  154.7500   -31.5330    52.1820    17.5200    18.8250    17.1490     2.4100 
  154.8750   -31.5330    54.1810    17.6070    19.0070    18.0460     2.4100 
  155.0000   -31.5330    56.9780    17.9340    19.4520    17.9050     2.4080 
  155.1250   -31.5020    59.1550    18.3090    19.9640    18.1090     2.4080 
  155.2500   -31.1300    58.8810    18.4300    20.1860    18.5490     2.4100 
  155.3750   -30.6800    59.2480    18.1650    19.9600    19.9570     2.4090 
  155.5000   -30.3540    60.5560    17.5430    19.2830    22.3590     2.3990 
  155.6250   -29.9190    64.7750    16.7340    18.3540    20.5360     2.3830 
  155.7500   -29.3150    69.1410    16.0820    17.6220    15.8120     2.3710 
  155.8750   -29.0680    72.7970    15.9800    17.5660    14.6850     2.3670 
  156.0000   -29.0260    74.0910    16.4960    18.2050    16.9090     2.3700 
  156.1250   -28.9590    73.1810    17.3050    19.1600    21.7170     2.3720 
  156.2500   -28.8610    70.9630    18.3590    20.3860    25.8440     2.3700 
  156.3750   -28.7400    69.3370    19.5420    21.7770    23.1070     2.3740 
  156.5000   -28.5630    69.4100    20.7100    23.2610    18.3190     2.3960 
  156.6250   -28.2920    70.0780    21.6030    24.5160    21.8280     2.4300 
  156.7500   -27.9590    70.8790    20.9100    23.8120    32.6920     2.4540 
  156.8750   -27.6180    72.0980    18.0490    20.4850    38.7690     2.4490 
  157.0000   -27.3130    71.9480    13.8190    15.5180    31.6540     2.3970 
  157.1250   -27.0100    71.8870     9.3080    10.2410    17.5720     2.3080 
  157.2500   -26.6610    72.0390     6.0790     6.6160     7.6090     2.2120 
  157.3750   -26.2670    75.1590     4.2820     4.6970     4.1450     2.1440 
  157.5000   -25.8690    78.7120     3.4700     3.9160     3.4570     2.1180 
  157.6250   -25.5640    81.1430     3.2170     3.7680     3.3960     2.1180 
  157.7500   -25.3920    80.6230     3.2430     3.9020     3.5860     2.1290 
  157.8750   -25.3000    79.8230     3.3320     4.0580     3.5660     2.1420 
  158.0000   -25.2950    80.7280     3.3630     4.0860     3.4340     2.1500 
  158.1250   -25.3410    83.5450     3.3030     3.9840     3.3930     2.1510 
  158.2500   -25.4320    85.1380     3.2080     3.8380     3.2220     2.1440 
  158.3750   -25.5690    82.8290     3.1470     3.7380     2.8890     2.1370 
  158.5000   -25.8060    77.9180     3.1790     3.7560     2.7990     2.1380 
  158.6250   -26.1290    75.0300     3.3210     3.9240     3.2800     2.1500 
  158.7500   -26.4940    76.8670     3.5940     4.2760     4.1410     2.1720 
  158.8750   -26.8830    80.1210     3.9340     4.7420     4.7530     2.1930 
  159.0000   -27.2730    83.3530     4.2560     5.2110     5.0270     2.2070 
  159.1250   -27.6400    85.6080     4.4560     5.5290     5.2670     2.2150 
  159.2500   -27.9850    86.6540     4.4110     5.5280     5.4300     2.2210 
  159.3750   -28.2840    83.8070     4.1610     5.2490     5.3370     2.2190 
  159.5000   -28.4050    79.9150     3.8050     4.8200     4.8430     2.2010 
  159.6250   -28.3420    78.2750     3.4610     4.4000     4.1130     2.1740 
  159.7500   -28.1210    79.9700     3.2310     4.1240     3.6850     2.1520 
  159.8750   -27.8320    80.5840     3.1240     4.0120     3.7730     2.1440 
  160.0000   -27.5380    79.9170     3.1670     4.1170     3.9740     2.1440 
  160.1250   -27.3640    79.5960     3.4080     4.5100     4.0160     2.1530 
  160.2500   -27.3540    79.7360     3.8300     5.1750     4.3650     2.1790 
  160.3750   -27.3680    79.9390     4.3320     5.9550     5.5630     2.2260 
  160.5000   -27.2640    77.2380     4.7160     6.5210     6.8910     2.2700 
  160.6250   -27.1280    74.8530     4.8040     6.6040     7.1040     2.2780 
  160.7500   -26.9690    72.7350     4.5890     6.2150     6.1800     2.2370 
  160.8750   -26.8060    74.3080     4.1850     5.5660     4.9800     2.1770 
  161.0000   -26.6740    75.3570     3.8050     5.0180     4.2870     2.1370 
  161.1250   -26.6120    76.1500     3.6030     4.7900     4.2610     2.1310 
  161.2500   -26.6260    74.9140     3.6040     4.8850     4.5500     2.1480 
  161.3750   -26.6600    75.4940     3.7070     5.1140     4.8680     2.1640 
  161.5000   -26.6080    75.7370     3.8030     5.2940     5.0520     2.1720 
  161.6250   -26.4960    77.6130     3.8190     5.3120     4.9710     2.1770 
  161.7500   -26.3780    79.9640     3.7370     5.1580     4.5970     2.1860 
  161.8750   -26.3150    83.5070     3.6220     4.9640     4.1950     2.2010 
  162.0000   -26.3300    85.5230     3.5280     4.8310     4.0160     2.2130 
  162.1250   -26.3760    85.4110     3.4850     4.8020     4.1000     2.2130 
  162.2500   -26.4100    83.8710     3.4970     4.8620     4.2730     2.1980 
  162.3750   -26.4450    82.3490     3.5200     4.9240     4.2990     2.1790 
  162.5000   -26.4760    83.8500     3.5090     4.9130     4.3620     2.1710 
  162.6250   -26.4690    87.5960     3.4640     4.8350     4.4700     2.1780 
  162.7500   -26.4390    91.9890     3.3940     4.7200     4.3990     2.1900 
  162.8750   -26.3760    94.7350     3.3230     4.6060     4.2750     2.1950 
  163.0000   -26.2990    95.7020     3.2830     4.5380     4.1650     2.1880 
  163.1250   -26.1850    96.9340     3.2910     4.5350     4.0170     2.1790 
  163.2500   -26.0840    96.7900     3.3490     4.6030     3.8440     2.1730 
  163.3750   -26.0090    96.2260     3.4500     4.7280     3.7430     2.1680 
  163.5000   -25.9560    95.1050     3.5640     4.8670     3.8930     2.1650 
  163.6250   -25.9210    93.2620     3.6590     4.9790     4.2320     2.1620 
  163.7500   -25.9350    92.8140     3.7220     5.0430     4.3530     2.1540 
  163.8750   -25.9900    93.7360     3.7390     5.0500     4.2810     2.1330 
  164.0000   -26.0210    96.1320     3.7160     5.0090     4.3540     2.1060 
  164.1250   -25.9460    95.7010     3.6570     4.9230     4.3680     2.0900 
  164.2500   -25.8230    92.6800     3.5570     4.7780     4.1960     2.1050 
  164.3750   -25.7350    89.9990     3.4150     4.5730     3.8970     2.1420 
  164.5000   -25.7010    87.5790     3.2440     4.3300     3.5020     2.1840 
  164.6250   -25.7160    87.0200     3.0820     4.0980     3.2070     2.2170 
  164.7500   -25.7920    86.1650     2.9610     3.9330     2.9390     2.2360 
  164.8750   -25.8720    87.9850     2.8980     3.8480     2.7660     2.2390 
  165.0000   -25.9270    89.2500     2.8850     3.8290     2.9500     2.2280 
  165.1250   -25.9830    91.0680     2.9050     3.8510     3.3240     2.2080 
  165.2500   -26.0450    91.0170     2.9600     3.9140     3.6310     2.1900 
  165.3750   -26.1190    92.6680     3.0520     4.0250     3.7720     2.1850 
  165.5000   -26.1920    93.2020     3.1790     4.1820     3.8100     2.1930 
  165.6250   -26.2630    94.2620     3.3320     4.3750     3.9420     2.2070 
  165.7500   -26.3170    93.0740     3.4890     4.5740     4.0710     2.2190 
  165.8750   -26.3340    91.6740     3.5990     4.7080     4.0640     2.2280 
