~V
VERS. 2.00: Ver 2.00
~W
STRT.M 63.0000:
STOP.M 264.0000:
STEP.M 0.1250:
NULL. -999.2500:
UWI. FZI117T:
~C
DEPT.M :
SP.MV :
GR.API :
RI. :
RML.OHMM :
RXO.OHMM :
DEN.GM/CC :
~A
   63.0000     9.3340    34.6070     0.1250     0.1580     1.1230     2.3780 
   63.1250     9.9850    33.2890     0.1440     0.1660     1.5750     2.3860 
   63.2500     9.9330    32.7540     0.1720     0.1970     1.5840     2.3890 
   63.3750     9.2590    32.5140     0.2030     0.2440     1.4330     2.3880 
   63.5000     7.9770    33.1450     0.2220     0.2820     1.3360     2.3900 
   63.6250     6.4030    33.8020     0.2110     0.2910     1.2810     2.3960 
   63.7500     5.2250    34.4440     0.1690     0.2540     1.3110     2.3970 
   63.8750     5.0420    35.4250     0.1130     0.1760     1.3970     2.3870 
   64.0000     5.8660    35.9460     0.0610     0.0990     1.3330     2.3630 
   64.1250     6.6750    36.1410     0.0340     0.0460     0.8830     2.3230 
   64.2500     6.3590    36.1540     0.0400     0.0310     0.3110     2.2540 
   64.3750     4.2910    37.6560     0.1080     0.0650     0.3460     2.1440 
   64.5000    -0.0030    40.6570     0.2870     0.1710     1.7770     1.9900 
   64.6250    -6.0670    43.5010     0.7450     0.5670     4.0180     1.8340 
   64.7500   -12.6180    45.6450     1.8380     1.7440     5.4280     1.7370 
   64.8750   -18.0950    46.9780     3.0980     2.9170     5.6880     1.7330 
   65.0000   -22.0390    51.0460     4.1200     3.6860     5.3580     1.8230 
   65.1250   -25.1070    57.2070     4.6910     3.9130     4.9670     1.9570 
   65.2500   -27.6530    66.9100     4.6820     3.7560     4.9470     2.0830 
   65.3750   -29.7720    77.2490     4.6780     3.5820     5.3180     2.1660 
   65.5000   -31.4510    84.8950     4.8180     3.5930     5.9270     2.2000 
   65.6250   -32.7330    88.5660     5.0800     3.8070     6.2530     2.2120 
   65.7500   -33.6790    88.6220     5.4150     4.2020     6.1350     2.2260 
   65.8750   -34.4380    87.8830     5.7530     4.5670     6.1970     2.2530 
   66.0000   -35.1920    86.5700     5.9890     4.8360     6.5500     2.2830 
   66.1250   -35.9790    86.0160     6.0780     4.9850     6.6020     2.2960 
   66.2500   -36.7710    86.1900     6.0510     5.0520     6.2380     2.2750 
   66.3750   -37.6070    85.5200     5.9620     5.0670     5.9510     2.2280 
   66.5000   -38.4560    83.0640     5.9160     5.1420     5.8900     2.1780 
   66.6250   -39.2490    80.1350     6.0090     5.3680     6.1550     2.1390 
   66.7500   -39.9430    76.9920     6.2520     5.7050     6.6000     2.1170 
   66.8750   -40.4640    73.2280     6.5790     6.1210     6.8190     2.1070 
   67.0000   -40.8020    69.0580     6.9400     6.6130     6.8640     2.1090 
   67.1250   -41.0920    66.0410     7.3540     7.1580     6.9240     2.1230 
   67.2500   -41.3780    65.0910     7.8310     7.7350     7.0200     2.1490 
   67.3750   -41.6860    65.4450     8.2380     8.2310     6.9610     2.1760 
   67.5000   -42.0070    65.2790     8.4240     8.4540     6.7890     2.1810 
   67.6250   -42.2580    64.7610     8.3030     8.3810     6.8100     2.1590 
   67.7500   -42.4420    62.5810     7.8720     8.0090     6.9030     2.1200 
   67.8750   -42.6050    60.8000     7.3030     7.4630     6.6430     2.0890 
   68.0000   -42.6700    59.4150     6.7870     6.9870     6.1070     2.0740 
   68.1250   -42.6770    59.0480     6.4290     6.7110     5.7890     2.0710 
   68.2500   -42.6730    59.5810     6.3010     6.6900     5.8130     2.0690 
   68.3750   -42.6230    60.2050     6.2940     6.8090     5.9280     2.0670 
   68.5000   -42.5180    59.5100     6.3190     6.9380     5.9410     2.0680 
   68.6250   -42.8020    58.3210     6.3290     7.0250     5.8630     2.0720 
   68.7500   -42.8330    57.7770     6.3080     7.0700     5.7880     2.0790 
   68.8750   -42.8330    57.8660     6.2870     7.1270     5.7650     2.0860 
   69.0000   -43.0350    56.9120     6.2730     7.1830     5.8260     2.0920 
   69.1250   -43.2360    55.7820     6.2880     7.2840     5.9970     2.0960 
   69.2500   -43.2360    55.7560     6.3240     7.3950     6.2490     2.0980 
   69.3750   -43.2360    55.7950     6.3490     7.4970     6.3600     2.0960 
   69.5000   -43.2360    55.0000     6.3470     7.5750     6.2260     2.0920 
   69.6250   -43.2360    53.4860     6.3150     7.6140     6.0850     2.0860 
   69.7500   -43.2360    53.9560     6.2610     7.6480     6.0840     2.0800 
   69.8750   -43.2360    54.5080     6.2140     7.7080     6.1150     2.0760 
   70.0000   -43.2360    54.6420     6.2050     7.8190     6.1010     2.0760 
   70.1250   -43.2260    55.0500     6.2230     7.9670     6.0700     2.0840 
   70.2500   -43.0970    56.6880     6.2470     8.1280     6.0950     2.1000 
   70.3750   -42.8850    58.0640     6.2640     8.2720     6.1570     2.1150 
   70.5000   -42.8250    57.8690     6.2390     8.3800     6.1300     2.1210 
   70.6250   -42.6310    56.7600     6.1720     8.4290     6.0450     2.1210 
   70.7500   -42.4370    55.6280     6.0860     8.4110     6.0290     2.1190 
   70.8750   -42.4290    54.5840     5.9970     8.3560     6.0610     2.1150 
   71.0000   -42.4220    54.6000     5.9350     8.2870     6.1090     2.1100 
   71.1250   -42.2280    54.3590     5.9050     8.2520     6.1900     2.1050 
   71.2500   -41.9400    54.7460     5.9120     8.2640     6.2160     2.1040 
   71.3750   -41.1260    53.7810     5.9410     8.3170     6.1700     2.1060 
   71.5000   -40.2720    53.9270     5.9760     8.4200     6.1690     2.1080 
   71.6250   -39.4340    54.3050     6.0030     8.5280     6.1900     2.1060 
   71.7500   -38.6580    56.7760     5.9740     8.5260     6.1690     2.1090 
   71.8750   -38.1140    59.4370     5.8480     8.3300     6.2240     2.1280 
   72.0000   -37.7890    62.6040     5.6660     7.9990     6.3110     2.1670 
   72.1250   -37.5870    68.6960     5.4710     7.6500     5.9920     2.2070 
   72.2500   -37.4470    74.6560     5.3520     7.4660     5.6500     2.2210 
   72.3750   -37.0590    78.5900     5.3710     7.5130     6.1420     2.2020 
   72.5000   -36.5310    77.8050     5.4860     7.7260     6.7770     2.1660 
   72.6250   -36.3760    74.3900     5.5950     7.9290     6.8490     2.1380 
   72.7500   -36.2360    71.2200     5.5990     7.9420     6.7700     2.1310 
   72.8750   -35.9100    69.5060     5.4490     7.7080     6.5470     2.1430 
   73.0000   -35.5850    72.4370     5.1780     7.2820     6.2100     2.1600 
   73.1250   -35.3100    78.2900     4.9480     6.9310     6.0660     2.1690 
   73.2500   -35.1710    84.4810     4.8580     6.8470     5.9900     2.1660 
   73.3750   -35.1650    86.8850     4.9450     7.0440     6.1410     2.1530 
   73.5000   -35.1650    86.3590     5.2430     7.5420     6.6850     2.1360 
   73.6250   -35.1650    82.7850     5.6630     8.1970     7.0640     2.1220 
   73.7500   -35.1600    78.8260     6.1710     8.9530     7.0190     2.1280 
   73.8750   -35.0620    73.4370     6.5880     9.5710     7.0000     2.1600 
   74.0000   -34.8550    70.2870     6.7530     9.8260     9.6370     2.2050 
   74.1250   -34.7620    68.9290     6.6520     9.6580    13.9280     2.2290 
   74.2500   -34.7620    71.6750     6.2730     9.0200    13.0730     2.2160 
   74.3750   -34.7520    75.1390     5.7890     8.2290     8.5310     2.1830 
   74.5000   -34.5600    79.4230     5.3710     7.5970     6.2760     2.1570 
   74.6250   -34.3690    83.0650     5.0900     7.2470     5.8760     2.1460 
   74.7500   -34.3580    86.1220     4.9640     7.1760     5.8770     2.1430 
   74.8750   -34.3580    87.4160     4.9320     7.2070     6.0500     2.1420 
   75.0000   -34.3580    87.7910     4.8780     7.1370     6.1150     2.1470 
   75.1250   -34.3580    88.9200     4.7610     6.9090     5.8970     2.1610 
   75.2500   -34.3510    91.9400     4.6070     6.6230     5.5180     2.1810 
   75.3750   -34.1570    95.9390     4.4990     6.4530     5.2160     2.1970 
   75.5000   -33.9630    98.6630     4.5220     6.5170     5.0380     2.2010 
   75.6250   -33.9550    97.6700     4.6680     6.7750     5.5280     2.1940 
   75.7500   -33.9550    94.5700     4.8770     7.1230     6.6550     2.1910 
