~V
VERS. 2.00: Ver 2.00
~W
STRT.M 60.0000:
STOP.M 289.0000:
STEP.M 0.1250:
NULL. -999.2500:
UWI. FZI117:
~C
DEPT.M :
DEN.GM/CC :
SP.MV :
R2M. :
R025. :
RA2. :
GR.API :
RML.OHMM :
RI. :
RXO.OHMM :
~A
# ...
  151.2500     2.2210   -12.8750    16.2740    10.7220    16.2740    65.6890    11.2460    10.7880    10.6270 
  151.3750     2.2160   -12.8270    16.3500    10.7000    16.3500    66.9440    11.1620    10.5920    10.7040 
  151.5000     2.2060   -12.7710    16.4360    10.6630    16.4360    67.9800    11.0720    10.4610    10.8000 
  151.6250     2.1960   -12.7030    16.5380    10.6830    16.5380    69.5120    10.9900    10.4280    11.0270 
  151.7500     2.1900   -12.6200    16.5870    10.7790    16.5870    71.2930    10.9610    10.4720    11.3710 
  151.8750     2.1890   -12.5140    16.5540    10.9200    16.5540    72.1960    11.0190    10.5790    11.6680 
  152.0000     2.1900   -12.3900    16.4580    11.0260    16.4580    72.1260    11.1590    10.7280    11.9650 
  152.1250     2.1900   -12.2390    16.3250    11.0110    16.3250    72.0560    11.3210    10.8980    12.2210 
  152.2500     2.1870   -12.0750    16.2190    10.9300    16.2190    71.9080    11.4190    11.0520    12.3640 
  152.3750     2.1870   -11.8930    16.1530    10.7900    16.1530    72.4790    11.4060    11.1550    12.4910 
  152.5000     2.1950   -11.6740    16.1130    10.5420    16.1130    74.4890    11.2760    11.1630    12.6080 
  152.6250     2.2170   -11.3890    16.1070    10.1130    16.1070    75.7560    11.0530    11.0260    12.5350 
  152.7500     2.2480   -11.0840    16.0620     9.5710    16.0620    75.8480    10.8000    10.7780    12.3260 
  152.8750     2.2800   -10.8120    15.8900     9.0390    15.8900    76.8270    10.5180    10.4520    11.9480 
  153.0000     2.3040   -10.5920    15.5520     8.6090    15.5520    79.3280    10.1570    10.0620    11.1600 
  153.1250     2.3140   -10.4530    15.0560     8.1950    15.0560    81.4680     9.5990     9.5530     9.6700 
  153.2500     2.3170   -10.3810    14.4800     7.6170    14.4800    81.5730     8.8410     8.8840     8.8290 
  153.3750     2.3200   -10.4000    13.8080     6.8880    13.8080    81.6100     7.9680     8.0720     9.4480 
  153.5000     2.3260   -10.5480    12.9660     6.2650    12.9660    84.5440     7.1490     7.2220     9.2400 
  153.6250     2.3290   -10.8680    11.9100     6.1780    11.9100    90.1160     6.6280     6.5500     7.3600 
  153.7500     2.3220   -11.2880    10.8360     6.6430    10.8360    92.0540     6.4890     6.1980     5.7560 
  153.8750     2.3020   -11.7410     9.9870     7.4620     9.9870    86.8910     6.7530     6.2400     6.0350 
  154.0000     2.2750   -12.1750     9.5410     8.3180     9.5410    77.0470     7.3790     6.6750     8.1610 
  154.1250     2.2530   -12.5870     9.5450     8.8560     9.5450    71.2270     8.2660     7.4380    10.4230 
  154.2500     2.2400   -12.9830     9.7020     9.0550     9.7020    72.5400     9.1460     8.2690    11.1850 
  154.3750     2.2360   -13.3660     9.8140     9.0750     9.8140    75.9670     9.7910     8.9460    10.5990 
  154.5000     2.2380   -13.7180     9.8250     9.0740     9.8250    76.1580    10.0610     9.3150     9.7350 
  154.6250     2.2410   -13.9900     9.7820     9.0820     9.7820    73.9560     9.9430     9.3220     9.6640 
  154.7500     2.2450   -14.1960     9.7680     9.1010     9.7680    73.9010     9.6770     9.1520    10.0100 
  154.8750     2.2490   -14.3650     9.7720     9.1680     9.7720    74.9290     9.4380     8.9450    10.0950 
  155.0000     2.2500   -14.5280     9.7470     9.3160     9.7470    75.8880     9.3480     8.8080     9.7740 
  155.1250     2.2440   -14.6600     9.6840     9.5870     9.6840    76.2670     9.4860     8.8200     9.5900 
  155.2500     2.2290   -14.7460     9.6280     9.9080     9.6280    75.2840     9.7810     8.9640     9.8790 
  155.3750     2.2130   -14.7730     9.6330    10.2010     9.6330    72.2160    10.3780     9.4090    10.9420 
  155.5000     2.2030   -14.7330     9.7040    10.4520     9.7040    70.3680    10.8150     9.8230    11.5130 
  155.6250     2.2100   -14.6660     9.7790    10.6840     9.7790    67.7890    11.1710    10.2190    11.3490 
  155.7500     2.2270   -14.5920     9.8700    10.9050     9.8700    65.0850    11.5480    10.6230    10.4870 
  155.8750     2.2430   -14.5140    10.0660    11.1020    10.0660    64.0790    11.9190    10.9950    10.5720 
  156.0000     2.2450   -14.4140    10.4430    11.2440    10.4430    64.8830    12.2140    11.2810    11.6340 
  156.1250     2.2250   -14.3020    11.0310    11.2920    11.0310    66.4210    12.3260    11.4130    12.7040 
  156.2500     2.1930   -14.1810    11.6730    11.2420    11.6730    67.1000    12.2780    11.3980    12.1540 
  156.3750     2.1620   -14.0370    12.1810    11.1350    12.1810    66.7960    12.1300    11.2580    11.8100 
  156.5000     2.1400   -13.8690    12.4240    11.0870    12.4240    65.7220    11.9480    11.0350    11.8740 
  156.6250     2.1310   -13.6320    12.3780    11.1490    12.3780    65.3280    11.7670    10.7900    12.1180 
  156.7500     2.1320   -13.3310    12.2340    11.2230    12.2340    65.2270    11.6060    10.5980    11.7670 
  156.8750     2.1410   -12.9700    12.1590    11.3250    12.1590    65.4420    11.5200    10.5310    11.7480 
  157.0000     2.1600   -12.5730    12.2890    11.5930    12.2890    66.4130    11.6120    10.6520    11.6190 
  157.1250     2.1910   -12.1470    12.7620    12.1270    12.7620    67.6060    12.0810    11.0510    11.4200 
  157.2500     2.2330   -11.7150    13.5370    12.8160    13.5370    68.0800    13.0610    11.6940    11.9580 
  157.3750     2.2800   -11.2780    14.5520    13.5730    14.5520    67.4760    14.5380    12.5250    13.7780 
  157.5000     2.3250   -10.8320    15.6960    14.2500    15.6960    68.0180    15.8740    13.4350    16.7970 
  157.6250     2.3570   -10.4060    16.8190    14.5830    16.8190    70.7580    16.6580    14.2640    17.7090 
  157.7500     2.3770   -10.0100    17.7890    14.5360    17.7890    72.0430    16.9760    14.9090    16.5420 
  157.8750     2.3880    -9.6280    18.5570    14.2320    18.5570    70.6490    16.9920    15.3190    15.6940 
  158.0000     2.3930    -9.2550    19.1950    13.7960    19.1950    68.5110    16.7270    15.4420    15.5290 
  158.1250     2.3940    -8.8890    19.8040    13.0870    19.8040    69.0070    16.0390    15.1140    15.3130 
  158.2500     2.3920    -8.5040    20.3780    11.9700    20.3780    71.6970    14.9010    14.3060    15.2510 
  158.3750     2.3870    -8.1050    20.7060    10.4840    20.7060    76.1780    13.3750    13.0370    15.1970 
  158.5000     2.3780    -7.7220    20.4230     8.9450    20.4230    84.2640    11.6820    11.4640    13.6110 
  158.6250     2.3670    -7.3850    19.1520     7.8300    19.1520    92.9100    10.1550     9.8590     9.7840 
  158.7500     2.3540    -7.0920    17.1890     7.1600    17.1890    96.9600     8.9540     8.4560     7.3260 
  158.8750     2.3400    -6.8900    14.9310     6.7720    14.9310    94.9440     8.0750     7.3310     6.8610 
  159.0000     2.3300    -6.7800    12.8160     6.5230    12.8160    92.1120     7.4200     6.4700     6.9690 
  159.1250     2.3270    -6.7690    11.1610     6.3450    11.1610    95.4910     6.9090     5.8590     6.5650 
  159.2500     2.3300    -6.8550     9.9390     6.2530     9.9390   101.2660     6.5540     5.4800     5.9720 
  159.3750     2.3410    -7.0330     9.2230     6.4020     9.2230   101.3930     6.5290     5.4520     5.5160 
  159.5000     2.3660    -7.2910     9.2700     7.0880     9.2700    92.6660     7.1210     5.9990     5.3120 
  159.6250     2.4140    -7.5950    10.6490     9.1530    10.6490    80.0640     8.9020     7.6620     6.4710 
  159.7500     2.4800    -7.9180    13.2130    12.6870    13.2130    70.6630    12.0480    10.6550    11.4560 
  159.8750     2.5450    -8.2190    16.4950    16.6380    16.4950    66.0610    16.3850    14.9000    27.6100 
  160.0000     2.5830    -8.4730    19.7200    19.1230    19.7200    65.2490    20.7060    19.3950    53.9400 
  160.1250     2.5720    -8.6630    21.8220    18.5060    21.8220    67.7290    22.2760    21.6800    57.7740 
  160.2500     2.5300    -8.7960    22.3560    16.0030    22.3560    72.9610    20.4390    20.7480    39.3040 
