~V
VERS. 2.00: Ver 2.00
~W
STRT.M 60.0000:
STOP.M 289.0000:
STEP.M 0.1250:
NULL. -999.2500:
UWI. FZI117:
~C
DEPT.M :
DEN.GM/CC :
SP.MV :
R2M. :
R025. :
RA2. :
GR.API :
RML.OHMM :
RI. :
RXO.OHMM :
~A
# ...
  224.2500     2.2570   -27.7990   174.7920    55.1050   174.7920    64.2310    75.8500    74.7050    97.1270 
  224.3750     2.2540   -27.8380   176.0710    54.4100   176.0710    68.2030    74.6620    73.4710    93.2410 
  224.5000     2.2530   -27.8710   176.2110    53.7350   176.2110    71.5940    73.7330    72.3570    86.8860 
  224.6250     2.2550   -27.8610   175.2500    53.0200   175.2500    69.2260    72.7640    71.1100    88.2000 
  224.7500     2.2590   -27.8300   173.8050    52.1740   173.8050    64.4070    71.4070    69.5240    94.5580 
  224.8750     2.2630   -27.8040   172.0250    51.1280   172.0250    63.1020    69.5260    67.5450    91.7280 
  225.0000     2.2670   -27.7960   169.9620    49.9730   169.9620    65.7740    67.2480    65.2810    83.5030 
  225.1250     2.2710   -27.8020   167.3330    48.8070   167.3330    66.5580    64.9000    62.9580    79.0610 
  225.2500     2.2740   -27.8320   164.0720    47.6790   164.0720    65.5380    62.7640    60.7890    80.8540 
  225.3750     2.2760   -27.8850   160.5080    46.6240   160.5080    64.7780    60.8690    58.8470    79.6230 
  225.5000     2.2790   -27.9470   156.9200    45.5800   156.9200    64.7900    59.0680    57.0880    74.9050 
  225.6250     2.2820   -28.0210   153.4330    44.4090   153.4330    65.2240    57.1300    55.3680    70.7730 
  225.7500     2.2880   -28.1170   149.9760    43.0890   149.9760    65.8970    55.0040    53.5440    67.3250 
  225.8750     2.2960   -28.2260   146.2940    41.7150   146.2940    67.1790    52.7870    51.5770    61.6870 
  226.0000     2.3050   -28.3420   142.3390    40.4220   142.3390    66.5670    50.6190    49.5180    58.2570 
  226.1250     2.3120   -28.4630   138.1840    39.1820   138.1840    63.8910    48.6020    47.4660    57.4630 
  226.2500     2.3150   -28.5730   133.9110    37.9350   133.9110    62.4730    46.6870    45.5100    56.4360 
  226.3750     2.3130   -28.6870   129.6740    36.6970   129.6740    63.2300    44.8180    43.6800    55.9620 
  226.5000     2.3090   -28.7980   125.4040    35.4100   125.4040    63.7580    42.9600    41.9520    55.9500 
  226.6250     2.3060   -28.9100   120.9110    34.0600   120.9110    62.0510    41.0930    40.2360    54.4940 
  226.7500     2.3070   -29.0440   116.0990    32.7180   116.0990    60.4960    39.1820    38.4260    51.6940 
  226.8750     2.3120   -29.1910   110.7860    31.3840   110.7860    60.0080    37.1820    36.4760    49.1090 
  227.0000     2.3200   -29.3330   104.9950    30.0740   104.9950    60.0660    35.0780    34.4150    46.3530 
  227.1250     2.3260   -29.4730    98.7620    28.8220    98.7620    61.9050    32.9320    32.3570    42.9430 
  227.2500     2.3280   -29.6100    92.2650    27.7170    92.2650    63.7480    30.8800    30.4320    39.3450 
  227.3750     2.3290   -29.7460    85.7750    26.8580    85.7750    64.8470    29.0380    28.7190    37.4010 
  227.5000     2.3280   -29.8990    79.5530    26.2580    79.5530    66.4420    27.5250    27.2910    36.6730 
  227.6250     2.3300   -30.0580    73.9170    25.9650    73.9170    68.1390    26.6110    26.3710    34.8440 
  227.7500     2.3340   -30.1940    68.9650    25.9630    68.9650    67.2090    26.4530    26.1160    33.0670 
  227.8750     2.3420   -30.3110    64.8050    26.3630    64.8050    63.7480    27.2080    26.6940    32.6070 
  228.0000     2.3550   -30.4090    61.6860    27.2210    61.6860    60.5620    28.8140    28.0900    32.8230 
  228.1250     2.3710   -30.4390    60.0880    28.1670    60.0880    57.8490    30.7930    29.9380    38.0600 
  228.2500     2.3830   -30.4020    59.6390    28.5860    59.6390    55.1400    32.1440    31.3440    51.9470 
  228.3750     2.3860   -30.2920    59.6890    28.2050    59.6890    54.6690    32.0870    31.5540    70.1670 
  228.5000     2.3780   -30.1150    59.2880    27.1790    59.2880    57.4470    30.4130    30.2490    65.0620 
  228.6250     2.3620   -29.8650    57.4230    26.0790    57.4230    60.4400    27.7060    27.7570    46.4620 
  228.7500     2.3440   -29.5830    54.3530    25.4500    54.3530    60.6290    25.3430    25.3160    33.5540 
  228.8750     2.3310   -29.2910    50.8720    25.5480    50.8720    59.9050    24.2660    23.8620    27.8740 
  229.0000     2.3290   -29.0080    48.1850    26.5420    48.1850    60.3960    25.0490    24.0550    26.3030 
  229.1250     2.3540   -28.7630    47.9070    28.5400    47.9070    59.0050    28.1920    26.5010    28.0940 
  229.2500     2.4010   -28.5490    50.1710    30.8240    50.1710    53.4190    32.8530    30.5190    36.3270 
  229.3750     2.4540   -28.3720    54.3530    32.4270    54.3530    47.6950    37.7100    34.9800    67.6630 
  229.5000     2.4910   -28.2130    58.9330    32.5560    58.9330    47.5800    40.7930    38.1720   123.0120 
  229.6250     2.4880   -28.1010    61.4940    31.0690    61.4940    52.5710    39.9160    38.0870    91.5760 
  229.7500     2.4530   -28.0170    60.9380    29.0590    60.9380    57.5950    36.1090    35.2880    48.3740 
  229.8750     2.4050   -27.9320    57.2900    27.2870    57.2900    61.4360    31.2120    31.1430    32.6260 
  230.0000     2.3640   -27.8390    51.6150    26.1280    51.6150    64.8660    26.9410    27.1460    28.6190 
  230.1250     2.3400   -27.7280    45.5630    25.5660    45.5630    67.3960    24.4230    24.4670    28.2600 
  230.2500     2.3270   -27.6210    40.5460    25.3320    40.5460    68.7340    23.4570    23.1800    28.8000 
  230.3750     2.3190   -27.5050    37.0930    25.4120    37.0930    67.3420    23.8370    23.1990    29.4290 
  230.5000     2.3130   -27.3850    35.2890    25.8720    35.2890    62.9510    25.3190    24.3240    28.5480 
  230.6250     2.3090   -27.2370    35.2060    26.6550    35.2060    59.5380    27.5990    26.2700    29.7280 
  230.7500     2.3140   -27.0520    36.2880    27.2680    36.2880    60.8460    29.8520    28.2690    36.3770 
  230.8750     2.3280   -26.8210    38.1260    27.2770    38.1260    65.5250    31.2870    29.6270    47.3430 
  231.0000     2.3500   -26.5470    40.1080    26.5390    40.1080    70.2960    31.3170    29.8080    50.1500 
  231.1250     2.3680   -26.2200    41.3860    25.3700    41.3860    73.5750    29.7830    28.5600    39.3750 
  231.2500     2.3750   -25.8410    41.5930    24.3270    41.5930    75.1320    27.6350    26.5930    29.6970 
  231.3750     2.3690   -25.4070    40.7650    23.5870    40.7650    74.9950    25.5990    24.5150    26.7140 
  231.5000     2.3560   -24.9160    39.2850    23.1740    39.2850    74.8480    24.1250    22.7920    26.4540 
  231.6250     2.3460   -24.3430    37.5810    23.1210    37.5810    76.9950    23.4620    21.7680    26.4720 
  231.7500     2.3450   -23.7150    36.0020    23.3800    36.0020    79.1070    23.3420    21.3790    25.9470 
  231.8750     2.3530   -23.0420    34.7290    24.0130    34.7290    78.4840    23.5000    21.5810    26.2400 
  232.0000     2.3670   -22.3140    33.9160    25.0710    33.9160    76.0890    23.6920    22.3350    27.8030 
  232.1250     2.3830   -21.5300    34.0360    26.5780    34.0360    74.2850    24.8570    23.7340    30.2650 
  232.2500     2.4010   -20.7050    35.3200    28.3600    35.3200    73.1920    26.8960    25.7610    33.8760 
  232.3750     2.4270   -19.8510    37.8790    30.3470    37.8790    71.8390    29.8440    28.5190    37.9630 
  232.5000     2.4620   -18.9850    41.7260    32.4810    41.7260    70.5760    33.7260    32.0840    41.6220 
  232.6250     2.5050   -18.1380    46.9670    34.4490    46.9670    69.9670    38.6540    36.4990    46.4960 
  232.7500     2.5430   -17.3180    53.1460    35.7940    53.1460    69.7320    43.8490    41.1430    60.3840 
  232.8750     2.5740   -16.5350    59.8520    36.1600    59.8520    70.4850    47.9170    44.9530    76.9180 
  233.0000     2.6000   -15.7980    66.4380    35.0940    66.4380    72.6780    48.9310    46.3810    80.3860 
  233.1250     2.6270   -15.1260    71.7480    31.8890    71.7480    74.8220    44.8470    43.4940    67.5260 
  233.2500     2.6520   -14.5240    74.8020    27.3820    74.8020    75.6360    37.4160    37.3070    53.3420 
