~V
VERS. 2.00: Ver 2.00
~W
STRT.M 63.0000:
STOP.M 264.0000:
STEP.M 0.1250:
NULL. -999.2500:
UWI. FZI117T:
~C
DEPT.M :
SP.MV :
GR.API :
RI. :
RML.OHMM :
RXO.OHMM :
DEN.GM/CC :
~A
# ...
  114.5000   -34.9930    57.1690     6.4800     7.5750     6.6030     2.1840 
  114.6250   -34.9320    59.2900     6.5160     7.6350     6.2280     2.2300 
  114.7500   -34.9230    59.1000     6.5100     7.6290     5.5870     2.2450 
  114.8750   -34.9330    59.2860     6.4300     7.5250     5.2000     2.2260 
  115.0000   -34.9520    61.1930     6.2880     7.3430     5.3770     2.1910 
  115.1250   -34.9640    64.4960     6.1120     7.1290     5.6460     2.1620 
  115.2500   -35.0380    66.4940     5.9610     6.9540     5.5890     2.1490 
  115.3750   -35.1610    66.9590     5.8780     6.8790     5.5060     2.1420 
  115.5000   -35.2660    67.7510     5.8970     6.9350     5.7070     2.1340 
  115.6250   -35.3370    69.3470     5.9830     7.0770     6.1000     2.1240 
  115.7500   -35.3710    70.7790     6.1310     7.2910     6.5110     2.1190 
  115.8750   -35.3470    69.9640     6.3030     7.5190     6.9700     2.1220 
  116.0000   -35.2760    68.2990     6.4550     7.7000     7.5730     2.1280 
  116.1250   -35.1780    66.3590     6.5550     7.7980     7.9480     2.1300 
  116.2500   -35.0640    65.5740     6.5760     7.7970     7.9370     2.1300 
  116.3750   -34.9720    67.6330     6.5420     7.7280     7.9210     2.1300 
  116.5000   -34.9040    68.8210     6.4830     7.6340     8.0530     2.1330 
  116.6250   -34.8510    69.3760     6.4230     7.5440     8.1740     2.1390 
  116.7500   -34.7990    67.0640     6.3780     7.4860     7.8530     2.1440 
  116.8750   -34.7260    66.4940     6.3670     7.4800     7.1830     2.1450 
  117.0000   -34.6680    66.4340     6.3930     7.5170     6.8200     2.1420 
  117.1250   -34.6360    67.4910     6.4360     7.5740     6.8180     2.1350 
  117.2500   -34.6020    67.0140     6.4710     7.6120     6.6820     2.1260 
  117.3750   -34.5760    65.4330     6.4740     7.6120     6.4310     2.1160 
  117.5000   -34.5800    63.6550     6.4610     7.5990     6.4970     2.1100 
  117.6250   -34.5960    62.4660     6.4620     7.6040     6.6690     2.1070 
  117.7500   -34.5720    61.4210     6.4760     7.6220     6.6350     2.1050 
  117.8750   -34.5140    60.4570     6.4930     7.6390     6.6540     2.1010 
  118.0000   -34.4460    59.1610     6.5000     7.6450     6.7370     2.0940 
  118.1250   -34.3970    58.8970     6.4910     7.6310     6.7990     2.0880 
  118.2500   -34.3540    58.5960     6.4730     7.6050     7.0040     2.0860 
  118.3750   -34.3340    58.7380     6.4580     7.5730     7.1820     2.0900 
  118.5000   -34.3010    59.6970     6.4430     7.5370     7.2280     2.0990 
  118.6250   -34.2900    62.1850     6.4470     7.5290     7.3200     2.1100 
  118.7500   -34.2790    65.9180     6.4880     7.5730     7.5250     2.1210 
  118.8750   -34.2580    69.6590     6.5530     7.6550     7.7630     2.1290 
  119.0000   -34.2310    72.2900     6.6150     7.7370     7.9230     2.1280 
  119.1250   -34.1690    73.1000     6.6200     7.7550     7.8440     2.1190 
  119.2500   -34.0640    70.8810     6.5370     7.6600     7.3650     2.1130 
  119.3750   -33.9410    69.1530     6.3410     7.4190     6.7120     2.1210 
  119.5000   -33.8290    69.7320     6.0230     7.0200     6.1890     2.1480 
  119.6250   -33.7290    71.4650     5.6690     6.5790     5.9400     2.1830 
  119.7500   -33.6280    72.8240     5.3800     6.2350     6.0110     2.2040 
  119.8750   -33.5030    72.9780     5.2640     6.1200     6.1020     2.1950 
  120.0000   -33.3810    72.6020     5.3650     6.2770     6.1020     2.1630 
  120.1250   -33.3130    69.3850     5.5870     6.5720     6.2280     2.1280 
  120.2500   -33.3670    66.4170     5.8380     6.8630     6.4400     2.1040 
  120.3750   -33.4780    64.1270     6.0150     7.0240     6.4590     2.0950 
  120.5000   -33.6020    64.6890     6.0840     7.0300     6.1200     2.0970 
  120.6250   -33.7020    65.7870     6.0850     6.9550     5.8780     2.1030 
  120.7500   -33.7860    66.1320     6.0740     6.8940     6.1600     2.1060 
  120.8750   -33.8440    66.0720     6.1000     6.9000     6.3780     2.1010 
  121.0000   -33.8910    65.5400     6.1840     6.9800     6.4970     2.0900 
  121.1250   -33.9300    65.0000     6.2990     7.0840     7.1980     2.0810 
  121.2500   -33.9890    63.3170     6.4120     7.1830     7.9680     2.0810 
  121.3750   -34.0550    61.0060     6.4990     7.2560     8.1730     2.0890 
  121.5000   -34.1140    60.1370     6.5350     7.2850     8.1000     2.0980 
  121.6250   -34.1230    60.2640     6.5220     7.2820     7.9600     2.1020 
  121.7500   -34.0750    63.2330     6.4690     7.2480     7.7660     2.0970 
  121.8750   -34.0220    64.7250     6.3910     7.2000     7.6940     2.0870 
  122.0000   -33.9490    64.8970     6.2860     7.1360     7.7740     2.0820 
  122.1250   -33.8490    62.5970     6.1770     7.0650     7.8010     2.0870 
  122.2500   -33.7420    60.3570     6.0690     6.9820     7.7380     2.0990 
  122.3750   -33.6510    59.9050     5.9410     6.8310     7.7200     2.1070 
  122.5000   -33.5800    60.1640     5.7900     6.5920     7.7210     2.1090 
  122.6250   -33.5210    60.7560     5.7720     6.4890     7.6310     2.1210 
  122.7500   -33.4710    59.8300     6.2380     6.9690     7.2980     2.1680 
  122.8750   -33.4580    58.8250     7.5140     8.4230     8.3270     2.2630 
  123.0000   -33.4870    59.1430    10.3180    11.5160    24.0680     2.3950 
  123.1250   -33.5250    61.5140    15.7230    17.8700    60.4670     2.5230 
  123.2500   -33.5700    62.2300    24.0320    27.4270    94.5810     2.6060 
  123.3750   -33.6810    60.5450    29.1660    32.3780   106.7140     2.6300 
  123.5000   -33.8530    58.3470    28.4180    31.0050   103.9010     2.5890 
  123.6250   -34.0520    58.7960    22.6360    23.6140    87.1110     2.4950 
  123.7500   -34.2210    62.3760    14.2120    14.2460    50.0890     2.3720 
  123.8750   -34.3210    66.3650     9.3250     9.4120    17.7020     2.2600 
  124.0000   -34.2720    68.9820     7.1490     7.3930     7.4810     2.1880 
  124.1250   -34.1070    69.7680     6.2140     6.6370     6.5310     2.1510 
  124.2500   -33.8560    69.4750     5.9310     6.4820     6.2890     2.1360 
  124.3750   -33.5780    69.6640     5.9930     6.5940     6.0910     2.1280 
  124.5000   -33.2510    68.7140     6.4090     7.0400     6.0780     2.1390 
  124.6250   -32.8170    67.3030     7.4650     8.1820     6.4640     2.1890 
  124.7500   -32.3300    63.8170    10.1410    11.1560    13.1800     2.2910 
  124.8750   -31.8370    61.1530    14.6310    16.4710    32.5150     2.4180 
  125.0000   -31.3280    57.6120    19.7310    22.3810    56.3080     2.5280 
  125.1250   -30.8120    55.5430    21.7990    24.4940    72.1820     2.5880 
  125.2500   -30.3010    57.1020    19.8220    21.9660    77.7210     2.5790 
  125.3750   -29.8310    63.8870    15.1180    16.1280    65.0760     2.5090 
  125.5000   -29.4430    73.8980     9.9750    10.2390    34.2270     2.4090 
  125.6250   -29.1170    82.1290     7.0840     7.1920    11.1750     2.3310 
  125.7500   -28.8400    86.3820     5.6230     5.7760     6.0360     2.3050 
  125.8750   -28.5500    88.6110     4.9910     5.2760     6.8660     2.3090 
  126.0000   -28.2820    91.5300     4.8700     5.2770     7.1160     2.3110 
  126.1250   -28.1590    94.3520     4.9050     5.3570     6.1870     2.2960 
  126.2500   -27.8270    94.7210     4.8610     5.2700     5.5770     2.2760 
  126.3750   -27.4820    93.7660     4.7160     5.0350     5.4380     2.2600 
  126.5000   -27.2960    94.5090     4.5440     4.7810     5.2050     2.2520 
  126.6250   -27.1100    98.1130     4.4420     4.6270     4.8510     2.2490 
  126.7500   -27.0940   100.1460     4.4950     4.6600     4.5350     2.2440 
  126.8750   -27.0940    99.0590     4.7410     4.9320     4.6120     2.2350 
  127.0000   -27.0170    96.2050     5.1550     5.4110     5.1270     2.2250 
  127.1250   -26.7220    94.6260     5.5970     5.9370     5.6610     2.2190 
  127.2500   -26.4890    93.9040     5.8440     6.2540     6.0340     2.2190 
