~V
VERS. 2.00: Ver 2.00
~W
STRT.M 63.0000:
STOP.M 264.0000:
STEP.M 0.1250:
NULL. -999.2500:
UWI. FZI117T:
~C
DEPT.M :
SP.MV :
GR.API :
RI. :
RML.OHMM :
RXO.OHMM :
DEN.GM/CC :
~A
# ...
  178.8750   -25.4920    86.0360     3.6280     4.2750     4.3800     2.2520 
  179.0000   -24.9940    89.0850     3.5850     4.2260     4.5620     2.2410 
  179.1250   -24.5030    91.4040     3.5770     4.2150     4.6430     2.2320 
  179.2500   -24.1370    92.7630     3.6030     4.2330     4.5510     2.2270 
  179.3750   -23.9660    91.5040     3.6590     4.2900     4.4950     2.2270 
  179.5000   -23.9350    87.3610     3.7710     4.4210     4.5630     2.2320 
  179.6250   -23.9720    83.0240     3.9470     4.6420     4.7280     2.2430 
  179.7500   -24.0290    80.2700     4.2000     4.9660     5.0980     2.2610 
  179.8750   -24.0810    80.7030     4.4800     5.3180     5.6840     2.2860 
  180.0000   -24.1550    82.8720     4.6870     5.5690     6.4080     2.3130 
  180.1250   -24.2250    84.1130     4.7670     5.6540     6.8950     2.3300 
  180.2500   -24.2730    82.6810     4.6580     5.4960     6.3870     2.3290 
  180.3750   -24.3030    82.5450     4.4370     5.2050     5.3090     2.3140 
  180.5000   -24.3180    84.6460     4.1840     4.8890     4.7840     2.2960 
  180.6250   -24.3080    86.5310     3.9980     4.6700     4.7570     2.2860 
  180.7500   -24.2950    86.0590     3.9370     4.6130     4.8050     2.2820 
  180.8750   -24.2530    84.8610     4.0050     4.7120     4.8610     2.2690 
  181.0000   -24.1920    85.0670     4.2430     5.0100     4.8160     2.2380 
  181.1250   -24.1380    85.9720     4.6090     5.4570     4.5290     2.2010 
  181.2500   -24.1700    86.0580     5.0440     5.9820     4.1770     2.1840 
  181.3750   -24.2130    84.2760     5.4180     6.4090     4.2900     2.1930 
  181.5000   -24.1440    81.7010     5.5830     6.5590     4.7750     2.2010 
  181.6250   -23.9590    80.6470     5.5110     6.4060     4.6240     2.1850 
  181.7500   -23.8710    82.7140     5.2400     6.0230     4.2870     2.1580 
  181.8750   -23.8660    85.0220     4.9310     5.6310     4.0560     2.1570 
  182.0000   -23.8660    86.0270     4.7380     5.4200     4.1560     2.1960 
  182.1250   -23.8660    85.8260     4.7330     5.4600     4.1100     2.2490 
  182.2500   -23.8810    84.7690     4.9320     5.7420     4.4180     2.2920 
  182.3750   -23.8860    83.5810     5.2680     6.1690     5.1290     2.3170 
  182.5000   -23.9100    82.0420     5.7000     6.6890     5.8390     2.3220 
  182.6250   -24.0920    80.9880     6.2540     7.3530     7.1250     2.3080 
  182.7500   -24.3140    78.8600     7.0360     8.2980     8.1040     2.2770 
  182.8750   -24.6040    75.7260     7.9480     9.3850     9.4310     2.2410 
  183.0000   -24.9240    72.9260     8.7560    10.3190    12.7020     2.2170 
  183.1250   -24.9680    72.8240     9.2640    10.8380    16.4740     2.2150 
  183.2500   -24.6730    75.2030     9.2030    10.6080    15.7750     2.2360 
  183.3750   -24.3680    79.0430     8.7740     9.9330    11.5680     2.2670 
  183.5000   -24.2740    83.3190     8.1750     9.0960     9.1010     2.2930 
  183.6250   -24.2700    86.5350     7.6320     8.4000     8.7990     2.3080 
  183.7500   -24.2250    87.3210     7.3330     8.0590     8.7790     2.3140 
  183.8750   -23.9850    86.2980     7.2250     7.9480     8.5990     2.3180 
  184.0000   -23.6550    85.5210     7.2460     7.9680     8.5920     2.3250 
  184.1250   -23.6180    85.8080     7.3020     8.0130     8.6810     2.3290 
  184.2500   -23.9920    84.2010     7.3510     8.0430     8.4370     2.3230 
  184.3750   -24.5820    84.2010     7.3590     8.0260     8.0980     2.3090 
  184.5000   -25.2420    83.8980     7.2820     7.9090     7.8980     2.2940 
  184.6250   -26.0490    82.9900     7.0900     7.6600     7.7830     2.2800 
  184.7500   -26.6300    82.9900     6.8030     7.3010     7.6250     2.2690 
  184.8750   -26.6100    82.3850     6.4920     6.9080     7.2270     2.2580 
  185.0000   -25.9600    82.3850     6.2690     6.6220     6.8720     2.2480 
  185.1250   -25.3210    82.3850     6.2600     6.5900     6.6960     2.2410 
  185.2500   -25.3400    81.1530     6.6620     7.0390     6.6290     2.2360 
  185.3750   -25.7140    79.3120     7.6640     8.1710     7.4720     2.2350 
  185.5000   -25.9410    75.6670     9.5030    10.2120    11.0220     2.2350 
  185.6250   -26.1380    71.7050    12.3100    13.3140    16.0680     2.2360 
  185.7500   -26.6490    71.0540    15.7100    17.5740    18.9350     2.2360 
  185.8750   -27.3190    71.8210    19.1530    21.3080    20.4490     2.2340 
  186.0000   -27.9290    72.6580    21.8960    24.0500    23.3580     2.2280 
  186.1250   -28.3030    72.6440    23.6980    25.7500    26.7970     2.2150 
  186.2500   -28.3820    72.0050    24.2480    26.1360    28.8290     2.2010 
  186.3750   -28.3820    72.4850    23.8850    25.5780    29.1880     2.1940 
  186.5000   -28.3820    73.8920    22.7590    24.2020    27.6460     2.1980 
  186.6250   -28.3820    76.2250    21.4040    22.6980    24.6800     2.2090 
  186.7500   -28.2540    76.5020    20.6190    21.9490    20.8550     2.2180 
  186.8750   -27.8900    74.4070    20.7600    22.2610    16.6110     2.2210 
  187.0000   -27.6290    70.5120    22.2830    24.0180    17.2000     2.2180 
  187.1250   -27.7030    67.3990    25.1350    27.1180    23.9020     2.2100 
  187.2500   -28.0570    67.9370    29.0350    31.3910    30.1840     2.2010 
  187.3750   -28.3330    70.7010    33.6260    38.6470    35.5580     2.1920 
  187.5000   -28.4410    74.2050    38.5950    45.3140    44.5930     2.1860 
  187.6250   -28.8740    74.4530    43.6230    50.8280    52.2360     2.1820 
  187.7500   -29.6710    72.3950    48.1160    55.5970    52.6780     2.1800 
  187.8750   -30.3110    69.0050    51.9160    59.6180    54.6920     2.1800 
  188.0000   -30.9700    66.2030    55.2680    63.2210    62.1860     2.1780 
  188.1250   -31.7680    63.8970    58.4010    66.6520    67.4630     2.1760 
  188.2500   -32.5750    62.5450    61.5290    70.2370    71.4050     2.1730 
  188.3750   -33.3820    64.2760    65.2940    74.6440    74.6310     2.1700 
  188.5000   -34.2680    66.9420    70.1550    80.3110    73.8320     2.1670 
  188.6250   -35.2320    69.2040    76.9140    88.2150    77.8830     2.1640 
  188.7500   -36.1770    67.4560    86.3080    99.3310   100.1380     2.1580 
  188.8750   -37.3580    64.2430    98.3430   113.6660   122.9850     2.1470 
  189.0000   -38.4510    60.9780   113.2740   130.9700   136.8600     2.1320 
  189.1250   -38.9040    59.0350   127.3380   146.6950   139.2370     2.1170 
  189.2500   -39.2090    56.9990   138.4410   158.4650   133.7350     2.1120 
  189.3750   -39.7500    56.5800   145.3950   165.2010   123.9660     2.1180 
  189.5000   -40.4830    56.0730   148.7460   168.1490   123.5260     2.1290 
  189.6250   -41.0990    55.9520   151.7650   171.0620   136.0430     2.1350 
  189.7500   -41.4230    54.3320   156.9860   176.6470   142.5700     2.1290 
  189.8750   -41.9650    53.2540   166.7530   187.2710   144.2730     2.1150 
  190.0000   -42.6140    52.6080   181.7630   203.2980   154.6440     2.1030 
  190.1250   -42.8900    52.1190   198.1230   220.2630   196.3750     2.0980 
  190.2500   -42.9100    52.9320   211.2810   233.1370   225.9700     2.1000 
  190.3750   -42.9490    54.2770   216.3170   236.5830   206.2420     2.1040 
  190.5000   -43.1550    55.7860   211.1230   229.0950   177.4120     2.1040 
  190.6250   -43.4200    55.2650   199.6760   215.4920   156.6100     2.1010 
  190.7500   -43.5520    55.1680   187.2590   201.7130   147.1880     2.0960 
  190.8750   -43.6560    55.7720   179.0440   193.3550   140.2940     2.0940 
  191.0000   -43.7120    57.3880   180.1020   195.4410   148.5870     2.0960 
  191.1250   -43.7560    58.6120   190.4000   207.4980   196.9980     2.0970 
  191.2500   -43.9810    58.3880   209.3660   228.1530   229.6710     2.0960 
  191.3750   -44.3250    59.0500   231.6190   251.1340   328.8800     2.0940 
  191.5000   -44.4990    59.9530   249.4690   268.0510   401.5810     2.0920 
  191.6250   -44.5240    59.8490   257.7490   273.9450   305.4040     2.0920 
