~V
VERS. 2.00: Ver 2.00
~W
STRT.M 60.0000:
STOP.M 284.0000:
STEP.M 0.1250:
NULL. -999.2500:
UWI. FZI118:
~C
DEPT.M :
DEN.GM/CC :
SP.MV :
R2M. :
R025. :
GR.API :
RML.OHMM :
RI. :
RXO.OHMM :
RA2. :
~A
# ...
  114.7500     2.3360    -7.6850     7.0090    10.4340    83.6510    13.4200    11.4570    14.0080     7.0090 
  114.8750     2.3550    -8.0250     7.9180    11.2260    81.3730    13.5400    12.1210    17.9850     7.9180 
  115.0000     2.3600    -8.4160     8.6360    11.1090    80.2730    12.3060    11.5940    18.3990     8.6360 
  115.1250     2.3440    -8.8210     8.8100    10.2120    82.0660    10.2800    10.1270    12.5520     8.8100 
  115.2500     2.3070    -9.1650     8.4300     9.1940    85.7960     8.4650     8.5900     8.6190     8.4300 
  115.3750     2.2560    -9.4360     7.6480     8.3640    89.3840     7.2240     7.3690     6.8010     7.6480 
  115.5000     2.2070    -9.6030     6.7500     7.8120    90.5190     6.5470     6.5530     6.3180     6.7500 
  115.6250     2.1760    -9.6890     6.0660     7.4270    91.0810     6.2770     6.0990     6.5710     6.0660 
  115.7500     2.1580    -9.7260     5.6690     6.9870    94.1090     6.1110     5.7960     6.3500     5.6690 
  115.8750     2.1480    -9.7590     5.4680     6.4580    97.5880     5.9190     5.5310     5.7010     5.4680 
  116.0000     2.1430    -9.8430     5.3240     5.9470    98.8690     5.7420     5.2990     5.0080     5.3240 
  116.1250     2.1520   -10.0620     5.1750     5.6210    99.1200     5.8630     5.2490     4.7060     5.1750 
  116.2500     2.1710   -10.4610     5.0720     5.5910    99.4490     6.5430     5.5430     5.1460     5.0720 
  116.3750     2.1930   -11.0020     5.0850     6.0720    95.9570     7.9390     6.3160     6.6480     5.0850 
  116.5000     2.2110   -11.6460     5.2440     7.1860    87.3900     9.9630     7.5990     8.8810     5.2440 
  116.6250     2.2220   -12.3610     5.5170     8.5960    79.1950    12.0190     9.1550    10.1170     5.5170 
  116.7500     2.2210   -13.1090     5.8010     9.6080    74.1270    13.1540    10.3120    10.5110     5.8010 
  116.8750     2.2030   -13.8210     6.0400     9.9970    71.8760    12.9510    10.6130    10.4730     6.0400 
  117.0000     2.1720   -14.4500     6.2230     9.9750    72.6790    11.8470    10.1660    10.2790     6.2230 
  117.1250     2.1430   -14.9130     6.3650     9.8370    77.0380    10.7540     9.5030    10.0380     6.3650 
  117.2500     2.1300   -15.2110     6.4780     9.7270    82.1120    10.1430     9.0380     9.8650     6.4780 
  117.3750     2.1350   -15.3860     6.5460     9.6750    86.3100     9.9810     8.8200     9.6920     6.5460 
  117.5000     2.1530   -15.4900     6.5610     9.6750    89.0140    10.1050     8.7880     9.4520     6.5610 
  117.6250     2.1760   -15.5560     6.5500     9.7800    89.0070    10.4000     8.8980     9.3310     6.5500 
  117.7500     2.1980   -15.5950     6.5980     9.9660    86.7850    10.7620     9.0920     9.5530     6.5980 
  117.8750     2.2180   -15.6290     6.7650    10.1000    84.3040    11.0980     9.3200     9.9290     6.7650 
  118.0000     2.2400   -15.6510     7.0310    10.1040    84.5490    11.2570     9.4770     9.8460     7.0310 
  118.1250     2.2650   -15.6890     7.2680    10.0210    87.8850    11.0740     9.4220     9.1570     7.2680 
  118.2500     2.2790   -15.7470     7.3690     9.9060    89.8940    10.6620     9.1850     8.6420     7.3690 
  118.3750     2.2670   -15.8420     7.3350     9.7170    88.0970    10.2020     8.8690     8.3220     7.3350 
  118.5000     2.2360   -15.9710     7.2710     9.4690    84.4970     9.8620     8.5910     8.1770     7.2710 
  118.6250     2.2090   -16.1320     7.3280     9.2600    83.9140     9.7150     8.4280     8.1170     7.3280 
  118.7500     2.1900   -16.3080     7.5290     9.0870    83.0510     9.6470     8.3340     8.0850     7.5290 
  118.8750     2.1720   -16.4610     7.7950     8.9200    80.0950     9.5610     8.2510     7.9400     7.7950 
  119.0000     2.1560   -16.5960     8.0140     8.7480    77.8870     9.4350     8.1520     7.7660     8.0140 
  119.1250     2.1490   -16.6910     8.0980     8.5970    79.6450     9.3450     8.0730     7.6510     8.0980 
  119.2500     2.1490   -16.7440     8.0710     8.5130    81.8700     9.3600     8.0600     7.6630     8.0710 
  119.3750     2.1550   -16.7410     7.9930     8.5540    80.3650     9.4980     8.1310     7.7630     7.9930 
  119.5000     2.1630   -16.6840     7.9660     8.6710    76.0280     9.7360     8.2780     7.8730     7.9660 
  119.6250     2.1740   -16.5670     8.1140     8.7050    72.7030    10.0090     8.4770     8.2630     8.1140 
  119.7500     2.1900   -16.4230     8.4010     8.7130    71.8080    10.2060     8.6540     8.8890     8.4010 
  119.8750     2.2100   -16.2740     8.7120     8.8210    73.2700    10.2580     8.7500     9.4030     8.7120 
  120.0000     2.2210   -16.1310     8.9160     8.9800    77.0990    10.1650     8.7380     9.5640     8.9160 
  120.1250     2.2070   -16.0080     8.9130     8.9860    81.2570     9.9890     8.6310     9.1010     8.9130 
  120.2500     2.1810   -15.9030     8.7820     8.8800    81.1790     9.8380     8.5090     8.7870     8.7820 
  120.3750     2.1640   -15.8260     8.6240     8.8100    78.0790     9.7610     8.4230     8.7000     8.6240 
  120.5000     2.1620   -15.7800     8.5090     8.8040    77.4210     9.7550     8.3920     8.7420     8.5090 
  120.6250     2.1640   -15.7970     8.4400     8.8130    78.6460     9.7810     8.4030     8.7690     8.4400 
  120.7500     2.1590   -15.8450     8.3790     8.8290    77.0770     9.8010     8.4210     8.7230     8.3790 
  120.8750     2.1500   -15.9110     8.3240     8.8520    74.2640     9.8100     8.4390     8.6550     8.3240 
  121.0000     2.1430   -15.9650     8.2850     8.8740    74.1480     9.8030     8.4580     8.5900     8.2850 
  121.1250     2.1420   -16.0050     8.2680     8.8940    76.6950     9.7740     8.4770     8.5630     8.2680 
  121.2500     2.1450   -16.0760     8.2580     8.9030    80.7970     9.7440     8.4950     8.6410     8.2580 
  121.3750     2.1500   -16.1610     8.2430     8.9030    84.6830     9.7390     8.5130     8.7660     8.2430 
  121.5000     2.1540   -16.2540     8.2150     8.9150    84.9560     9.7780     8.5370     8.8640     8.2150 
  121.6250     2.1590   -16.3100     8.1800     8.9620    82.1760     9.8580     8.5700     8.6580     8.1800 
  121.7500     2.1620   -16.3170     8.1670     9.0100    81.2050     9.9280     8.5950     8.4740     8.1670 
  121.8750     2.1620   -16.2910     8.1960     9.0090    83.2950     9.9290     8.5850     8.4640     8.1960 
  122.0000     2.1560   -16.2570     8.2730     8.9430    84.4180     9.8160     8.5080     8.3660     8.2730 
  122.1250     2.1490   -16.2220     8.3710     8.8130    83.3820     9.5640     8.3390     8.0330     8.3710 
  122.2500     2.1450   -16.1510     8.4320     8.6420    83.7160     9.2370     8.1130     7.5940     8.4320 
  122.3750     2.1460   -16.0620     8.4140     8.4490    85.7030     8.9090     7.8770     7.2010     8.4140 
  122.5000     2.1520   -15.9600     8.2980     8.2790    87.7170     8.6720     7.6910     6.9580     8.2980 
  122.6250     2.1570   -15.8650     8.1230     8.1950    87.1340     8.6590     7.6460     6.9270     8.1230 
  122.7500     2.1570   -15.7690     7.9840     8.2110    85.0560     8.8790     7.7670     7.4760     7.9840 
  122.8750     2.1500   -15.6830     7.9500     8.3330    83.6370     9.2830     8.0420     8.4200     7.9500 
  123.0000     2.1380   -15.6150     8.0460     8.5390    82.7550     9.7370     8.3970     9.1850     8.0460 
  123.1250     2.1290   -15.5620     8.2470     8.7540    82.3850    10.0260     8.6910     9.5480     8.2470 
  123.2500     2.1270   -15.5220     8.4570     8.8630    81.5050    10.0400     8.8100     9.5700     8.4570 
  123.3750     2.1320   -15.4630     8.6110     8.8200    80.7350     9.7780     8.7130     9.2560     8.6110 
  123.5000     2.1400   -15.3920     8.6750     8.6430    81.5600     9.3250     8.4260     8.4390     8.6750 
  123.6250     2.1520   -15.2620     8.6320     8.3520    84.4470     8.8040     8.0190     7.9010     8.6320 
  123.7500     2.1670   -15.1240     8.5100     8.0050    87.2770     8.3380     7.6010     7.4180     8.5100 
