~V
VERS. 2.00: Ver 2.00
~W
STRT.M 63.0000:
STOP.M 264.0000:
STEP.M 0.1250:
NULL. -999.2500:
UWI. FZI117T:
~C
DEPT.M :
SP.MV :
GR.API :
RI. :
RML.OHMM :
RXO.OHMM :
DEN.GM/CC :
~A
# ...
  217.5000   -34.7620    62.5450    13.1800    14.2920    13.6020     2.1950 
  217.6250   -34.7620    60.6450    13.6190    14.7670    13.9720     2.1890 
  217.7500   -34.7620    59.3840    14.0690    15.2320    13.8510     2.1850 
  217.8750   -34.7620    58.4850    14.5150    15.6860    13.9830     2.1810 
  218.0000   -34.7620    55.8050    14.9770    16.1780    14.7820     2.1780 
  218.1250   -34.7620    54.3500    15.4810    16.7260    15.6040     2.1760 
  218.2500   -34.7620    54.2630    16.0100    17.2910    16.1260     2.1780 
  218.3750   -34.8010    54.7500    16.4600    17.7470    16.4160     2.1810 
  218.5000   -35.0100    55.3450    16.7840    18.0360    16.3710     2.1840 
  218.6250   -35.1580    55.6880    16.9540    18.1470    16.1750     2.1840 
  218.7500   -35.1840    56.7190    16.9790    18.1010    16.1840     2.1840 
  218.8750   -35.3270    56.4270    16.9010    17.9470    16.3830     2.1860 
  219.0000   -35.5100    56.1760    16.7150    17.6780    16.2300     2.1890 
  219.1250   -35.5690    56.0450    16.4390    17.3200    15.9350     2.1940 
  219.2500   -35.5690    56.7930    16.1110    16.9200    16.2750     2.2040 
  219.3750   -35.5690    57.2080    15.7920    16.5400    16.6900     2.2180 
  219.5000   -35.5690    57.3460    15.5310    16.2370    15.9730     2.2300 
  219.6250   -35.6930    58.7420    15.3610    16.0380    14.5380     2.2350 
  219.7500   -35.9570    59.7800    15.1970    15.8370    13.8230     2.2350 
  219.8750   -35.9730    60.6730    14.9530    15.5470    14.0940     2.2340 
  220.0000   -36.0040    60.1100    14.7270    15.2750    14.4080     2.2350 
  220.1250   -36.2310    60.2060    14.6930    15.2130    14.1050     2.2320 
  220.2500   -36.3790    60.2980    15.0740    15.6270    14.1410     2.2220 
  220.3750   -36.5780    59.2650    16.3080    17.0340    15.9340     2.2080 
  220.5000   -36.7720    56.8610    18.8150    20.4910    19.7040     2.2070 
  220.6250   -36.7800    53.5850    22.3980    24.7710    23.0410     2.2240 
  220.7500   -36.7800    51.3940    26.5500    29.5710    24.8130     2.2450 
  220.8750   -36.7800    48.6350    30.4150    34.0530    27.2600     2.2450 
  221.0000   -36.7800    46.0460    32.9010    36.8240    29.6450     2.2140 
  221.1250   -36.7800    44.5010    33.7350    37.6160    30.5330     2.1720 
  221.2500   -36.7720    46.2350    33.0610    36.6740    31.1030     2.1400 
  221.3750   -36.5780    48.0050    31.6240    34.9530    31.7260     2.1240 
  221.5000   -36.3840    48.7880    30.4280    33.6600    32.5860     2.1180 
  221.6250   -36.2990    48.2810    30.0260    33.2820    33.2960     2.1190 
  221.7500   -36.0190    48.5770    30.2060    33.4480    32.9740     2.1260 
  221.8750   -35.8170    49.2490    29.9760    33.0450    32.5090     2.1400 
  222.0000   -35.2430    50.6220    28.5930    31.3150    32.0340     2.1560 
  222.1250   -34.8710    52.9420    26.2010    28.9610    29.5340     2.1690 
  222.2500   -34.4830    56.6530    23.0960    25.5150    23.5270     2.1810 
  222.3750   -34.0790    59.9280    20.0770    21.9650    17.7690     2.1930 
  222.5000   -33.9550    63.2030    17.5810    19.0910    16.0220     2.2030 
  222.6250   -33.9550    63.3520    15.7950    17.0830    16.0010     2.2090 
  222.7500   -33.9550    62.5210    14.9690    16.1700    15.6860     2.2120 
  222.8750   -33.9550    60.5070    14.8510    16.0130    15.8490     2.2110 
  223.0000   -33.9550    60.7780    15.0080    16.1000    17.0870     2.2070 
  223.1250   -33.9550    61.0890    15.0890    16.0750    18.4770     2.2010 
  223.2500   -33.9550    61.7110    15.1170    16.0020    18.8210     2.1980 
  223.3750   -33.9550    61.7140    15.2710    16.0990    17.1400     2.2010 
  223.5000   -33.9550    60.9110    15.6940    16.5350    15.1340     2.2050 
  223.6250   -33.9550    58.3510    16.5920    17.5520    17.5230     2.2080 
  223.7500   -33.9550    56.1010    18.0650    19.2290    24.2680     2.2080 
  223.8750   -33.9550    55.1520    19.7030    21.0440    30.0090     2.2090 
  224.0000   -33.9550    56.1120    20.8140    22.2100    31.6510     2.2120 
  224.1250   -33.8310    58.2500    20.8940    22.2150    29.9660     2.2150 
  224.2500   -33.5820    60.1070    20.0360    21.2270    26.4960     2.2160 
  224.3750   -33.8310    60.6170    18.9770    20.0950    22.7890     2.2110 
  224.5000   -33.9600    58.6780    18.5030    19.6690    20.9190     2.1950 
  224.6250   -34.1000    56.7690    19.0100    20.3180    23.0600     2.1720 
  224.7500   -34.4670    55.2510    20.6880    22.2100    29.0170     2.1490 
  224.8750   -34.7620    54.5080    23.0940    24.8500    34.3880     2.1330 
  225.0000   -35.0260    53.7580    25.6710    27.5980    36.9510     2.1220 
  225.1250   -35.2430    52.7340    27.7490    29.7550    37.4810     2.1160 
  225.2500   -35.7710    52.8670    28.9670    30.9620    35.9420     2.1130 
  225.3750   -36.3140    52.3670    29.6050    31.5510    33.7090     2.1150 
  225.5000   -36.6400    52.8300    29.8890    31.7870    32.3310     2.1200 
  225.6250   -36.9350    51.8990    30.0310    31.9130    32.0840     2.1210 
  225.7500   -37.4940    51.7590    30.1140    32.0250    32.8680     2.1160 
  225.8750   -37.5870    51.4920    30.1510    32.1280    33.6620     2.1060 
  226.0000   -37.5870    51.3410    30.1420    32.2140    33.3760     2.0970 
  226.1250   -37.5870    50.2790    30.1650    32.3640    33.2330     2.0960 
  226.2500   -37.5870    48.9240    30.4010    32.7330    34.3710     2.1050 
  226.3750   -37.5870    48.1450    30.8840    33.3470    36.1890     2.1240 
  226.5000   -37.5870    47.7350    32.0110    34.7270    42.3540     2.1530 
  226.6250   -37.5560    47.5840    34.5080    37.7780    50.9680     2.1940 
  226.7500   -37.1130    47.2490    38.8440    43.0970    52.6810     2.2550 
  226.8750   -36.5780    47.0770    43.9020    49.1990    78.0030     2.3440 
  227.0000   -36.0890    45.7070    45.4280    50.8590   190.2060     2.4620 
  227.1250   -35.7140    43.1910    40.8890    45.6070   341.2820     2.5810 
  227.2500   -35.3780    40.8800    30.9140    34.0200   414.9670     2.6640 
  227.3750   -34.7410    41.0100    19.7360    20.8430   334.2530     2.6890 
  227.5000   -34.2810    45.1210    11.8140    12.0340   142.6460     2.6530 
  227.6250   -33.5510    53.0120     7.7220     7.9000    24.0300     2.5810 
  227.7500   -32.7440    64.0510     6.0570     6.2820     8.1970     2.5020 
  227.8750   -32.0150    75.5330     5.1970     5.4800     6.6030     2.4380 
  228.0000   -31.5800    83.8670     4.7830     5.1110     5.2990     2.3930 
  228.1250   -31.3780    87.9770     4.5920     4.9450     4.7390     2.3650 
  228.2500   -30.5710    89.2960     4.5210     4.8780     4.7360     2.3520 
  228.3750   -29.9970    91.3070     4.5020     4.8540     4.8830     2.3500 
  228.5000   -29.9120    92.0410     4.5540     4.9180     4.7720     2.3530 
  228.6250   -29.7180    91.2700     4.6760     5.0680     4.6180     2.3540 
  228.7500   -29.5240    87.3520     4.8530     5.2900     4.6960     2.3510 
  228.8750   -29.5160    84.0110     5.0250     5.4990     4.9670     2.3430 
  229.0000   -29.5160    81.7560     5.1350     5.6270     5.3590     2.3300 
  229.1250   -29.5160    82.2470     5.2140     5.7140     5.4230     2.3180 
  229.2500   -29.5160    82.7070     5.3150     5.8360     5.5340     2.3150 
  229.3750   -29.5310    83.0650     5.5540     6.1440     6.4970     2.3270 
  229.5000   -29.8260    80.1940     6.0040     6.7110     8.9760     2.3540 
  229.6250   -30.3850    76.1790     6.6560     7.5250    11.5520     2.3810 
  229.7500   -30.9750    72.1680     7.5360     8.6320    13.8000     2.3990 
  229.8750   -31.1300    69.5550     8.4760     9.8390    14.8370     2.4080 
  230.0000   -31.3630    68.2910     9.4070    11.1340    15.3880     2.4200 
  230.1250   -31.8230    66.7740    10.2230    12.3800    16.9420     2.4390 
  230.2500   -32.3350    66.7900    10.4140    12.8060    18.8720     2.4600 
