~V
VERS. 2.00: Ver 2.00
~W
STRT.M 60.0000:
STOP.M 289.0000:
STEP.M 0.1250:
NULL. -999.2500:
UWI. FZI117:
~C
DEPT.M :
DEN.GM/CC :
SP.MV :
R2M. :
R025. :
RA2. :
GR.API :
RML.OHMM :
RI. :
RXO.OHMM :
~A
# ...
  279.0000     2.3950   -15.5320     9.7970     7.7520     9.7970    94.2930     7.9850     7.3050     7.2870 
  279.1250     2.3880   -15.6730     9.5200     7.8640     9.5200    94.2930     8.0620     7.3950     7.2660 
  279.2500     2.3650   -15.7520     9.1870     7.9490     9.1870    94.2930     8.1990     7.4720     7.2740 
  279.3750     2.3360   -15.7490     8.9310     8.0060     8.9310    94.2930     8.3550     7.5390     7.3760 
  279.5000     2.3100   -15.6790     8.8600     8.0320     8.8600    94.2930     8.5280     7.6080     7.8110 
  279.6250     2.2920   -15.5630     9.0690     8.0910     9.0690    94.2930     8.6780     7.7010     9.5090 
  279.7500     2.2790   -15.4660     9.4170     8.2430     9.4170    94.2930     8.8440     7.8210    11.9550 
  279.8750     2.2660   -15.3540     9.7160     8.4410     9.7160    94.2930     8.9850     7.9560    12.8940 
  280.0000     2.2560   -15.2160     9.8230     8.5760     9.8230    94.2930     9.0940     8.0840    11.5830 
  280.1250     2.2600   -15.1000     9.6950     8.6120     9.6950    94.2930     9.1790     8.1630    10.7850 
  280.2500     2.2790   -15.0570     9.5230     8.6460     9.5230    94.2930     9.2820     8.1910    11.1550 
  280.3750     2.3090   -15.0740     9.4540     8.6850     9.4540    94.2930     9.3710     8.2040    11.1920 
  280.5000     2.3400   -15.1250     9.5340     8.6760     9.5340    94.2930     9.4000     8.2470    10.6590 
  280.6250     2.3600   -15.2180     9.6790     8.6210     9.6790    94.2930     9.3630     8.3310    10.1150 
  280.7500     2.3670   -15.3080     9.7530     8.6160     9.7530    94.2930     9.2940     8.4030     9.2240 
  280.8750     2.3610   -15.4350     9.7220     8.6650     9.7220    94.2930     9.2100     8.4180     8.7640 
  281.0000     2.3450   -15.5890     9.6060     8.6920     9.6060    94.2930     9.0970     8.3700     8.5320 
  281.1250     2.3200   -15.7330     9.4910     8.6830     9.4910    94.2930     9.0300     8.2880     8.8780 
  281.2500     2.2930   -15.8370     9.4420     8.6680     9.4420    94.2930     8.9990     8.2160     9.4120 
  281.3750     2.2730   -15.8950     9.4880     8.6660     9.4880    94.2930     8.9710     8.1680    10.9920 
  281.5000     2.2660   -15.9010     9.6140     8.6650     9.6140    94.2930     8.9100     8.1320    11.9990 
  281.6250     2.2760   -15.8710     9.7430     8.6530     9.7430    94.2930     8.8080     8.0920     9.9810 
  281.7500     2.2960   -15.8430     9.8160     8.6460     9.8160    94.2930     8.7520     8.0500     8.1060 
  281.8750     2.3160   -15.7750     9.8310     8.6350     9.8310    94.2930     8.7330     8.0160     7.4110 
  282.0000     2.3330   -15.7000     9.8230     8.6250     9.8230    94.2930     8.7300     7.9970     7.6100 
  282.1250     2.3450   -15.6280     9.8160     8.6090     9.8160    94.2930     8.7290     7.9950     8.1630 
  282.2500     2.3560   -15.5690     9.8240     8.5980     9.8240    94.2930     8.7190     8.0040     8.5970 
  282.3750     2.3640   -15.5420     9.8640     8.5940     9.8640    94.2930     8.6860     8.0130     8.8330 
  282.5000     2.3660   -15.5780     9.9700     8.5980     9.9700    94.2930     8.6150     8.0130     9.0660 
  282.6250     2.3580   -15.6490    10.1150     8.5910    10.1150    94.2930     8.5470     8.0030     9.8260 
  282.7500     2.3420   -15.7190    10.2190     8.5670    10.2190    94.2930     8.5080     7.9930    10.7090 
  282.8750     2.3290   -15.7620    10.2340     8.5590    10.2340    94.2930     8.5210     7.9920    13.8870 
  283.0000     2.3240   -15.7560    10.1910     8.5830    10.1910    94.2930     8.5800     8.0000    21.2790 
  283.1250     2.3350   -15.7410    10.1750     8.6190    10.1750    94.2930     8.6540     8.0080    25.8560 
  283.2500     2.3520   -15.7260    10.2340     8.6300    10.2340    94.2930     8.7010     8.0100    16.5620 
  283.3750     2.3700   -15.7340    10.3330     8.6420    10.3330    94.2930     8.7040     7.9990    11.3360 
  283.5000     2.3810   -15.7320    10.3900     8.6740    10.3900    94.2930     8.6670     7.9750     9.7120 
  283.6250     2.3840   -15.7030    10.3530     8.6940    10.3530    94.2930     8.6160     7.9450     9.2420 
  283.7500     2.3830   -15.6810    10.2700     8.6800    10.2700    94.2930     8.5820     7.9220     9.0200 
  283.8750     2.3810   -15.7170    10.1910     8.6650    10.1910    94.2930     8.5710     7.9180     9.3260 
  284.0000     2.3820   -15.8240    10.1180     8.6610    10.1180    94.2930     8.5720     7.9370    10.1630 
  284.1250     2.3820   -15.9400    10.0330     8.6560    10.0330    94.2930     8.5680     7.9680    11.2590 
  284.2500     2.3760   -15.9950     9.9330     8.6440     9.9330    94.2930     8.5600     7.9900    10.7540 
  284.3750     2.3620   -15.9960     9.8300     8.6460     9.8300    94.2930     8.5570     7.9980     9.9460 
  284.5000     2.3420   -15.9900     9.7380     8.6510     9.7380    94.2930     8.5570     7.9990     9.2170 
  284.6250     2.3240   -16.0350     9.6920     8.6460     9.6920    94.2930     8.5570     7.9990     9.7830 
  284.7500     2.3160   -16.0870     9.6890     8.6420     9.6890    94.2930     8.5570     7.9990    11.1030 
  284.8750     2.3200   -16.1170     9.6890     8.6420     9.6890    94.2930     8.5570     7.9990    11.0530 
  285.0000     2.3330   -16.1180     9.6510     8.6420     9.6510    94.2930     8.5570     7.9990    10.2730 
  285.1250     2.3480   -16.1000     9.5830     8.6410     9.5830    94.2930     8.5570     7.9990     9.0580 
  285.2500     2.3600   -16.1110     9.5490     8.6430     9.5490    94.2930     8.5570     7.9990     8.8950 
  285.3750     2.3700   -16.2200     9.5890     8.6410     9.5890    94.2930     8.5570     7.9990     9.1720 
  285.5000     2.3700   -16.2630     9.7430     8.6420     9.7430    94.2930     8.5570     7.9990     8.9020 
  285.6250     2.3420   -16.2720     9.9540     8.6410     9.9540    94.2930     8.5570     7.9990     8.7280 
  285.7500     2.2750   -16.2770    10.1560     8.6400    10.1560    94.2930     8.5570     7.9990     9.2020 
  285.8750     2.1690   -16.3000    10.2790     8.6390    10.2790    94.2930     8.5570     7.9990    10.1780 
  286.0000     2.0410   -16.3660    10.3080     8.6410    10.3080    94.2930     8.5570     7.9990     9.1590 
  286.1250     1.9250   -16.4710    10.2930     8.6390    10.2930    94.2930     8.5570     7.9990     7.7090 
  286.2500     1.8430   -16.5860    10.2850     8.6420    10.2850    94.2930     8.5570     7.9990     6.6100 
  286.3750     1.8000   -16.6730    10.3030     8.6450    10.3030    94.2930     8.5570     7.9990     6.1620 
  286.5000     1.7860   -16.7630    10.3230     8.6450    10.3230    94.2930     8.5570     7.9990     6.0360 
  286.6250     1.7850   -16.8290    10.3010     8.6440    10.3010    94.2930     8.5570     7.9990     6.0330 
  286.7500     1.7860   -16.8850    10.2260     8.6450    10.2260    94.2930     8.5570     7.9990     6.0340 
  286.8750     1.7850   -16.9300    10.1390     8.6440    10.1390    94.2930     8.5570     7.9990     6.0350 
  287.0000     1.7840   -16.9400    10.0900     8.6420    10.0900    94.2930     8.5570     7.9990     6.0350 
  287.1250     1.7850   -16.9510    10.0770     8.6440    10.0770    94.2930     8.5570     7.9990     6.0340 
  287.2500     1.7860  -999.2500  -999.2500  -999.2500  -999.2500    94.2930     8.5570     7.9990     6.0350 
  287.3750     1.7890  -999.2500  -999.2500  -999.2500  -999.2500    94.2930     8.5570     7.9990     6.0350 
  287.5000     1.7890  -999.2500  -999.2500  -999.2500  -999.2500    94.2930     8.5570     7.9990     6.0350 
  287.6250     1.7890  -999.2500  -999.2500  -999.2500  -999.2500    94.2930     8.5570     7.9990     6.0350 
  287.7500     1.7870  -999.2500  -999.2500  -999.2500  -999.2500    94.2930     8.5570     7.9990     6.0350 
  287.8750     1.7860  -999.2500  -999.2500  -999.2500  -999.2500    94.2930     8.5570     7.9990     6.0340 
  288.0000     1.7850  -999.2500  -999.2500  -999.2500  -999.2500    94.2930     8.5570     7.9990     6.0340 
