~V
VERS. 2.00: Ver 2.00
~W
STRT.M 63.0000:
STOP.M 264.0000:
STEP.M 0.1250:
NULL. -999.2500:
UWI. FZI117T:
~C
DEPT.M :
SP.MV :
GR.API :
RI. :
RML.OHMM :
RXO.OHMM :
DEN.GM/CC :
~A
# ...
  230.3750   -32.7130    67.6940     9.4920    11.7370    19.3920     2.4730 
  230.5000   -32.7440    70.3600     7.5360     9.1880    19.0630     2.4610 
  230.6250   -32.7440    73.2640     5.2580     5.9820    15.9550     2.4230 
  230.7500   -32.7440    74.0440     3.4440     3.8120     8.4690     2.3710 
  230.8750   -32.7440    73.1420     2.5060     2.7840     3.1000     2.3280 
  231.0000   -32.6590    72.1010     2.1710     2.4880     2.0760     2.3090 
  231.1250   -32.1390    73.5680     2.0850     2.5030     2.3690     2.3080 
  231.2500   -31.4640    75.7210     2.1970     2.7340     2.6730     2.3160 
  231.3750   -30.7420    79.6060     2.3660     2.9830     2.9310     2.3270 
  231.5000   -30.1370    84.0750     2.4700     3.0960     3.0460     2.3420 
  231.6250   -29.8570    87.0060     2.4800     3.0610     2.9710     2.3550 
  231.7500   -29.2670    86.7230     2.4060     2.9290     2.6940     2.3560 
  231.8750   -29.1120    84.3840     2.2880     2.7610     2.2870     2.3470 
  232.0000   -29.1120    83.1710     2.1680     2.6130     2.0620     2.3340 
  232.1250   -29.1120    82.8860     2.0570     2.4910     2.1260     2.3230 
  232.2500   -29.2520    82.0710     1.9690     2.4020     2.1820     2.3140 
  232.3750   -29.5780    81.2750     1.9120     2.3540     2.1280     2.3040 
  232.5000   -29.8800    79.7270     1.8760     2.3400     2.0980     2.2960 
  232.6250   -30.0740    78.8410     1.8550     2.3460     2.1060     2.2890 
  232.7500   -30.2890    78.0170     1.8540     2.3740     2.1850     2.2790 
  232.8750   -30.4680    77.2390     1.8970     2.4540     2.2310     2.2680 
  233.0000   -30.8970    76.8380     1.9990     2.6020     2.1430     2.2600 
  233.1250   -31.2540    75.4310     2.1510     2.8200     2.2610     2.2570 
  233.2500   -31.5180    74.9400     2.3340     3.0890     2.9300     2.2570 
  233.3750   -31.5330    74.9370     2.5110     3.3410     3.6800     2.2570 
  233.5000   -31.5330    76.1530     2.6500     3.5210     3.9500     2.2560 
  233.6250   -31.5330    77.0380     2.7420     3.6170     3.8480     2.2520 
  233.7500   -31.6070    77.9820     2.7930     3.6530     3.5470     2.2490 
  233.8750   -31.8280    80.0500     2.8580     3.7110     3.4020     2.2460 
  234.0000   -31.9800    82.0660     3.0390     3.9610     3.7470     2.2410 
  234.1250   -32.2630    82.7680     3.4010     4.4880     4.2130     2.2380 
  234.2500   -32.3410    80.5040     3.8610     5.1580     4.9030     2.2520 
  234.3750   -32.3410    77.0010     4.2960     5.7930     7.9570     2.2830 
  234.5000   -32.3100    74.1170     4.6380     6.2660    12.4020     2.3110 
  234.6250   -32.0660    74.2250     4.8180     6.4610    12.1790     2.3180 
  234.7500   -31.6320    76.6790     4.7690     6.3180     7.9460     2.3120 
  234.8750   -30.9280    79.0300     4.5500     5.9720     6.1520     2.3090 
  235.0000   -30.0120    80.0600     4.2020     5.4930     7.0160     2.3140 
  235.1250   -29.6400    80.8940     3.8300     5.0260     7.0690     2.3160 
  235.2500   -29.5160    81.6630     3.5420     4.6860     5.8250     2.3100 
  235.3750   -29.4380    83.5680     3.3100     4.3970     4.8260     2.3010 
  235.5000   -29.1430    86.6930     3.1390     4.1920     4.0510     2.2930 
  235.6250   -28.7090    91.0870     3.0650     4.1160     3.3340     2.2840 
  235.7500   -28.3210    94.3670     3.0790     4.1470     3.5200     2.2730 
  235.8750   -28.3210    96.9110     3.1350     4.2210     4.1840     2.2650 
  236.0000   -28.5690    96.8660     3.1970     4.2770     4.4310     2.2630 
  236.1250   -28.7090    94.6800     3.2370     4.2900     4.3570     2.2660 
  236.2500   -28.7240    90.8030     3.2480     4.2610     4.3030     2.2720 
  236.3750   -29.0400    88.8460     3.2400     4.2190     4.2280     2.2770 
  236.5000   -29.4950    89.5930     3.2400     4.2010     4.0150     2.2790 
  236.6250   -29.8880    91.1700     3.2490     4.2030     3.8570     2.2790 
  236.7500   -29.9350    91.1990     3.2630     4.2170     3.8950     2.2770 
  236.8750   -29.0970    89.4000     3.2750     4.2340     3.9500     2.2730 
  237.0000   -29.2180    85.0890     3.2860     4.2520     3.9950     2.2660 
  237.1250   -29.3020    81.1300     3.2970     4.2690     4.1250     2.2550 
  237.2500   -29.3390    78.9420     3.3090     4.2830     4.3500     2.2440 
  237.3750   -29.3390    78.5970     3.3210     4.2970     4.5520     2.2370 
  237.5000   -29.3390    78.4280     3.3340     4.3170     4.6420     2.2410 
  237.6250   -29.3390    77.4790     3.3540     4.3450     4.6840     2.2530 
  237.7500   -29.3390    76.6700     3.3870     4.3870     4.7360     2.2700 
  237.8750   -29.3390    76.1130     3.4250     4.4310     4.8050     2.2850 
  238.0000   -29.3390    76.6930     3.4630     4.4680     4.9060     2.2930 
  238.1250   -29.3390    76.5430     3.4880     4.4840     5.0220     2.2930 
  238.2500   -29.3390    75.6400     3.5010     4.4840     5.0570     2.2890 
  238.3750   -29.3390    74.5420     3.5100     4.4740     5.0190     2.2850 
  238.5000   -29.3390    74.7760     3.5210     4.4660     4.9660     2.2840 
  238.6250   -29.3390    74.4910     3.5340     4.4590     4.9770     2.2870 
  238.7500   -29.3390    72.4890     3.5550     4.4600     5.1120     2.2910 
  238.8750   -29.3390    70.1160     3.5800     4.4660     5.2470     2.2970 
  239.0000   -29.3390    70.6440     3.6030     4.4660     5.2560     2.3030 
  239.1250   -29.3390    73.4520     3.6190     4.4530     5.2000     2.3090 
  239.2500   -29.2690    77.8880     3.6190     4.4150     5.1660     2.3110 
  239.3750   -29.1370    79.6480     3.6050     4.3620     5.1260     2.3100 
  239.5000   -29.0360    78.4420     3.5790     4.3000     5.0270     2.3090 
  239.6250   -28.9090    76.6780     3.5460     4.2320     4.8370     2.3130 
  239.7500   -28.7570    76.2100     3.5110     4.1610     4.5850     2.3180 
  239.8750   -28.6870    75.9690     3.4790     4.0940     4.4560     2.3220 
  240.0000   -28.5820    74.0260     3.4570     4.0350     4.4700     2.3220 
  240.1250   -28.4810    73.6060     3.4450     3.9920     4.3230     2.3230 
  240.2500   -28.3860    75.4950     3.4410     3.9640     3.9460     2.3260 
  240.3750   -28.2730    79.3760     3.4470     3.9490     3.7950     2.3310 
  240.5000   -28.2490    81.9940     3.4630     3.9510     3.9800     2.3340 
  240.6250   -28.2490    83.5140     3.5000     3.9800     4.0060     2.3300 
  240.7500   -28.2170    84.6260     3.6000     4.0870     3.9250     2.3150 
  240.8750   -28.1470    86.9280     3.7850     4.3080     4.0150     2.2990 
  241.0000   -28.1540    89.4080     4.0920     4.6840     4.4510     2.2980 
  241.1250   -28.3100    88.8390     4.4710     5.1430     5.3870     2.3150 
  241.2500   -28.5080    87.6560     4.8280     5.5320     6.1170     2.3370 
  241.3750   -28.6310    85.2350     5.0590     5.7340     6.1820     2.3460 
  241.5000   -28.7620    82.8640     5.2110     5.8170     6.1960     2.3380 
  241.6250   -28.8870    78.4650     5.4960     6.0670     6.3060     2.3230 
  241.7500   -29.0320    75.4970     6.2650     6.9380     7.8410     2.3130 
  241.8750   -29.1340    73.7770     7.8430     8.7740    18.8190     2.3070 
  242.0000   -29.2550    70.7090    10.9530    12.3000    35.2800     2.2990 
  242.1250   -29.3440    64.6260    16.1060    18.2380    41.9820     2.2990 
  242.2500   -29.4970    58.7040    22.3600    25.6050    41.5740     2.3360 
  242.3750   -29.6180    55.1240    28.2330    32.6570    33.2730     2.4150 
  242.5000   -29.7600    53.6020    30.8060    35.6140    25.7550     2.5050 
  242.6250   -29.8700    52.4160    27.7710    31.7490    53.7300     2.5600 
  242.7500   -29.9930    53.1660    20.8220    23.3450    94.6980     2.5510 
  242.8750   -30.1060    57.0290    12.7340    13.7820    81.2580     2.4930 
  243.0000   -30.2450    62.5240     6.5980     6.9500    30.9060     2.4040 
  243.1250   -30.3650    65.7300     3.6810     3.8760     5.0680     2.3140 
