~V
VERS. 2.00: Ver 2.00
~W
STRT.M 60.0000:
STOP.M 289.0000:
STEP.M 0.1250:
NULL. -999.2500:
UWI. FZI117:
~C
DEPT.M :
DEN.GM/CC :
SP.MV :
R2M. :
R025. :
RA2. :
GR.API :
RML.OHMM :
RI. :
RXO.OHMM :
~A
# ...
  187.7500     2.4060   -14.3680     7.7610    10.7810     7.7610    89.0300     9.8720     8.9530    10.0980 
  187.8750     2.4060   -14.4820     8.3330    11.9970     8.3330    86.0640    10.8640     9.6820    10.2710 
  188.0000     2.4000   -14.5830     9.0240    13.6700     9.0240    83.6740    12.3050    10.8740    11.0930 
  188.1250     2.3830   -14.6930     9.7230    15.8210     9.7230    82.1380    14.2370    12.5850    13.9740 
  188.2500     2.3620   -14.8110    10.3080    18.0240    10.3080    79.7590    16.3660    14.5470    18.5450 
  188.3750     2.3470   -14.9620    10.7480    19.9270    10.7480    78.7180    18.3610    16.4780    21.7550 
  188.5000     2.3420   -15.1430    11.0780    21.4540    11.0780    81.6760    19.9540    18.1480    21.8550 
  188.6250     2.3490   -15.3460    11.3530    22.8340    11.3530    85.4730    21.1700    19.5220    19.6370 
  188.7500     2.3580   -15.5600    11.6850    24.4140    11.6850    84.7240    22.7060    20.9370    19.4190 
  188.8750     2.3650   -15.7750    12.1870    26.2540    12.1870    80.3340    25.1490    22.7260    24.2710 
  189.0000     2.3640   -15.9590    12.9440    28.2260    12.9440    77.6300    28.1270    25.0690    32.1550 
  189.1250     2.3540   -16.1190    14.0080    29.9620    14.0080    78.2790    31.2120    27.8190    40.7110 
  189.2500     2.3380   -16.2570    15.2210    31.1240    15.2210    77.3680    33.7280    30.3340    41.8300 
  189.3750     2.3210   -16.3680    16.4430    31.6680    16.4430    75.7290    35.1460    32.0440    40.9140 
  189.5000     2.3060   -16.4640    17.5360    31.7770    17.5360    76.5450    35.1870    32.6550    41.5450 
  189.6250     2.2990   -16.5400    18.3330    31.7230    18.3330    80.1110    34.0810    32.1960    40.6660 
  189.7500     2.2980   -16.6060    18.8950    31.7430    18.8950    83.2850    32.7280    31.3210    34.9090 
  189.8750     2.3000   -16.6910    19.3390    31.8760    19.3390    84.5420    31.6530    30.4660    31.4700 
  190.0000     2.3000   -16.7920    19.8870    32.1610    19.8870    85.5070    31.1050    29.9240    32.5040 
  190.1250     2.3000   -16.8920    20.9080    32.6700    20.9080    85.9030    31.1960    29.9420    33.5590 
  190.2500     2.2990   -16.9770    22.4730    33.3250    22.4730    84.0140    31.7470    30.5000    33.3570 
  190.3750     2.2990   -17.0480    24.5370    34.1610    24.5370    82.0460    32.6890    31.5660    34.0750 
  190.5000     2.2990   -17.1190    26.9170    35.2530    26.9170    81.6960    34.0000    33.0580    36.5470 
  190.6250     2.3020   -17.1820    29.3110    36.6090    29.3110    82.5430    35.8070    34.9290    39.4120 
  190.7500     2.3070   -17.2280    31.5550    38.1730    31.5550    82.7630    38.2550    37.0740    39.8910 
  190.8750     2.3120   -17.2430    33.6620    39.9010    33.6620    82.7060    41.4000    39.4770    39.5030 
  191.0000     2.3150   -17.2340    35.7800    41.7230    35.7800    82.0440    44.5760    42.0940    38.5420 
  191.1250     2.3140   -17.2160    38.1900    43.6440    38.1900    78.1950    47.4320    44.8390    41.9860 
  191.2500     2.3100   -17.2270    40.8870    45.5890    40.8870    75.3320    50.0380    47.5670    47.8470 
  191.3750     2.3050   -17.2640    43.6900    47.4750    43.6900    76.3700    52.6160    50.2270    52.4660 
  191.5000     2.3020   -17.3110    46.3770    49.3390    46.3770    78.8110    55.3710    52.9280    52.5100 
  191.6250     2.3010   -17.3840    48.8080    51.4190    48.8080    79.5040    58.7810    56.1290    51.6600 
  191.7500     2.3020   -17.4660    51.2110    53.8390    51.2110    79.7340    63.2300    60.3040    56.8680 
  191.8750     2.2990   -17.5610    53.9460    56.5460    53.9460    80.2330    69.0870    65.8560    65.8400 
  192.0000     2.2920   -17.6750    57.3400    59.3020    57.3400    79.6510    76.4760    72.8800    76.0770 
  192.1250     2.2790   -17.8000    61.7330    61.7280    61.7330    77.1050    84.9920    80.9520    90.6930 
  192.2500     2.2660   -17.9190    66.9400    63.5760    66.9400    74.0980    92.9720    88.6140   103.2580 
  192.3750     2.2600   -18.0190    72.6990    64.6260    72.6990    71.7290    98.6090    94.3970   107.4840 
  192.5000     2.2640   -18.0950    78.7500    64.9040    78.7500    71.5490   100.4600    97.1030   103.1340 
  192.6250     2.2750   -18.1360    84.8450    64.5210    84.8450    74.2660    97.6600    95.7970    95.9890 
  192.7500     2.2850   -18.1820    90.6980    63.6760    90.6980    76.6190    92.1970    91.8400    90.6740 
  192.8750     2.2900   -18.2480    96.1730    62.5970    96.1730    76.2900    85.8490    86.5630    85.6180 
  193.0000     2.2870   -18.3310   101.0560    61.5130   101.0560    74.4040    80.1910    81.3550    78.6070 
  193.1250     2.2800   -18.4220   105.1130    60.6730   105.1130    74.6460    76.5610    77.6040    73.7080 
  193.2500     2.2750   -18.4950   108.6990    60.2080   108.6990    76.2700    74.9150    75.6690    70.1280 
  193.3750     2.2710   -18.5540   112.1490    60.0580   112.1490    77.3950    74.8980    75.4830    66.1910 
  193.5000     2.2700   -18.6040   115.9080    60.0840   115.9080    76.5290    75.8120    76.5240    65.9420 
  193.6250     2.2710   -18.6430   120.3730    60.0560   120.3730    75.0450    76.8350    77.8930    73.2670 
  193.7500     2.2750   -18.6670   125.1620    59.7580   125.1620    73.8100    77.8360    78.7040    80.8190 
  193.8750     2.2810   -18.6590   129.8740    59.3090   129.8740    72.5180    79.2050    78.7650    78.0520 
  194.0000     2.2890   -18.6080   134.1580    58.9400   134.1580    71.8530    80.3320    78.5150    70.5000 
  194.1250     2.2950   -18.5190   137.7910    58.8010   137.7910    70.9840    81.0350    78.9610    69.5920 
  194.2500     2.2940   -18.4360   141.3610    58.9210   141.3610    69.6740    81.7330    80.6150    75.5340 
  194.3750     2.2870   -18.3810   145.3320    59.1550   145.3320    68.2440    82.9030    83.2370    88.1020 
  194.5000     2.2780   -18.3680   149.8020    59.1130   149.8020    68.3400    84.4270    85.8230    99.9450 
  194.6250     2.2720   -18.4030   154.6090    58.4180   154.6090    69.5400    84.5070    86.5560   102.9350 
  194.7500     2.2740   -18.4470   158.8790    57.1730   158.8790    69.1120    82.1420    84.7250    93.1190 
  194.8750     2.2810   -18.5000   161.6700    55.6620   161.6700    69.0730    77.7840    80.5930    75.0790 
  195.0000     2.2910   -18.5620   162.3490    54.2790   162.3490    72.9900    73.0890    75.2990    63.4110 
  195.1250     2.2990   -18.6410   160.2280    53.3030   160.2280    78.8790    70.2980    70.4720    61.9540 
  195.2500     2.3020   -18.7130   156.2530    52.7430   156.2530    80.1890    68.6700    67.1240    61.3130 
  195.3750     2.3010   -18.7630   151.5920    52.5080   151.5920    76.5320    67.8080    65.5620    60.2590 
  195.5000     2.2990   -18.7730   147.3210    52.4310   147.3210    71.9330    67.4220    65.6250    56.3580 
  195.6250     2.2960   -18.7390   144.4530    52.5360   144.4530    70.8400    67.5020    66.9450    57.5960 
  195.7500     2.2900   -18.7150   142.8610    52.7310   142.8610    73.6010    68.2930    68.6520    63.2470 
  195.8750     2.2820   -18.6990   141.9210    52.8300   141.9210    78.3940    69.9520    70.1740    69.5400 
  196.0000     2.2740   -18.6980   141.1430    52.7780   141.1430    81.8680    71.5570    71.0940    69.5780 
  196.1250     2.2710   -18.7180   140.3020    52.4840   140.3020    81.2660    72.1590    71.0910    67.5300 
  196.2500     2.2740   -18.7430   139.3680    51.9640   139.3680    79.0600    71.3320    70.3660    65.4380 
  196.3750     2.2810   -18.7690   138.5290    51.3770   138.5290    76.8710    70.0480    69.1120    63.5540 
  196.5000     2.2880   -18.7940   137.7910    50.8590   137.7910    75.5270    68.2200    67.5450    62.6440 
  196.6250     2.2960   -18.8150   136.8880    50.4680   136.8880    76.2070    66.6960    65.8570    59.5950 
  196.7500     2.3030   -18.8120   135.7570    50.1920   135.7570    76.9480    65.0390    64.2270    57.4500 
