~V
VERS. 2.00: Ver 2.00
~W
STRT.M 63.0000:
STOP.M 264.0000:
STEP.M 0.1250:
NULL. -999.2500:
UWI. FZI117T:
~C
DEPT.M :
SP.MV :
GR.API :
RI. :
RML.OHMM :
RXO.OHMM :
DEN.GM/CC :
~A
# ...
  127.3750   -26.2870    93.3640     5.7300     6.1680     6.1340     2.2230 
  127.5000   -26.2870    94.5010     5.2610     5.6840     5.8330     2.2330 
  127.6250   -26.2870    96.1800     4.6250     5.0080     5.3830     2.2450 
  127.7500   -26.2870   100.5630     4.0640     4.4080     4.7480     2.2530 
  127.8750   -26.2870   104.6950     3.7120     4.0400     4.0410     2.2500 
  128.0000   -26.2870   108.4340     3.6960     4.0790     3.8700     2.2360 
  128.1250   -26.3180   107.3950     4.0430     4.5740     4.2060     2.2190 
  128.2500   -26.6130   102.2200     4.7730     5.5490     5.7250     2.1990 
  128.3750   -26.8150    94.1650     5.7840     6.8540     9.9870     2.1760 
  128.5000   -27.0870    85.6970     6.8830     8.2060    13.9720     2.1510 
  128.6250   -27.3270    79.6230     7.7310     9.1680    12.8920     2.1270 
  128.7500   -27.8160    77.2420     8.1430     9.5560     9.5000     2.1090 
  128.8750   -28.0260    77.5590     8.1640     9.4790     8.1280     2.0980 
  129.0000   -28.2970    75.7860     7.9030     9.1250     7.6930     2.0920 
  129.1250   -28.5070    70.6180     7.6540     8.8510     7.4790     2.0900 
  129.2500   -28.7940    64.7650     7.5330     8.7550     7.3730     2.0920 
  129.3750   -29.3610    61.1010     7.5320     8.8100     7.3770     2.0950 
  129.5000   -29.5160    60.6370     7.6520     9.0150     7.5670     2.0960 
  129.6250   -29.6400    60.3010     7.8410     9.3060     7.7700     2.0950 
  129.7500   -29.9040    59.8770     8.0690     9.6350     7.9680     2.0970 
  129.8750   -29.9970    58.8740     8.2910     9.9310     8.0120     2.1000 
  130.0000   -30.3540    57.0800     8.4540    10.1330     8.0120     2.0990 
  130.1250   -30.6950    55.4660     8.5480    10.2400     8.0120     2.0930 
  130.2500   -30.7260    55.1930     8.5980    10.2940     8.0550     2.0850 
  130.3750   -30.7420    57.2450     8.6420    10.3470     8.2440     2.0790 
  130.5000   -30.9900    59.2950     8.6770    10.3870     8.5300     2.0790 
  130.6250   -31.1300    61.3570     8.6820    10.3960     8.7720     2.0830 
  130.7500   -31.1380    62.2560     8.6820    10.4190     8.8410     2.0900 
  130.8750   -31.3320    62.5250     8.7300    10.5170     8.6280     2.0940 
  131.0000   -31.5260    61.1620     8.8310    10.6940     8.4630     2.0920 
  131.1250   -31.5330    59.4090     8.9550    10.9020     8.3370     2.0850 
  131.2500   -31.5330    58.4730     9.0450    11.0450     8.2700     2.0760 
  131.3750   -31.5850    57.9000     9.0740    11.0750     8.4490     2.0680 
  131.5000   -31.8390    58.5020     9.0350    10.9890     8.6610     2.0650 
  131.6250   -31.9370    59.0590     8.9520    10.8230     8.8620     2.0670 
  131.7500   -31.9840    59.3510     8.8720    10.6700     8.8910     2.0720 
  131.8750   -32.2630    59.0530     8.8410    10.6030     8.8330     2.0780 
  132.0000   -32.3410    60.1650     8.8550    10.6140     8.7770     2.0780 
  132.1250   -32.3410    61.9190     8.8640    10.6260     8.8530     2.0770 
  132.2500   -32.3410    64.1220     8.8090    10.5530     9.2520     2.0770 
  132.3750   -32.3410    64.4610     8.6710    10.3730     9.5530     2.0810 
  132.5000   -32.3410    63.8120     8.4860    10.1300     9.5880     2.0840 
  132.6250   -32.3410    61.5730     8.2980     9.8900     9.4360     2.0860 
  132.7500   -32.3410    59.6000     8.1670     9.7280     9.0660     2.0880 
  132.8750   -32.3410    58.6820     8.1150     9.6600     8.6930     2.0890 
  133.0000   -32.2420    58.8160     8.1360     9.6820     8.3560     2.0870 
  133.1250   -31.9890    59.3930     8.1910     9.7410     8.0210     2.0840 
  133.2500   -31.9370    59.8930     8.2430     9.7960     7.9440     2.0840 
  133.3750   -31.8590    61.7480     8.2720     9.8200     8.2540     2.0860 
  133.5000   -31.5340    62.6990     8.2570     9.7880     8.6140     2.0860 
  133.6250   -31.2080    62.3540     8.2060     9.7040     8.6180     2.0860 
  133.7500   -31.0830    61.1280     8.1370     9.5930     8.4720     2.0860 
  133.8750   -30.8040    62.5290     8.0790     9.4850     8.3190     2.0880 
  134.0000   -30.5300    64.1100     8.0550     9.4050     8.0820     2.0880 
  134.1250   -30.0230    63.5010     8.0430     9.3250     8.1990     2.0890 
  134.2500   -29.6710    61.6490     8.0000     9.1920    11.3440     2.1010 
  134.3750   -29.1120    61.1910     7.9170     9.0160    12.9820     2.1260 
  134.5000   -28.3520    64.5800     7.8240     8.8390    10.0550     2.1560 
  134.6250   -27.9020    69.6210     7.7640     8.7340     8.6000     2.1750 
  134.7500   -27.8240    74.4360     7.7760     8.7490     8.8010     2.1700 
  134.8750   -27.5290    76.9860     7.8830     8.9240     9.2020     2.1510 
  135.0000   -27.4200    76.8130     8.0500     9.2130     9.4470     2.1320 
  135.1250   -27.1250    75.7300     8.1440     9.4150     9.4930     2.1250 
  135.2500   -26.8930    74.7460     7.9020     9.1710     9.6540     2.1340 
  135.3750   -26.6600    76.0150     7.1820     8.2890     9.7620     2.1530 
  135.5000   -26.3650    79.4060     6.2240     7.0980     9.1190     2.1670 
  135.6250   -26.2870    83.8230     5.3370     6.0130     7.5920     2.1740 
  135.7500   -26.2870    87.5240     4.9470     5.5830     5.6750     2.1860 
  135.8750   -26.2870    88.3320     5.0910     5.8450     4.7900     2.2140 
  136.0000   -26.2870    84.9870     5.7850     6.8170     6.4610     2.2360 
  136.1250   -26.2870    79.5480     7.0630     8.4970     8.8180     2.2250 
  136.2500   -26.3650    73.4830     8.5800    10.3650     9.7250     2.1810 
  136.3750   -26.7840    69.4940     9.8460    11.8180    10.2720     2.1380 
  136.5000   -27.0940    66.2870    10.4900    12.4240    10.7610     2.1170 
  136.6250   -27.4050    63.6740    10.4580    12.1890    11.1240     2.1150 
  136.7500   -28.0260    62.0970    10.1130    11.6680    10.9920     2.1240 
  136.8750   -28.3210    61.5510     9.8560    11.3330    10.2350     2.1370 
  137.0000   -28.5690    62.9310     9.7570    11.2470    10.1690     2.1550 
  137.1250   -28.7860    63.7310     9.7840    11.3450    10.7330     2.1740 
  137.2500   -29.2670    63.9520     9.8830    11.5380    10.6070     2.1880 
  137.3750   -29.5160    62.2100     9.9970    11.7430     9.5990     2.1910 
  137.5000   -29.5160    61.7120    10.0320    11.8150     9.5120     2.1820 
  137.6250   -29.5160    63.3610     9.9840    11.7770    10.1380     2.1710 
  137.7500   -29.5160    65.7090     9.9040    11.6880    11.8220     2.1650 
  137.8750   -29.5160    67.1670     9.8320    11.6120    10.9560     2.1630 
  138.0000   -29.5160    66.8310     9.8570    11.6530     9.9510     2.1580 
  138.1250   -29.5160    65.8670     9.9400    11.7240    10.7210     2.1500 
  138.2500   -29.5160    64.3130    10.0280    11.7720    10.4260     2.1440 
  138.3750   -29.5160    62.3640    10.1220    11.8130    10.1890     2.1430 
  138.5000   -29.5000    62.5690    10.2170    11.8600    10.3920     2.1470 
  138.6250   -29.2360    63.4700    10.2990    11.9020    10.2200     2.1500 
  138.7500   -29.1120    64.0330    10.3190    11.8750    10.4100     2.1450 
  138.8750   -29.1120    62.3550    10.2610    11.7520    10.9720     2.1360 
  139.0000   -29.3140    61.9420    10.1410    11.5550    10.9310     2.1300 
  139.1250   -29.5160    62.4560     9.9840    11.3170    10.6450     2.1320 
  139.2500   -29.5160    64.6680     9.7920    11.0530    10.8760     2.1300 
  139.3750   -29.5160    65.0560     9.6220    10.8470    11.9010     2.1080 
  139.5000   -29.5160    65.4870     9.5950    10.8390    12.4450     2.0720 
  139.6250   -29.4540    65.0700     9.7750    11.0700    11.2630     2.0580 
  139.7500   -28.8170    66.4070    10.0240    11.3500    11.8500     2.1010 
  139.8750   -28.3830    68.7240    10.2530    11.5890    14.1880     2.1920 
  140.0000   -28.3050    72.6940    10.6520    12.0540    14.1770     2.2910 
  140.1250   -28.1810    74.3060    11.3160    12.8610    10.9990     2.3610 
