~V
VERS. 2.00: Ver 2.00
~W
STRT.M 20.0000:
STOP.M 305.0000:
STEP.M 0.1250:
NULL. -999.2500:
UWI. Z111:
~C
DEPT.M :
AC.US/MT :
GR.API :
R025. :
R2M. :
RA2. :
RI. :
RML.OHMM :
RXO.OHMM :
SP.MV :
~A
# ...
  166.0000   429.6170     6.4920    23.2760    52.0180    49.3890    27.6140    30.4010    24.9530    -8.4690 
  166.1250   431.1710     6.5700    22.0260    54.7970    51.4270    25.8670    30.4160    31.0220    -8.0350 
  166.2500   431.9980     6.6340    20.7760    57.5760    53.4640    26.6930    31.7690    35.4530    -7.5870 
  166.3750   432.0140     6.6950    19.5260    55.7620    55.5020    28.1010    36.5470    24.0240    -7.1390 
  166.5000   431.2910     6.8020    18.2750    53.3790    57.5400    31.5670    39.6790    18.6510    -6.6200 
  166.6250   429.6390     6.8610    17.0250    50.9960    55.7030    32.6800    26.7640    15.4900    -6.1840 
  166.7500   427.9170     6.9360    15.7750    49.4240    52.7750    20.3930    22.3710    18.0740    -5.8330 
  166.8750   422.4780     7.1390    14.5250    50.8240    49.8480    17.4470    20.6450    19.7860    -5.5190 
  167.0000   416.8370     7.4160    13.2740    52.0560    50.4780    15.9910    20.5170    20.6740    -5.2670 
  167.1250   415.9420     7.8420    12.0240    47.9090    51.3830    15.5380    19.8550    18.7780    -5.0220 
  167.2500   417.7890     8.3070    10.7740    43.7620    49.5000    16.0110    17.1720     4.8710    -4.7770 
  167.3750   420.9050     8.3610     9.5240    39.6150    43.4880    15.1210    12.8350     4.6630    -4.5320 
  167.5000   423.6240     8.4580     8.2740    35.4680    37.4770    10.1810     7.7980     4.5060    -4.3340 
  167.6250   426.2500     8.4770     7.0230    31.3210    31.4660     7.8200     7.4100     4.4290    -4.1760 
  167.7500   428.0890     8.3190     5.7730    27.1740    25.4540     5.1050     7.2180     4.3370    -4.0170 
  167.8750   429.6430     8.3630     5.4380    23.0260    19.4430     4.8450     7.0120     4.2230    -3.9100 
  168.0000   431.1030     8.4630     5.4170    18.8790    14.7200     5.0060     6.7640     4.1810    -3.8290 
  168.1250   431.1440     8.5100     5.3960    14.7320    14.2360     5.0540     6.5870     4.1280    -3.7510 
  168.2500   424.5030     8.5330     5.3710    10.5850    12.9610     5.0570     6.3860     4.0560    -3.7000 
  168.3750   417.3480     8.4720     5.3460    10.3740    11.6830     4.9780     6.3650     4.0630    -3.6500 
  168.5000   413.8590     8.1930     5.3210    10.2840    11.0340     4.9610     6.3710     4.1070    -3.6210 
  168.6250   414.6770     8.1150     5.2960     9.9210    10.6710     4.9640     6.4480     4.1850    -3.5990 
  168.7500   414.8860     8.1000     5.2560     9.6740    10.3140     4.9670     6.5360     4.2820    -3.6580 
  168.8750   412.9120     8.1440     5.2140     9.6110    10.0020     4.9700     6.6210     4.3780    -3.8820 
  169.0000   413.7320     8.1920     5.2030     9.6210     9.7680     4.9730     6.7210     4.5330    -4.2920 
  169.1250   415.5980     8.1520     5.3330     9.7380     9.6160     4.9980     6.9640     4.6580    -4.6000 
  169.2500   416.8200     8.0240     5.5010     9.9320     9.5450     5.0640     7.2190     4.9080    -4.9080 
  169.3750   417.4930     7.8620     5.6670    10.1260     9.5280     5.1720     7.5270     5.2330    -4.7750 
  169.5000   420.2880     7.8260     5.8250    10.2620     9.5300     5.1870     7.9400     5.5340    -4.5380 
  169.6250   422.5380     7.8030     6.0420     7.4560     9.5830     5.3030     8.3560     5.2950    -4.2600 
  169.7500   422.7300     7.7590     6.3110     6.8500     9.3850     5.4380     8.4240     5.3430    -4.0240 
  169.8750   413.1520     7.6870     6.6470     6.5720     8.8790     5.6310     7.5270     6.1810    -3.7550 
  170.0000   394.0780     7.5840     7.3350     7.2120     8.0210     5.7550     7.7020     6.3410    -3.4820 
  170.1250   375.0040     7.5300     7.8980     8.4300     7.6270     5.8100     7.8650     7.1980    -3.2240 
  170.2500   355.9300     7.3830     8.4790     9.2690     7.1340     5.7120     7.6770     9.5540    -2.9970 
  170.3750   336.8560     7.2830     9.0810     9.9500     7.0220     6.0810     7.9450     9.8610    -2.7960 
  170.5000   317.7820     7.2280     9.9240    10.6450     7.4930     6.7170     8.3630    10.4400    -2.6040 
  170.6250   298.7080     7.0590    10.5660    11.3460     8.0310     7.4660     9.3290    17.4920    -2.4460 
  170.7500   279.6340     6.8510    11.4590    11.9950     8.7120     9.0750    10.9720    35.7530    -2.4470 
  170.8750   279.0090     6.1840    12.6850    12.6820     9.3530    11.1000    13.2030    54.0130    -2.5210 
  171.0000   290.0370     6.1170    13.7900    12.6780    10.1720    12.9200    18.8920    26.5400    -2.6020 
  171.1250   301.0300     6.0620    15.4280    12.3900    11.2090    15.6440    23.2690    18.0050    -2.6840 
  171.2500   288.4190     5.9590    17.2080    12.4680    12.7910    17.9630    23.7270    19.7190    -2.7690 
  171.3750   272.9020     5.8390    18.6090    13.2790    12.5260    19.6330    21.3310    20.7790    -2.8550 
  171.5000   257.3850     5.7600    20.8820    14.2830    12.2000    19.9650    21.6490    22.6440    -2.9470 
  171.6250   241.8680     5.6820    22.2020    15.1710    12.8100    17.8780    24.9940    24.6650    -3.0420 
  171.7500   229.3600     5.5870    22.9340    15.7970    13.6780    20.5930    26.6880    24.6040    -3.1460 
  171.8750   234.2540     5.5680    23.5410    16.4400    14.2950    22.7020    27.7960    25.8030    -3.2990 
  172.0000   252.4320     5.6310    23.8710    16.5930    15.1800    24.3550    28.9780    24.7970    -3.4510 
  172.1250   266.2770     5.6850    23.7110    16.0930    16.0960    25.6230    28.5230    21.2730    -3.5960 
  172.2500   273.2900     5.7270    23.5320    15.6630    16.6420    25.0230    27.4320    17.5500    -3.7410 
  172.3750   278.6010     5.7540    23.3520    15.9260    16.1470    22.8020    25.8850    18.3700    -3.8850 
  172.5000   277.0830     5.7850    23.1640    16.6240    15.6580    19.2140    21.1980    19.3610    -3.9980 
  172.6250   277.8480     5.7080    22.9750    17.7810    16.1320    19.8380    23.6230    20.7410    -4.1060 
  172.7500   274.6560     5.4140    22.7870    19.3440    17.2270    21.0220    24.5470    20.8940    -4.2140 
  172.8750   265.1840     5.5010    22.5510    21.4490    18.7930    21.7930    24.8540    19.0660    -4.3230 
  173.0000   256.4540     5.5420    22.3600    24.4120    22.6400    21.9800    23.5810    22.3240    -4.4380 
  173.1250   257.7860     5.4070    22.1720    27.9630    25.2910    21.2490    22.8090    24.2900    -4.5640 
  173.2500   260.1750     5.4140    21.9360    28.6680    28.0890    19.7130    23.8840    25.5220    -4.6910 
  173.3750   261.2060     5.4420    21.6560    28.4580    28.3650    20.2680    25.0330    18.0290    -4.8180 
  173.5000   258.5490     5.4710    21.4370    29.2150    28.2020    20.9140    21.4270    20.6230    -4.9490 
  173.6250   251.4100     5.4680    21.3440    30.2330    28.7960    19.8920    21.9630    22.8440    -5.0800 
  173.7500   256.7790     5.2660    21.4370    31.4930    29.5870    18.6300    23.4690    24.1650    -5.1620 
  173.8750   260.2900     5.1810    21.3250    32.2880    30.5830    19.5320    24.8980    24.9720    -5.2440 
  174.0000   263.5160     5.1520    21.1020    32.2420    31.8330    20.6540    24.8820    19.4560    -5.3260 
  174.1250   262.5790     5.2640    20.6110    33.1630    32.0410    21.1770    22.5730    21.4820    -5.4070 
  174.2500   262.6700     5.3460    20.1810    33.9730    33.0540    19.3030    23.7540    20.7210    -5.4870 
  174.3750   269.1080     5.4110    19.8320    33.2220    33.8270    18.4680    24.6640    17.1270    -5.5680 
  174.5000   275.7030     5.4720    19.5440    32.7220    34.1360    19.4520    25.1410    15.6420    -5.6610 
  174.6250   280.6930     5.5090    19.2630    32.2570    34.3240    20.3640    21.7790    17.9140    -5.7540 
  174.7500   284.6230     5.5280    19.0820    31.6940    34.4860    19.6040    20.8640    20.2450    -5.8550 
  174.8750   289.3460     5.5370    19.0450    31.1710    32.4360    17.7360    20.4210    21.9610    -5.9560 
  175.0000   293.1210     5.4230    19.1830    30.5990    31.5140    17.1730    19.5430    17.8250    -6.0520 
