~V
VERS. 2.00: Ver 2.00
~W
STRT.M 20.0000:
STOP.M 305.0000:
STEP.M 0.1250:
NULL. -999.2500:
UWI. Z111:
~C
DEPT.M :
AC.US/MT :
GR.API :
R025. :
R2M. :
RA2. :
RI. :
RML.OHMM :
RXO.OHMM :
SP.MV :
~A
# ...
  184.2500   312.7670     6.2250    11.4330    17.5760    18.9430    12.0620    11.0490     9.5910    -4.2060 
  184.3750   312.4680     6.1700    11.4030    17.2860    17.5830    10.1990    11.2090     9.3360    -4.0160 
  184.5000   312.2520     6.1430    11.4610    17.0100    17.0780    10.2250    11.4530    10.2230    -3.8210 
  184.6250   312.2450     6.0270    11.5640    17.3890    17.0810    10.4710    11.3570    10.8280    -3.6200 
  184.7500   312.2370     6.0260    11.6090    18.1280    17.1890    10.4660    11.5320    11.0850    -3.3790 
  184.8750   312.4320     6.0550    11.5190    18.6180    17.4990     9.8060    12.6780    10.6430    -3.1210 
  185.0000   313.9750     6.1300    11.2690    18.3480    17.9910    10.0670    13.3160     9.8380    -2.8980 
  185.1250   316.6430     6.2160    11.0340    17.9960    18.4560    10.6490    13.7840     9.2070    -2.6670 
  185.2500   319.7940     6.3070    10.8050    17.6890    18.1400    11.2260    13.7220     9.9510    -2.4290 
  185.3750   318.9790     6.6240    10.6200    17.4120    17.6200    11.7920    12.8070     9.3090    -2.1930 
  185.5000   314.5020     6.6840    10.5570    17.1850    17.3960    11.1020    11.6910     9.6940    -1.9410 
  185.6250   308.0310     6.6260    10.4940    17.2590    17.3440    10.1370    11.1990    10.0940    -1.7500 
  185.7500   300.1990     6.5010    10.4850    17.4140    17.2760     9.6800    11.3060    10.6550    -1.6030 
  185.8750   295.6910     6.1870    10.6250    17.5290    17.1850     9.6960    11.6410    10.9130    -1.5180 
  186.0000   292.0590     6.1830    10.8430    17.3110    17.0670     9.8890    11.8250    10.6690    -1.4620 
  186.1250   291.1210     6.1530    11.0720    17.0040    17.0050    10.1390    12.0070    11.0620    -1.4310 
  186.2500   293.4240     6.1250    11.3330    16.7520    16.9010    10.3220    12.2790    11.9300    -1.4620 
  186.3750   296.0770     6.0020    11.5760    16.5270    16.7550    10.7470    12.3960    12.3870    -1.6130 
  186.5000   296.1980     5.9360    11.8110    16.3640    16.5490    11.0260    12.4560    10.6570    -1.8050 
  186.6250   294.9690     5.9010    12.0160    16.5710    16.4570    11.2820    12.3640    16.0930    -1.9580 
  186.7500   292.6190     6.0370    12.2110    17.0790    16.4590    11.4460    12.4680    18.8010    -2.0040 
  186.8750   290.8780     6.0880    12.4060    17.6360    16.6130    11.5640    12.6310    12.0350    -2.0510 
  187.0000   290.1720     6.1470    12.5890    17.8790    17.0130    11.6820    13.0700    11.8950    -2.0550 
  187.1250   290.7890     6.2310    12.6950    17.6270    17.4360    11.7830    13.3740    11.3540    -2.0350 
  187.2500   291.0560     6.2800    12.6810    17.3410    17.4070    11.8590    13.4930    11.0830    -2.0100 
  187.3750   291.0480     6.1540    12.6560    17.0270    17.0570    12.0460    13.5110    10.8000    -1.9690 
  187.5000   291.0410     6.3000    12.6240    16.7690    16.7270    12.1890    13.2380    10.6920    -1.9110 
  187.6250   291.5690     6.3150    12.5890    16.6460    16.4930    12.2000    12.4610    12.6050    -1.8530 
  187.7500   292.3720     6.2920    12.5530    16.8400    16.4760    11.9800    12.3090    14.1440    -1.7810 
  187.8750   293.0210     6.4150    12.4800    17.0340    16.5790    11.7240    12.3880    12.6970    -1.7050 
  188.0000   293.0130     6.4720    12.3960    16.8640    16.7410    11.3990    12.5240    11.1210    -1.6290 
  188.1250   293.0060     6.3990    12.3120    16.5910    16.9260    11.3880    12.2720    10.3200    -1.5740 
  188.2500   292.9510     6.2170    12.2280    16.2880    16.9090    11.3460    11.9740     9.9150    -1.5190 
  188.3750   290.2960     6.1570    12.1510    15.9860    16.6190    11.2950    11.5440     9.5120    -1.4720 
  188.5000   286.0410     6.1110    12.0730    15.6840    16.2440    11.1170    11.2230    10.0250    -1.4690 
  188.6250   285.5850     6.0700    11.9950    15.6790    15.9130    10.3410    11.0290    11.5090    -1.4660 
  188.7500   286.8270     6.0680    11.9180    16.0590    15.8050    10.1010    11.1380    12.5980    -1.4630 
  188.8750   288.3480     6.0810    11.8400    16.4860    16.0190    10.1030    11.5330    10.8970    -1.4600 
  189.0000   288.8630     6.0810    11.7480    16.6860    16.3120    10.3340    12.1130     9.3540    -1.4570 
  189.1250   289.3020     6.0530    11.6610    16.4090    16.5600    10.5780    12.0180     9.7540    -1.4540 
  189.2500   288.7370     6.1200    11.5980    16.1360    16.4000    10.6820    10.8540     9.4040    -1.4510 
  189.3750   284.0900     6.1680    11.6580    16.0670    15.9530     9.9760    10.9730    10.2220    -1.4480 
  189.5000   279.5580     6.2020    11.7870    16.2790    15.9910     9.7460    11.3400    11.4450    -1.4450 
  189.6250   277.8940     6.1320    11.9170    16.6030    16.2200     9.9340    11.5700    12.9350    -1.4420 
  189.7500   277.9440     6.2610    12.0460    16.9460    16.4490    10.1270    11.6720    12.9810    -1.4390 
  189.8750   279.5140     6.3250    12.0480    17.0860    16.6890    10.3480    11.8530    11.5610    -1.4360 
  190.0000   281.2920     6.3870    11.9800    16.7890    16.9830    10.6090    12.2090    11.7320    -1.4330 
  190.1250   282.9900     6.4280    11.8220    16.4620    17.2110    10.9070    12.6890    10.6330    -1.4300 
  190.2500   283.6310     6.4790    11.6340    15.9940    16.9870    11.1510    12.7260     9.7340    -1.4270 
  190.3750   285.0080     6.5080    11.4050    15.4870    16.5760    11.2530    12.5680     8.6490    -1.4240 
  190.5000   287.2310     6.3600    11.1750    14.9460    16.2020    11.2560    11.8390     7.9260    -1.4850 
  190.6250   290.6650     6.5050    10.9020    14.5130    15.9430    10.5780    11.2190     8.0380    -1.5670 
  190.7500   293.3970     6.6080    10.6280    14.0870    15.4650     9.5780    10.2210     8.8590    -1.5960 
  190.8750   295.6340     6.7670    10.3200    13.8000    14.8420     8.9180    10.0130     8.9770    -1.6420 
  191.0000   295.5180     6.7220    10.0260    13.4140    14.5570     8.5380    10.0210     8.8260    -1.7200 
  191.1250   290.4140     6.7740     9.7750    13.1780    14.3990     8.3340    10.1060     8.6750    -1.8300 
  191.2500   292.6150     6.7800     9.5780    13.1460    14.1790     8.3370    10.1310     8.6380    -1.9650 
  191.3750   296.7590     6.6910     9.4140    12.8400    13.8060     8.3400     9.3960     8.2630    -2.1490 
  191.5000   300.6560     6.7470     9.2570    12.5900    13.3870     8.3430     9.3300     7.8650    -2.3320 
  191.6250   304.2060     6.8020     9.1740    12.3880    12.8930     8.3460     9.2510     8.2150    -2.5410 
  191.7500   309.5770     6.7880     9.1110    12.0790    12.5580     8.3470     9.0580     9.6450    -2.9380 
  191.8750   314.0050     7.1360     9.0710    12.2620    12.2170     8.2170     8.9410    11.5460    -3.2950 
  192.0000   318.6810     7.3640     9.3670    13.1290    12.2710     8.1720    11.2080    13.4300    -3.5550 
  192.1250   323.3580     7.5000    11.5070    14.5330    13.1230     9.3230    12.9680    14.9720    -3.7320 
  192.2500   327.7810     7.5780    13.0420    15.6340    14.0140    11.4310    14.0860    16.4590    -3.7680 
  192.3750   331.9870     7.7260    14.2230    16.4390    14.7960    13.2480    15.2310    15.3850    -3.8400 
  192.5000   336.8380     7.8090    14.7680    17.0780    16.0640    14.6390    16.1100    15.5930    -3.8920 
  192.6250   339.2350     7.7440    15.2730    17.4860    17.5640    15.5430    16.6010    15.3330    -3.9260 
  192.7500   339.8140     7.5750    15.7630    17.9640    18.1420    15.9830    16.3190    15.2230    -3.9850 
  192.8750   337.5470     7.4840    16.2960    18.3530    18.2210    16.1920    16.1320    15.0870    -4.0150 
  193.0000   331.0210     7.5690    16.7480    18.3730    18.2640    16.2920    16.3330    16.3850    -4.0120 
  193.1250   325.9310     7.6660    17.1520    18.9480    18.3420    16.2550    16.6110    17.9910    -3.9540 
  193.2500   324.6150     7.7850    17.5920    19.8460    18.5890    16.2830    16.6650    16.3240    -3.8910 
