~V
VERS. 2.00: Ver 2.00
~W
STRT.M 20.0000:
STOP.M 305.0000:
STEP.M 0.1250:
NULL. -999.2500:
UWI. Z111:
~C
DEPT.M :
AC.US/MT :
GR.API :
R025. :
R2M. :
RA2. :
RI. :
RML.OHMM :
RXO.OHMM :
SP.MV :
~A
# ...
   56.5000     0.0000     0.0000     5.6680     6.1480     0.0000     0.0000     0.0000     0.0000     0.0000 
   56.6250     0.0000     0.0000     4.8340     5.3480     0.0000     0.0000     0.0000     0.0000     0.0000 
   56.7500     0.0000     0.0000     4.2190     5.0070     0.0000     0.0000     0.0000     0.0000     0.0000 
   56.8750     0.0000     0.0000     3.8060     4.5500     0.0000     0.0000     0.0000     0.0000     0.0000 
   57.0000     0.0000     0.0000     3.8630     4.2460     0.0000     0.0000     0.0000     0.0000     0.0000 
   57.1250     0.0000     0.0000     4.1020     4.0280     0.0000     0.0000     0.0000     0.0000     0.0000 
   57.2500     0.0000     0.0000     4.3420     4.0140     0.0000     0.0000     0.0000     0.0000     0.0000 
   57.3750     0.0000     0.0000     4.5810     4.9490     0.0000     0.0000     0.0000     0.0000     0.0000 
   57.5000     0.0000     0.0000     4.8200     8.7480     0.0000     0.0000     0.0000     0.0000     0.0000 
   57.6250     0.0000     0.0000     5.1390     8.8230     0.0000     0.0000     0.0000     0.0000     0.0000 
   57.7500     0.0000     0.0000     5.4890     8.3140     0.0000     0.0000     0.0000     0.0000     0.0000 
   57.8750     0.0000     0.0000     5.7500     7.6660     0.0000     0.0000     0.0000     0.0000     0.0000 
   58.0000     0.0000     0.0000     6.2750     6.9560     0.0000     0.0000     0.0000     0.0000     0.0000 
   58.1250     0.0000     0.0000     5.4730     6.2860     0.0000     0.0000     0.0000     0.0000     0.0000 
   58.2500     0.0000     0.0000     5.0290     4.6770     0.0000     0.0000     0.0000     0.0000     0.0000 
   58.3750     0.0000     0.0000     4.8240     4.5350     0.0000     0.0000     0.0000     0.0000     0.0000 
   58.5000     0.0000     0.0000     4.6730     4.5360     0.0000     0.0000     0.0000     0.0000     0.0000 
   58.6250     0.0000     0.0000     4.5250     4.5370     0.0000     0.0000     0.0000     0.0000     0.0000 
   58.7500     0.0000     0.0000     4.4310     4.5240     0.0000     0.0000     0.0000     0.0000     0.0000 
   58.8750     0.0000     0.0000     4.2820     3.9860     0.0000     0.0000     0.0000     0.0000     0.0000 
   59.0000     0.0000     0.0000     4.0630     3.7740     0.0000     0.0000     0.0000     0.0000     0.0000 
   59.1250     0.0000     0.0000     4.0710     3.8900     0.0000     0.0000     0.0000     0.0000     0.0000 
   59.2500     0.0000     0.0000     4.5120     4.2420     0.0000     0.0000     0.0000     0.0000     0.0000 
   59.3750     0.0000     0.0000     4.9540     4.8360     0.0000     0.0000     0.0000     0.0000     0.0000 
   59.5000     0.0000     0.0000     5.3640     5.1930     0.0000     0.0000     0.0000     0.0000     0.0000 
   59.6250     0.0000     0.0000     5.7150     5.4830     0.0000     0.0000     0.0000     0.0000     0.0000 
   59.7500     0.0000     0.0000     6.0960     5.7200     0.0000     0.0000     0.0000     0.0000     0.0000 
   59.8750     0.0000     0.0000     6.6290     4.4950     0.0000     0.0000     0.0000     0.0000     0.0000 
   60.0000     0.0000     0.0000     7.2120     5.1120     0.0000     0.0000     0.0000     0.0000     0.0000 
   60.1250     0.0000     0.0000     7.6310     5.6230     0.0000     0.0000     0.0000     0.0000     0.0000 
   60.2500     0.0000     0.0000     8.1230     5.9550     0.0000     0.0000     0.0000     0.0000     0.0000 
   60.3750     0.0000     0.0000     8.1390     6.2860     0.0000     0.0000     0.0000     0.0000     0.0000 
   60.5000     0.0000     0.0000     7.9380     6.6180     0.0000     0.0000     0.0000     0.0000     0.0000 
   60.6250     0.0000     0.0000     7.4160     5.2150     0.0000     0.0000     0.0000     0.0000     0.0000 
   60.7500     0.0000     0.0000     6.8380     4.6180     0.0000     0.0000     0.0000     0.0000     0.0000 
   60.8750     0.0000     0.0000     6.3330     4.5010     0.0000     0.0000     0.0000     0.0000     0.0000 
   61.0000     0.0000     0.0000     5.7920     4.5030     0.0000     0.0000     0.0000     0.0000     0.0000 
   61.1250     0.0000     0.0000     5.5130     4.5470     0.0000     0.0000     0.0000     0.0000     0.0000 
   61.2500     0.0000     0.0000     5.2940     4.7230     0.0000     0.0000     0.0000     0.0000     0.0000 
   61.3750     0.0000     0.0000     4.9980     5.0230     0.0000     0.0000     0.0000     0.0000     0.0000 
   61.5000     0.0000     0.0000     4.7480     5.2490     0.0000     0.0000     0.0000     0.0000     0.0000 
   61.6250     0.0000     0.0000     4.5690     5.4970     0.0000     0.0000     0.0000     0.0000     0.0000 
   61.7500     0.0000     0.0000     4.5660     5.7410     0.0000     0.0000     0.0000     0.0000     0.0000 
   61.8750     0.0000     0.0000     4.6090     5.9680     0.0000     0.0000     0.0000     0.0000     0.0000 
   62.0000     0.0000     0.0000     4.6740     6.2000     0.0000     0.0000     0.0000     0.0000     0.0000 
   62.1250     0.0000     0.0000     4.8470     6.4330     0.0000     0.0000     0.0000     0.0000     0.0000 
   62.2500     0.0000     0.0000     5.0210     6.5730     0.0000     0.0000     0.0000     0.0000     0.0000 
   62.3750     0.0000     0.0000     5.1700     6.6650     0.0000     0.0000     0.0000     0.0000     0.0000 
   62.5000     0.0000     0.0000     4.9550     6.6650     0.0000     0.0000     0.0000     0.0000     0.0000 
   62.6250     0.0000     0.0000     5.0560     6.5930     0.0000     0.0000     0.0000     0.0000     0.0000 
   62.7500     0.0000     0.0000     5.1850     6.1930     0.0000     0.0000     0.0000     0.0000     0.0000 
   62.8750     0.0000     0.0000     5.5250     5.9230     0.0000     0.0000     0.0000     0.0000     0.0000 
   63.0000     0.0000     0.0000     5.8550     5.4890     0.0000     0.0000     0.0000     0.0000     0.0000 
   63.1250     0.0000     0.0000     6.1930     5.5350     0.0000     0.0000     0.0000     0.0000     0.0000 
   63.2500     0.0000     0.0000     6.5310     5.7290     0.0000     0.0000     0.0000     0.0000     0.0000 
   63.3750     0.0000     0.0000     6.8530     5.9850     0.0000     0.0000     0.0000     0.0000     0.0000 
   63.5000     0.0000     0.0000     7.1450     6.2730     0.0000     0.0000     0.0000     0.0000     0.0000 
   63.6250     0.0000     0.0000     7.4640     6.4790     0.0000     0.0000     0.0000     0.0000     0.0000 
   63.7500     0.0000     0.0000     7.9270     6.6820     0.0000     0.0000     0.0000     0.0000     0.0000 
   63.8750     0.0000     0.0000     8.2960     6.8110     0.0000     0.0000     0.0000     0.0000     0.0000 
   64.0000     0.0000     0.0000     8.6640     6.4420     0.0000     0.0000     0.0000     0.0000     0.0000 
   64.1250     0.0000     0.0000     9.0150     5.8200     0.0000     0.0000     0.0000     0.0000     0.0000 
   64.2500     0.0000     0.0000     9.3270     5.8190     0.0000     0.0000     0.0000     0.0000     0.0000 
   64.3750     0.0000     0.0000     9.7410     6.8220     0.0000     0.0000     0.0000     0.0000     0.0000 
   64.5000     0.0000     0.0000    10.1900     7.6420     0.0000     0.0000     0.0000     0.0000     0.0000 
   64.6250     0.0000     0.0000    10.5410     8.5150     0.0000     0.0000     0.0000     0.0000     0.0000 
   64.7500     0.0000     0.0000    10.8370     9.0200     0.0000     0.0000     0.0000     0.0000     0.0000 
   64.8750     0.0000     0.0000    10.8200     8.1190     0.0000     0.0000     0.0000     0.0000     0.0000 
   65.0000     0.0000     0.0000    10.2790     7.6200     0.0000     0.0000     0.0000     0.0000     0.0000 
   65.1250     0.0000     0.0000     9.7010     7.2420     0.0000     0.0000     0.0000     0.0000     0.0000 
   65.2500     0.0000     0.0000     9.2840     6.8070     0.0000     0.0000     0.0000     0.0000     0.0000 
   65.3750     0.0000     0.0000     8.8880     6.6180     0.0000     0.0000     0.0000     0.0000     0.0000 
   65.5000     0.0000     0.0000     8.5710     6.3780     0.0000     0.0000     0.0000     0.0000     0.0000 
