~V
VERS. 2.00: Ver 2.00
~W
STRT.M 20.0000:
STOP.M 305.0000:
STEP.M 0.1250:
NULL. -999.2500:
UWI. Z111:
~C
DEPT.M :
AC.US/MT :
GR.API :
R025. :
R2M. :
RA2. :
RI. :
RML.OHMM :
RXO.OHMM :
SP.MV :
~A
# ...
  257.2500   342.5380     8.7560    16.5730    22.0630    28.9840    12.0040    14.8530    41.6970   -13.3580 
  257.3750   341.6210     8.7350    19.7570    25.4210    30.3640    12.0730    20.6000    39.7310   -13.5320 
  257.5000   337.9140     8.6730    20.8940    27.9660    33.4080    15.9080    26.3470    34.8900   -13.7060 
  257.6250   335.3790     8.6660    21.4220    31.2520    34.4390    20.7890    32.0950    18.6960   -13.7160 
  257.7500   336.2230     8.6480    21.2960    35.9730    33.9840    27.2400    34.3150    14.3410   -13.7130 
  257.8750   338.9820     8.6000    20.9240    34.7050    32.3290    29.1920    29.3060    12.1760   -13.7090 
  258.0000   338.7100     8.5570    20.4610    30.1140    28.6100    24.9980    22.9120    23.4830   -13.6590 
  258.1250   329.7880     8.5060    19.9710    25.6210    26.6420    16.8560    16.5930    20.1020   -13.5370 
  258.2500   324.7130     8.8650    18.9790    24.4310    24.5170    14.9350    17.9350    14.5430   -13.4140 
  258.3750   326.3870     8.7670    17.9080    23.6500    23.4540    16.1080    17.4880     9.1000   -13.2920 
  258.5000   330.9550     8.6590    16.4480    23.2330    22.2140    16.5480    13.4800     9.3800   -13.1700 
  258.6250   333.9600     8.5600    14.8300    21.8150    20.0980    14.4330    10.4810    10.1940   -13.0480 
  258.7500   335.8840     8.4860    13.3410    18.7660    18.3090    12.7160     9.8060     9.8050   -13.1560 
  258.8750   337.7520     8.4570    12.3270    17.9500    17.2620    11.2290     9.8620    10.0200   -13.4220 
  259.0000   340.6820     8.3760    11.4110    17.0450    15.9140     9.7850     9.9190     8.8620   -13.7780 
  259.1250   349.0350     8.2440    10.7240    16.2020    14.8750     9.2150     9.8680     7.8860   -14.0560 
  259.2500   355.3340     8.1010    10.2340    15.5920    13.8590     9.1340     9.6510     7.4730   -14.0220 
  259.3750   354.3430     8.0050     9.5700    14.8490    13.7100     8.9390     9.3030     7.0600   -13.9680 
  259.5000   351.1090     7.8960     9.0950    13.8510    13.7090     8.7440     8.9130     6.7780   -13.9140 
  259.6250   344.7140     7.9470     8.7300    13.6020    14.0070     8.4710     8.5360     7.5260   -13.8610 
  259.7500   338.9200     8.0440     8.4310    13.9330    14.9730     8.1130     8.4300     8.9430   -13.8070 
  259.8750   332.6120     8.0530     8.1380    14.6850    15.9510     7.6890     8.6360    13.4680   -13.8480 
  260.0000   327.3610     8.0090     8.1620    15.4470    16.7810     7.7150     9.1130    12.4860   -13.8910 
  260.1250   322.7200     8.0440     8.4770    18.4840    17.5040     8.4850    10.3270     9.5110   -13.9340 
  260.2500   329.4010     8.0810     8.8130    17.9260    18.1470     9.3730    12.0030     6.7680   -13.9920 
  260.3750   343.5960     8.0110     9.2100    17.1630    17.1030    10.3230    11.4370     7.4280   -14.0550 
  260.5000   357.2500     7.9350     9.3850    16.4010    15.4790     9.4650     9.6950     7.2660   -14.1170 
  260.6250   364.8760     7.8890     9.1000    15.6390    13.5750     8.7710     8.3990     7.5120   -14.1790 
  260.7500   364.5680     8.0410     8.8150    14.8770    12.7990     8.3610     8.1550     7.6490   -14.2420 
  260.8750   363.7530     8.2540     8.4910    14.1150    12.5150     8.1020     8.1120     7.6560   -14.4610 
  261.0000   362.7050     8.1540     8.1200    13.3520    12.2580     7.7650     8.0890     8.2810   -14.8420 
  261.1250   362.3440     8.0260     7.8870    12.5900    11.9930     7.7500     8.1400     9.3070   -15.1990 
  261.2500   362.9850     7.9000     7.8910    11.8280    11.6270     7.6960     8.1910     9.7890   -15.5370 
  261.3750   365.5720     7.8160     7.8910    11.0660    11.0360     7.6140     8.3000    11.5200   -15.6310 
  261.5000   367.4140     7.8840     7.8920    10.5780    10.5910     7.5120     8.4120     9.2430   -15.4700 
  261.6250   358.1950     8.1830     7.7920    10.5330    10.3610     7.8710     8.5140     7.0520   -15.2490 
  261.7500   346.8290     7.8840     7.7900    10.5700    10.3070     8.1910     8.6970     9.7080   -15.0120 
  261.8750   337.4530     7.9320     7.7900    10.6080    10.3660     8.2850     9.0510     9.4460   -14.7700 
  262.0000   339.2580     8.0850     7.8020    10.6320    10.4560     8.3780     9.7330     7.9230   -14.5550 
  262.1250   350.1130     8.1870     7.8760    10.6330    10.4770     8.8050     9.7800     7.4510   -14.3540 
  262.2500   360.6410     8.2950     7.9500    10.5710    10.3480     8.3510     8.7770     8.1690   -14.1710 
  262.3750   361.9120     8.4260     8.0280    10.4870    10.1410     8.0960     8.4830     8.4330   -14.0600 
  262.5000   363.5510     8.4690     8.1140    10.3270     9.8540     8.0200     8.4510     8.6180   -14.0280 
  262.6250   363.7580     8.3490     8.2000    10.0120     9.6860     7.7560     8.4570     9.9360   -14.2220 
  262.7500   360.6950     8.5370     8.2040     9.7710     9.6420     7.5740     8.2730     8.1920   -14.7330 
  262.8750   354.8010     8.5510     8.1680     9.8620     9.6970     7.4190     8.1170    10.6370   -15.2590 
  263.0000   348.9150     8.4810     8.0670    10.3410    10.1130     7.4080     8.4560    14.3700   -15.6040 
  263.1250   342.6750     8.4800     7.9160    11.1780    10.6460     7.5540    10.5890    13.7080   -15.7800 
  263.2500   337.8270     8.3990     8.0580    12.2950    11.1900     8.7330    12.1980    12.6660   -15.9060 
  263.3750   333.9780     8.3800     8.3350    12.7820    11.6490    10.2560    12.2770    11.8720   -15.9930 
  263.5000   330.8460     8.4250     8.6500    12.7460    12.0400    11.4700    11.8990    11.3360   -15.9900 
  263.6250   327.7190     8.3360     9.1430    12.4940    12.1090    11.2870    11.5250    10.3280   -16.0920 
  263.7500   325.7550     8.2640    10.0720    12.2420    12.0030    10.9100    10.7090     9.0270   -16.2130 
  263.8750   335.1120     8.3290    11.0370    11.8400    11.7830    10.5440     9.8200     7.7940   -16.3530 
  264.0000   346.7460     8.4250    10.8690    11.4630    11.5100     9.9610     9.1040     8.5140   -16.5150 
  264.1250   354.6550     8.5000    10.6930    11.1480    11.1590     9.0740     9.0320     9.4540   -16.6840 
  264.2500   354.6590     8.5160    10.4580    10.8040    10.8340     8.5230     9.0370     8.6610   -16.9910 
  264.3750   354.4320     8.4390    10.2240    10.4490    10.3370     8.2700     9.0230    10.7600   -17.2980 
  264.5000   352.4410     8.6740     9.9890     9.9890    10.0690     8.5370     9.1750    13.2030   -17.5420 
  264.6250   350.0920     8.5690     9.7600    10.1240    10.4340     9.2620    10.1800    14.8170   -17.7720 
  264.7500   347.6200     8.4340    10.1110    10.7810    10.9840     9.9140    11.0770    14.5050   -17.9600 
  264.8750   345.0090     8.2930    10.7390    11.5570    11.5450    11.1670    11.9420    14.0080   -18.1400 
  265.0000   342.4890     7.9960    11.3460    12.3010    12.1560    12.1140    13.0050    13.5230   -18.3040 
  265.1250   341.1410     8.0640    12.0190    13.1060    12.7420    12.8170    13.5680    14.4130   -18.4170 
  265.2500   338.8800     8.1160    12.9770    13.6730    13.3030    13.2380    14.0290    15.3100   -18.5640 
  265.3750   336.5520     8.0510    13.6070    14.3460    13.9230    13.4220    14.3570    15.0210   -18.7160 
  265.5000   340.3460     8.1420    14.0740    14.8360    14.5940    13.6710    14.4740    16.6020   -18.8520 
  265.6250   337.5520     8.2720    14.5710    15.3040    15.2110    13.9390    14.5980    21.9390   -18.9750 
  265.7500   335.3350     8.4150    14.5320    15.7610    15.7780    14.2340    14.8590    21.8340   -19.0970 
  265.8750   333.5010     8.5640    14.4900    16.2170    16.2480    14.5270    15.3410    19.6720   -19.1070 
  266.0000   333.0090     8.5250    14.4480    16.7050    16.6680    14.8110    15.3900    16.8480   -18.9060 
  266.1250   333.0000     8.3750    14.4060    17.2280    16.6850    15.0400    14.9540    16.0700   -18.7310 
  266.2500   335.9010     8.2620    14.4120    17.3350    16.6610    15.0800    14.5650    11.4720   -18.5870 
