~V
VERS. 2.00: Ver 2.00
~W
STRT.M 20.0000:
STOP.M 305.0000:
STEP.M 0.1250:
NULL. -999.2500:
UWI. Z111:
~C
DEPT.M :
AC.US/MT :
GR.API :
R025. :
R2M. :
RA2. :
RI. :
RML.OHMM :
RXO.OHMM :
SP.MV :
~A
# ...
  220.7500   418.6160     5.8590    35.5110    39.3050    41.3760    37.9960    54.5490    36.8980   -10.2590 
  220.8750   417.6150     5.9660    35.1910    40.5810    43.0920    41.9360    55.9640    32.0270   -10.6060 
  221.0000   408.2030     6.1190    34.8230    42.0600    44.7100    41.8000    50.4990    26.4690   -10.9200 
  221.1250   400.7520     6.2410    34.4270    43.5760    46.5260    37.2400    40.5640    27.4600   -11.0360 
  221.2500   401.7670     6.0790    33.9940    44.9760    47.8380    34.1620    37.1670    30.6830   -11.1400 
  221.3750   402.4920     6.0030    33.5330    46.5710    48.8070    33.8160    38.8680    23.0620   -11.1630 
  221.5000   398.6120     5.8650    33.5290    47.8180    51.0110    34.9420    37.7400    22.6090   -11.1860 
  221.6250   395.4810     5.8170    33.8770    49.3630    51.9370    33.8180    34.5100    27.5550   -11.2070 
  221.7500   391.8800     5.8460    34.2630    50.9580    52.2490    31.5380    32.2800    31.3710   -11.2250 
  221.8750   392.0850     5.9970    34.9830    52.7400    52.4150    30.2170    36.5720    36.3100   -11.2220 
  222.0000   394.5420     6.0450    35.6200    55.2280    54.5970    33.1400    42.2130    34.7710   -11.2190 
  222.1250   396.2890     5.9810    36.4360    57.3260    58.4700    35.3820    46.6230    34.6120   -11.2340 
  222.2500   397.7110     5.9830    37.4910    59.4000    62.3570    38.1960    49.0370    33.2230   -11.2520 
  222.3750   399.5640     6.1080    36.9340    62.0240    64.8590    41.7510    50.5110    31.6070   -11.2600 
  222.5000   401.2960     6.2210    36.3390    64.3790    66.9310    42.7400    51.0240    30.1950   -11.2570 
  222.6250   401.6670     6.0800    35.7630    66.9950    69.9320    41.7650    49.8930    28.8280   -11.2540 
  222.7500   401.4730     6.0110    35.0400    69.3570    72.3270    40.1560    46.0290    27.4540   -11.2650 
  222.8750   400.6920     5.9430    34.3850    71.0040    74.6530    38.0660    41.6270    26.3220   -11.2810 
  223.0000   399.2960     5.8900    33.8380    72.2530    73.8930    35.9880    39.2950    26.7120   -11.2950 
  223.1250   398.4010     5.9120    33.1440    73.8660    72.6420    34.0200    37.7550    27.1780   -11.2920 
  223.2500   397.8270     5.9760    32.5130    73.8760    71.6680    33.0110    37.6090    28.5970   -11.2700 
  223.3750   397.3440     5.9390    31.5660    72.9890    72.3760    33.3190    38.2640    30.1730   -11.2030 
  223.5000   396.8560     5.8420    30.2350    72.0060    73.5670    33.5080    38.8230    28.9450   -10.9370 
  223.6250   396.0570     5.7810    28.8700    70.9180    75.7810    33.7510    39.6030    28.1810   -10.5750 
  223.7500   392.6630     5.7630    26.8300    72.6410    78.0510    33.9190    38.2340    28.9060   -10.3300 
  223.8750   387.1890     5.8450    25.3620    75.7330    80.1310    32.7670    35.4180    20.2190   -10.0460 
  224.0000   380.5990     5.9490    23.6640    79.4600    81.4780    30.9050    32.2950    14.3860    -9.7320 
  224.1250   369.1420     5.8790    22.7080    80.7260    78.9690    28.1670    26.0650    13.5600    -9.4170 
  224.2500   355.5650     5.7390    21.9890    70.7230    72.0730    23.4530    19.9970    14.3880    -9.1100 
  224.3750   342.4760     5.7420    21.1810    62.7500    68.2890    18.8690    18.1960    22.9620    -8.8300 
  224.5000   330.4030     5.5560    21.4440    59.0420    50.1570    16.6850    17.9840    38.6250    -8.4960 
  224.6250   313.9920     5.4630    22.1860    56.4080    48.2860    16.3630    19.4680    54.2880    -8.2090 
  224.7500   248.2330     5.4540    23.1850    53.9390    49.3420    17.6590    24.9150    61.8660    -8.0000 
  224.8750   216.1140     5.4860    24.9370    51.7530    52.2960    21.9440    30.8950    58.0280    -7.8410 
  225.0000   218.4910     5.5640    25.8630    51.8520    54.8200    28.9410    42.0760    52.9860    -7.8260 
  225.1250   236.1580     5.6650    25.1000    54.9750    56.5970    38.2630    55.2980    32.3490    -7.9490 
  225.2500   274.1980     5.8860    23.9310    54.7990    54.3330    44.1610    40.2800    16.0980    -8.2180 
  225.3750   354.2490     6.3500    22.9660    48.9870    47.5680    37.2440    25.2620    14.7230    -8.6580 
  225.5000   392.6140     6.6100    20.7080    44.8650    34.7440    30.3270    16.9730    11.9850    -9.0060 
  225.6250   380.9740     6.8200    17.3580    41.4350    32.2970    23.4100    15.4040    14.8360    -9.3170 
  225.7500   383.6640     6.8800    16.5540    38.6630    31.5810    16.4930    14.1110    17.5660    -9.5470 
  225.8750   377.5590     6.7810    17.3050    36.1940    31.8590    13.1460    16.4600    20.4350    -9.7310 
  226.0000   375.8220     6.6980    17.9420    33.7250    32.4710    14.2590    19.2960    21.2470    -9.9140 
  226.1250   378.7160     6.5790    18.5810    32.2750    33.1960    16.0210    22.3610    21.4420   -10.0790 
  226.2500   357.9840     6.5770    19.2200    31.1330    33.8860    19.1370    24.9650    19.8690   -10.2180 
  226.3750   365.8110     6.5440    19.8650    30.3270    33.5600    21.7090    26.4790    18.8540   -10.3320 
  226.5000   378.0990     6.4630    20.5140    30.3370    32.5380    22.4950    24.8760    19.7400   -10.4320 
  226.6250   389.4240     6.4950    21.1880    30.3460    31.4730    22.2400    23.5080    18.5880   -10.4960 
  226.7500   396.6060     6.4670    21.8000    30.3550    31.0180    21.2670    22.4110    17.6160   -10.5440 
  226.8750   402.7100     6.4670    22.1960    30.3650    31.1220    20.5570    23.2610    23.6230   -10.5520 
  227.0000   406.1040     6.6670    22.6550    30.3740    31.5090    20.3550    22.8080    26.7940   -10.5490 
  227.1250   398.9170     6.6970    23.2930    30.3830    32.0010    21.0370    24.9680    25.3740   -10.4860 
  227.2500   391.4300     6.5840    24.0020    30.3930    32.6230    22.3500    28.6660    24.9610   -10.3940 
  227.3750   389.7960     6.3870    24.7180    30.4020    33.2010    24.0710    30.4950    23.6050   -10.2900 
  227.5000   393.6790     6.3020    25.6950    30.1680    33.1650    25.8380    30.2870    24.5040   -10.2870 
  227.6250   397.7690     6.2120    26.9130    29.9290    32.4130    27.1250    29.5090    29.4910   -10.2840 
  227.7500   402.5670     6.1260    28.7570    29.9320    32.2870    26.9140    30.9940    29.7580   -10.2810 
  227.8750   406.6450     6.0470    29.6780    29.4440    32.6580    26.7480    34.3860    28.4050   -10.2780 
  228.0000   410.1220     6.0440    30.2950    30.2580    38.2650    28.2150    34.3260    25.2930   -10.2750 
  228.1250   410.9200     6.0690    31.0510    33.2460    38.8940    32.2290    31.4910    22.4630   -10.2200 
  228.2500   373.8610     5.9890    31.8890    37.9950    42.0750    34.5880    28.4580    35.9660   -10.1550 
  228.3750   298.5970     5.8370    32.7270    47.7390    53.9280    31.9510    27.7510    55.9830    -9.9850 
  228.5000   276.6920     5.6750    34.8100    58.7630    64.3550    27.6520    36.8860    76.0000    -9.6710 
  228.6250   262.6880     5.7740    36.0860    69.3200    73.0460    29.1050    47.3290    78.2240    -8.8660 
  228.7500   259.0360     5.7270    34.8210    75.1500    82.8590    40.9590    57.7720    76.8850    -8.1730 
  228.8750   270.1960     5.6390    31.3980    79.9550    90.9370    53.3050    68.2140   125.6510    -7.4260 
  229.0000   280.8470     5.5730    27.9750    85.5830    98.5320    67.2840    78.6570    97.9550    -6.6510 
  229.1250   284.2120     5.5830    24.5520    92.1110   106.0240    75.5000    89.1000    86.1540    -6.0010 
  229.2500   307.2620     5.6380    21.1280    96.2660    97.6360    79.4410    92.1790   168.2510    -5.4250 
  229.3750   342.5130     5.6590    17.7050   101.2130    74.4970    62.7700    44.0600     3.5310    -4.8430 
  229.5000   387.5340     5.6450    14.2820   107.6210    54.1570    44.6770     5.5510     3.7530    -4.4620 
  229.6250   414.8020     5.6490    10.8590   111.3480    41.4770    26.5850     5.1520     3.8940    -4.2120 
  229.7500   403.0180     5.5870     7.4360    27.3470    27.0280     8.4920     4.9530     3.3500    -4.0310 
