~V
VERS. 2.00: Ver 2.00
~W
STRT.M 20.0000:
STOP.M 305.0000:
STEP.M 0.1250:
NULL. -999.2500:
UWI. Z111:
~C
DEPT.M :
AC.US/MT :
GR.API :
R025. :
R2M. :
RA2. :
RI. :
RML.OHMM :
RXO.OHMM :
SP.MV :
~A
# ...
  147.7500     0.0000     0.0000     5.5350     7.0270     0.0000     0.0000     0.0000     0.0000     0.0000 
  147.8750     0.0000     0.0000     5.8990     7.3120     0.0000     0.0000     0.0000     0.0000     0.0000 
  148.0000     0.0000     0.0000     5.6000     7.6330     0.0000     0.0000     0.0000     0.0000     0.0000 
  148.1250     0.0000     0.0000     5.2890     7.9730     0.0000     0.0000     0.0000     0.0000     0.0000 
  148.2500     0.0000     0.0000     4.8120     8.0380     0.0000     0.0000     0.0000     0.0000     0.0000 
  148.3750     0.0000     0.0000     4.3340     8.1030     0.0000     0.0000     0.0000     0.0000     0.0000 
  148.5000     0.0000     0.0000     3.8570     7.6050     0.0000     0.0000     0.0000     0.0000     0.0000 
  148.6250     0.0000     0.0000     3.4500     6.8450     0.0000     0.0000     0.0000     0.0000     0.0000 
  148.7500     0.0000     0.0000     3.1950     6.3850     0.0000     0.0000     0.0000     0.0000     0.0000 
  148.8750     0.0000     0.0000     2.9000     5.4540     0.0000     0.0000     0.0000     0.0000     0.0000 
  149.0000     0.0000     0.0000     2.9940     4.9530     0.0000     0.0000     0.0000     0.0000     0.0000 
  149.1250     0.0000     0.0000     3.5270     4.6360     0.0000     0.0000     0.0000     0.0000     0.0000 
  149.2500     0.0000     0.0000     4.0600     4.7910     0.0000     0.0000     0.0000     0.0000     0.0000 
  149.3750     0.0000     0.0000     4.5940     5.0500     0.0000     0.0000     0.0000     0.0000     0.0000 
  149.5000     0.0000     0.0000     4.9600     5.3090     0.0000     0.0000     0.0000     0.0000     0.0000 
  149.6250     0.0000     0.0000     5.3220     5.5790     0.0000     0.0000     0.0000     0.0000     0.0000 
  149.7500     0.0000     0.0000     5.6840     5.8640     0.0000     0.0000     0.0000     0.0000     0.0000 
  149.8750     0.0000     0.0000     6.0990     6.0330     0.0000     0.0000     0.0000     0.0000     0.0000 
  150.0000     0.0000     0.0000     6.5220     6.2270     0.0000     0.0000     0.0000     0.0000     0.0000 
  150.1250     0.0000     0.0000     6.8500     6.4780     0.0000     0.0000     0.0000     0.0000     0.0000 
  150.2500     0.0000     0.0000     6.7700     6.8030     0.0000     0.0000     0.0000     0.0000     0.0000 
  150.3750     0.0000     0.0000     6.5690     7.5250     0.0000     0.0000     0.0000     0.0000     0.0000 
  150.5000     0.0000     0.0000     6.3340     8.4830     0.0000     0.0000     0.0000     0.0000     0.0000 
  150.6250     0.0000     0.0000     6.0840     9.3660     0.0000     0.0000     0.0000     0.0000     0.0000 
  150.7500     0.0000     0.0000     5.8350     8.0210     0.0000     0.0000     0.0000     0.0000     0.0000 
  150.8750     0.0000     0.0000     5.6530     6.6750     0.0000     0.0000     0.0000     0.0000     0.0000 
  151.0000     0.0000     0.0000     5.4850     5.9570     0.0000     0.0000     0.0000     0.0000     0.0000 
  151.1250     0.0000     0.0000     5.3180     5.0650     0.0000     0.0000     0.0000     0.0000     0.0000 
  151.2500     0.0000     0.0000     5.1500     4.4300     0.0000     0.0000     0.0000     0.0000     0.0000 
  151.3750     0.0000     0.0000     4.9820     4.3150     0.0000     0.0000     0.0000     0.0000     0.0000 
  151.5000     0.0000     0.0000     4.9140     4.6820     0.0000     0.0000     0.0000     0.0000     0.0000 
  151.6250     0.0000     0.0000     4.8510     4.8970     0.0000     0.0000     0.0000     0.0000     0.0000 
  151.7500     0.0000     0.0000     4.7880     5.1130     0.0000     0.0000     0.0000     0.0000     0.0000 
  151.8750     0.0000     0.0000     4.7150     5.2710     0.0000     0.0000     0.0000     0.0000     0.0000 
  152.0000     0.0000     0.0000     4.6400     4.6050     0.0000     0.0000     0.0000     0.0000     0.0000 
  152.1250     0.0000     0.0000     4.5790     4.6470     0.0000     0.0000     0.0000     0.0000     0.0000 
  152.2500     0.0000     0.0000     4.5250     4.6580     0.0000     0.0000     0.0000     0.0000     0.0000 
  152.3750     0.0000     0.0000     4.4710     4.5560     0.0000     0.0000     0.0000     0.0000     0.0000 
  152.5000     0.0000     0.0000     4.4650     4.7910     0.0000     0.0000     0.0000     0.0000     0.0000 
  152.6250     0.0000     0.0000     4.4650     5.1440     0.0000     0.0000     0.0000     0.0000     0.0000 
  152.7500     0.0000     0.0000     4.4790     5.6080     0.0000     0.0000     0.0000     0.0000     0.0000 
  152.8750     0.0000     0.0000     4.6610     6.8520     0.0000     0.0000     0.0000     0.0000     0.0000 
  153.0000     0.0000     0.0000     4.8380     8.0460     0.0000     0.0000     0.0000     0.0000     0.0000 
  153.1250     0.0000     0.0000     4.9680     7.2820     0.0000     0.0000     0.0000     0.0000     0.0000 
  153.2500     0.0000     0.0000     4.8670     6.0680     0.0000     0.0000     0.0000     0.0000     0.0000 
  153.3750     0.0000     0.0000     4.7410     5.6080     0.0000     0.0000     0.0000     0.0000     0.0000 
  153.5000     0.0000     0.0000     4.6150     5.3750     0.0000     0.0000     0.0000     0.0000     0.0000 
  153.6250     0.0000     0.0000     4.4890     5.2910     0.0000     0.0000     0.0000     0.0000     0.0000 
  153.7500     0.0000     0.0000     4.4180     5.2070     0.0000     0.0000     0.0000     0.0000     0.0000 
  153.8750     0.0000     0.0000     4.4190     5.1820     0.0000     0.0000     0.0000     0.0000     0.0000 
  154.0000     0.0000     0.0000     4.4190     5.1830     0.0000     0.0000     0.0000     0.0000     0.0000 
  154.1250     0.0000     0.0000     4.4200     5.1830     0.0000     0.0000     0.0000     0.0000     0.0000 
  154.2500     0.0000     0.0000     4.4080     5.1430     0.0000     0.0000     0.0000     0.0000     0.0000 
  154.3750     0.0000     0.0000     4.3950     5.0590     0.0000     0.0000     0.0000     0.0000     0.0000 
  154.5000     0.0000     0.0000     4.3810     4.9760     0.0000     0.0000     0.0000     0.0000     0.0000 
  154.6250     0.0000     0.0000     4.3700     4.9130     0.0000     0.0000     0.0000     0.0000     0.0000 
  154.7500     0.0000     0.0000     4.3710     4.8800     0.0000     0.0000     0.0000     0.0000     0.0000 
  154.8750     0.0000     0.0000     4.3650     4.8810     0.0000     0.0000     0.0000     0.0000     0.0000 
  155.0000     0.0000     0.0000     4.3330     4.8840     0.0000     0.0000     0.0000     0.0000     0.0000 
  155.1250     0.0000     0.0000     4.2900     4.9370     0.0000     0.0000     0.0000     0.0000     0.0000 
  155.2500     0.0000     0.0000     4.2400     4.9860     0.0000     0.0000     0.0000     0.0000     0.0000 
  155.3750     0.0000     0.0000     4.2190     5.0030     0.0000     0.0000     0.0000     0.0000     0.0000 
  155.5000     0.0000     0.0000     4.2200     5.0680     0.0000     0.0000     0.0000     0.0000     0.0000 
  155.6250     0.0000     0.0000     4.2620     5.0290     0.0000     0.0000     0.0000     0.0000     0.0000 
  155.7500     0.0000     0.0000     4.4410     4.9330     0.0000     0.0000     0.0000     0.0000     0.0000 
  155.8750     0.0000     0.0000     4.6310     4.8070     0.0000     0.0000     0.0000     0.0000     0.0000 
  156.0000     0.0000     0.0000     4.8930     4.8220     0.0000     0.0000     0.0000     0.0000     0.0000 
  156.1250     0.0000     0.0000     5.1540     4.9240     0.0000     0.0000     0.0000     0.0000     0.0000 
  156.2500     0.0000     0.0000     5.4150     5.0790     0.0000     0.0000     0.0000     0.0000     0.0000 
  156.3750     0.0000     0.0000     5.6760     5.2590     0.0000     0.0000     0.0000     0.0000     0.0000 
  156.5000     0.0000     0.0000     5.9090     5.9880     0.0000     0.0000     0.0000     0.0000     0.0000 
  156.6250     0.0000     0.0000     6.1120    10.5130     0.0000     0.0000     0.0000     0.0000     0.0000 
  156.7500     0.0000     0.0000     6.3140     7.7300     0.0000     0.0000     0.0000     0.0000     0.0000 
