~V
VERS. 2.00: Ver 2.00
~W
STRT.M 20.0000:
STOP.M 305.0000:
STEP.M 0.1250:
NULL. -999.2500:
UWI. Z111:
~C
DEPT.M :
AC.US/MT :
GR.API :
R025. :
R2M. :
RA2. :
RI. :
RML.OHMM :
RXO.OHMM :
SP.MV :
~A
# ...
  239.0000   366.6200     6.8790    22.8360    57.0440    56.3360    16.6610    21.0390    31.1200   -17.2390 
  239.1250   372.6910     6.6850    24.2470    55.3870    57.1120    18.3820    24.8690    34.0020   -17.7820 
  239.2500   382.2680     6.5980    25.6970    55.1690    57.6870    25.3710    31.8620    32.5730   -18.2800 
  239.3750   382.1390     6.5330    27.1460    55.3110    57.7050    28.1350    38.7200    34.1090   -18.7450 
  239.5000   371.8150     6.4820    28.5960    55.6300    57.9640    30.5090    37.6290    35.6450   -19.2460 
  239.6250   366.1000     6.4420    30.0460    56.5110    58.2500    32.2470    38.0640    34.0020   -19.7270 
  239.7500   371.9530     6.4210    31.4960    57.5120    58.7290    31.1760    39.9090    37.0790   -20.2300 
  239.8750   380.0750     6.4200    32.9460    58.5120    59.8000    34.0010    41.7780    42.3760   -20.7670 
  240.0000   386.8170     6.4520    35.9600    59.5120    61.1690    36.5230    44.5410    40.5600   -21.3870 
  240.1250   388.9160     6.4240    37.1710    60.3120    62.7360    38.3260    49.9570    39.2650   -21.9350 
  240.2500   387.0530     6.2900    38.0050    61.0660    64.1690    40.5260    55.4780    41.0960   -22.6240 
  240.3750   383.6440     6.2010    38.7310    62.2160    65.0470    43.2790    57.2440    39.7680   -23.2360 
  240.5000   380.0580     6.3220    39.8190    63.4650    65.5140    45.1750    55.6250    54.5720   -23.7860 
  240.6250   381.2630     6.4170    40.1840    64.7130    65.5320    44.5510    53.3570    46.7690   -24.2810 
  240.7500   384.3800     6.3910    40.8560    65.9610    65.5490    43.6690    50.7220    33.7090   -24.7220 
  240.8750   386.5450     6.3290    42.3700    67.2300    65.4380    43.2410    47.4880    28.2080   -25.1330 
  241.0000   387.9520     6.1380    43.5140    63.9910    64.1040    41.1240    45.9380    38.7380   -25.4800 
  241.1250   388.0590     6.0720    44.4830    60.3740    64.4420    39.8210    47.7510    50.2940   -25.8270 
  241.2500   387.5860     6.0360    45.8030    59.8350    67.2020    41.0570    57.3240    61.8510   -26.1450 
  241.3750   387.0600     5.9570    47.3320    63.0180    71.7350    45.3580    66.8970    60.2260   -26.4350 
  241.5000   388.6110     5.9570    48.7680    66.5360    77.8360    52.1280    76.4690    55.7130   -26.7040 
  241.6250   389.0580     6.0770    49.3790    71.0890    83.2730    56.9790    86.0420    56.3440   -26.9730 
  241.7500   389.6320     6.2120    49.6820    76.6250    89.2400    63.2860    95.6150    46.2270   -27.2780 
  241.8750   389.9710     6.2770    49.9080    82.4970    96.1520    68.4120    89.5370    44.5190   -27.5860 
  242.0000   389.5740     6.2470    50.1090    87.0690   101.5890    69.3480    83.0710    41.4650   -27.9630 
  242.1250   388.3840     6.1930    50.2460    92.2400   101.5410    63.4440    76.6050    39.8940   -28.4510 
  242.2500   387.2500     6.1170    50.2460    96.7190   101.1090    51.4240    70.1390    42.1290   -28.9040 
  242.3750   385.5770     6.1130    50.2460   100.4460   100.9790    48.5420    63.6730    46.5130   -29.3890 
  242.5000   383.9710     6.1260    50.2460   104.5600   100.9970    46.9680    57.2070    47.2700   -29.8700 
  242.6250   384.5690     6.0650    50.2460   108.3980    99.9930    45.9510    61.6060    47.7220   -30.3400 
  242.7500   388.6920     6.0190    50.7800   103.7170   100.2630    51.2380    70.3020    57.9850   -30.7740 
  242.8750   392.5120     5.9440    51.8010   104.7170   104.8160    57.0780    78.9990    62.8410   -31.1550 
  243.0000   396.8950     5.8590    52.7090   107.4630   113.6000    61.4440    87.6960    59.6760   -31.4980 
  243.1250   400.4610     5.9970    55.1310   111.8090   124.6470    65.1330    96.3930    60.5370   -31.8690 
  243.2500   399.1190     6.0920    55.9800   118.5740   129.9690    68.7550   105.0900    49.3730   -32.2550 
  243.3750   395.8400     5.9990    56.1580   122.3010   136.5620    77.1630   113.7860    47.6770   -32.6380 
  243.5000   392.3030     5.9050    56.1580   127.6490   145.1530    82.4810   122.4830    51.0400   -32.9910 
  243.6250   389.9030     5.8200    56.1580   132.6140   148.4880    79.9580   115.0050    51.0280   -33.3250 
  243.7500   388.9060     5.7870    56.1580   137.5800   148.1090    60.9560    95.8760    55.4570   -33.6390 
  243.8750   388.8990     5.9020    56.1580   142.9780   147.7630    58.6980    76.7460    58.6050   -33.9600 
  244.0000   388.8910     5.9370    56.4310   145.0050   147.2530    59.9420    80.9240    53.2730   -34.1650 
  244.1250   388.5110     6.0150    56.9830   142.8450   146.4900    63.1750    90.6040    58.8100   -34.3050 
  244.2500   387.3180     6.0490    57.7090   140.8500   145.6450    66.1400    90.8820    63.1710   -34.4010 
  244.3750   388.6460     5.9820    58.8120   138.8770   145.6460    66.8360    90.7000    59.9750   -34.4340 
  244.5000   392.7830     5.9200    60.4270   138.2880   146.1530    66.3930    93.4970    61.3750   -34.4640 
  244.6250   395.9830     5.8880    62.0420   140.5500   149.7420    67.4250   105.6310    61.7380   -34.5320 
  244.7500   396.3600     5.8430    62.4660   143.8080   156.6560    71.6020   127.8210    61.0690   -34.5750 
  244.8750   394.8050     5.8170    63.1770   146.2940   165.4280    80.0850   142.2730    62.4740   -34.4920 
  245.0000   392.9470     5.8800    63.6780   150.4610   175.0560    86.1530   146.2690    65.3450   -34.3040 
  245.1250   392.3310     5.8320    63.9200   155.8880   185.4190    89.7370   148.3520    60.6670   -34.1470 
  245.2500   392.5000     5.8170    64.0390   163.4060   194.4490    90.6520   149.4200    61.3650   -34.0280 
  245.3750   392.6480     5.9370    64.0390   171.4670   201.6100    91.7780   150.2880    68.3410   -33.9090 
  245.5000   391.6460     6.0630    63.7520   184.5510   207.5470    91.8570   146.1120    70.5780   -33.8120 
  245.6250   389.1880     6.2040    63.1460   192.1660   211.1640    90.9270   140.5880    69.4270   -33.7220 
  245.7500   387.0990     6.3470    62.2330   199.5730   214.0190    89.8560   136.6550    69.8510   -33.6410 
  245.8750   385.8130     6.3560    61.2640   203.4940   215.2420    87.6060   133.5640    66.9220   -33.5730 
  246.0000   384.7220     6.2190    60.6900   208.0780   215.2600    75.3060   130.1590    65.0560   -33.5180 
  246.1250   384.3070     6.0720    60.2050   213.2420   214.4870    72.7730   125.8830    63.1570   -33.4660 
  246.2500   384.6900     5.9720    59.7210   214.7750   213.2360    70.6580   100.1950    58.9410   -33.4150 
  246.3750   385.8710     5.9410    59.2360   209.4150   211.6720    68.9590    96.8310    60.9910   -33.3860 
  246.5000   385.9210     6.0140    58.9630   205.7870   210.7370    67.5540    94.7360    68.7250   -33.3830 
  246.6250   384.6690     6.0260    58.7610   205.9960   214.2910    68.9620    95.1110    76.4580   -33.4350 
  246.7500   383.7210     6.0520    58.6210   208.4840   218.9270    73.4740   107.7210    57.7790   -33.6320 
  246.8750   383.7140     6.0970    58.6210   210.9710   224.0550    77.2130   117.8970    56.8000   -34.1550 
  247.0000   383.6470     6.0670    58.6210   213.4580   223.1330    74.5380   111.5770    67.2420   -34.7750 
  247.1250   383.3800     5.8970    58.6210   216.1940   222.0490    71.8770   105.2570    66.6570   -35.3500 
  247.2500   383.1920     5.7240    58.6210   218.9300   222.9990    69.0140   103.1090    72.9520   -35.8260 
  247.3750   387.5400     5.6390    58.6210   221.6540   223.6140    72.6830   109.7960    63.4140   -36.3380 
  247.5000   385.4350     5.5750    58.6210   218.0580   223.0910    77.1400   116.4830    53.8760   -36.7550 
  247.6250   381.2640     5.5730    58.6210   216.7150   218.2830    78.7910   111.0410    51.1430   -37.1630 
  247.7500   379.1540     5.6070    59.0180   217.0250   212.7620    75.7000    99.0610    62.4960   -37.4220 
  247.8750   382.8670     5.5820    59.5750   210.5270   205.0990    68.5280    87.0810    73.8490   -37.7260 
  248.0000   386.6410     5.5150    61.9050   203.8030   199.7950    62.7810    84.2360    85.2020   -37.9900 
