~V
VERS. 2.00: Ver 2.00
~W
STRT.M 20.0000:
STOP.M 305.0000:
STEP.M 0.1250:
NULL. -999.2500:
UWI. Z111:
~C
DEPT.M :
AC.US/MT :
GR.API :
R025. :
R2M. :
RA2. :
RI. :
RML.OHMM :
RXO.OHMM :
SP.MV :
~A
   20.0000     0.0000     0.0000     0.0000     0.0000     0.0000     0.0000     0.0000     0.0000     0.0000 
   20.1250     0.0000     0.0000     0.0000     0.0000     0.0000     0.0000     0.0000     0.0000     0.0000 
   20.2500     0.0000     0.0000     0.0000     0.0000     0.0000     0.0000     0.0000     0.0000     0.0000 
   20.3750     0.0000     0.0000     0.0000     0.0000     0.0000     0.0000     0.0000     0.0000     0.0000 
   20.5000     0.0000     0.0000     0.0000     0.0000     0.0000     0.0000     0.0000     0.0000     0.0000 
   20.6250     0.0000     0.0000     0.0000     0.0000     0.0000     0.0000     0.0000     0.0000     0.0000 
   20.7500     0.0000     0.0000     0.0000     0.0000     0.0000     0.0000     0.0000     0.0000     0.0000 
   20.8750     0.0000     0.0000     0.0000     0.0000     0.0000     0.0000     0.0000     0.0000     0.0000 
   21.0000     0.0000     0.0000     0.0000     0.0000     0.0000     0.0000     0.0000     0.0000     0.0000 
   21.1250     0.0000     0.0000     0.0000     0.0000     0.0000     0.0000     0.0000     0.0000     0.0000 
   21.2500     0.0000     0.0000     0.0000     0.0000     0.0000     0.0000     0.0000     0.0000     0.0000 
   21.3750     0.0000     0.0000     0.0000     0.0000     0.0000     0.0000     0.0000     0.0000     0.0000 
   21.5000     0.0000     0.0000     0.0000     0.0000     0.0000     0.0000     0.0000     0.0000     0.0000 
   21.6250     0.0000     0.0000     0.0000     0.0000     0.0000     0.0000     0.0000     0.0000     0.0000 
   21.7500     0.0000     0.0000     0.0000     0.0000     0.0000     0.0000     0.0000     0.0000     0.0000 
   21.8750     0.0000     0.0000     0.0000     0.0000     0.0000     0.0000     0.0000     0.0000     0.0000 
   22.0000     0.0000     0.0000     0.7460     0.0000     0.0000     0.0000     0.0000     0.0000     0.0000 
   22.1250     0.0000     0.0000     3.1540     0.0000     0.0000     0.0000     0.0000     0.0000     0.0000 
   22.2500     0.0000     0.0000     4.2230     0.0000     0.0000     0.0000     0.0000     0.0000     0.0000 
   22.3750     0.0000     0.0000     5.5960     0.0000     0.0000     0.0000     0.0000     0.0000     0.0000 
   22.5000     0.0000     0.0000     7.3050     0.0000     0.0000     0.0000     0.0000     0.0000     0.0000 
   22.6250     0.0000     0.0000     7.0500     0.0000     0.0000     0.0000     0.0000     0.0000     0.0000 
   22.7500     0.0000     0.0000     6.3850     0.0000     0.0000     0.0000     0.0000     0.0000     0.0000 
   22.8750     0.0000     0.0000     5.7650     0.0000     0.0000     0.0000     0.0000     0.0000     0.0000 
   23.0000     0.0000     0.0000     5.2140     0.0000     0.0000     0.0000     0.0000     0.0000     0.0000 
   23.1250     0.0000     0.0000     5.2370     0.0000     0.0000     0.0000     0.0000     0.0000     0.0000 
   23.2500     0.0000     0.0000     5.4810     0.0000     0.0000     0.0000     0.0000     0.0000     0.0000 
   23.3750     0.0000     0.0000     5.7360     0.0000     0.0000     0.0000     0.0000     0.0000     0.0000 
   23.5000     0.0000     0.0000     6.0220     0.0000     0.0000     0.0000     0.0000     0.0000     0.0000 
   23.6250     0.0000     0.0000     6.2640     0.0000     0.0000     0.0000     0.0000     0.0000     0.0000 
   23.7500     0.0000     0.0000     4.8400     0.0000     0.0000     0.0000     0.0000     0.0000     0.0000 
   23.8750     0.0000     0.0000     3.6220     0.0000     0.0000     0.0000     0.0000     0.0000     0.0000 
   24.0000     0.0000     0.0000     2.1690     0.0000     0.0000     0.0000     0.0000     0.0000     0.0000 
   24.1250     0.0000     0.0000     0.8500     0.0000     0.0000     0.0000     0.0000     0.0000     0.0000 
   24.2500     0.0000     0.0000     0.2570     0.0000     0.0000     0.0000     0.0000     0.0000     0.0000 
   24.3750     0.0000     0.0000    -0.0760     0.0000     0.0000     0.0000     0.0000     0.0000     0.0000 
   24.5000     0.0000     0.0000     0.6220     0.0000     0.0000     0.0000     0.0000     0.0000     0.0000 
   24.6250     0.0000     0.0000     1.6320     0.0000     0.0000     0.0000     0.0000     0.0000     0.0000 
   24.7500     0.0000     0.0000     3.5990     0.0000     0.0000     0.0000     0.0000     0.0000     0.0000 
   24.8750     0.0000     0.0000     5.6940     0.0000     0.0000     0.0000     0.0000     0.0000     0.0000 
   25.0000     0.0000     0.0000     7.5100     0.1010     0.0000     0.0000     0.0000     0.0000     0.0000 
   25.1250     0.0000     0.0000     8.2550     0.1030     0.0000     0.0000     0.0000     0.0000     0.0000 
   25.2500     0.0000     0.0000     8.7100     0.1040     0.0000     0.0000     0.0000     0.0000     0.0000 
   25.3750     0.0000     0.0000     9.1430     0.1060     0.0000     0.0000     0.0000     0.0000     0.0000 
   25.5000     0.0000     0.0000     9.5370     0.1080     0.0000     0.0000     0.0000     0.0000     0.0000 
   25.6250     0.0000     0.0000     9.7810     0.1090     0.0000     0.0000     0.0000     0.0000     0.0000 
   25.7500     0.0000     0.0000    10.0550     0.1110     0.0000     0.0000     0.0000     0.0000     0.0000 
   25.8750     0.0000     0.0000    10.2670     0.1130     0.0000     0.0000     0.0000     0.0000     0.0000 
   26.0000     0.0000     0.0000    10.4390     0.1140     0.0000     0.0000     0.0000     0.0000     0.0000 
   26.1250     0.0000     0.0000    10.2370     0.1160     0.0000     0.0000     0.0000     0.0000     0.0000 
   26.2500     0.0000     0.0000     9.3820     0.1180     0.0000     0.0000     0.0000     0.0000     0.0000 
   26.3750     0.0000     0.0000     9.1260     0.1200     0.0000     0.0000     0.0000     0.0000     0.0000 
   26.5000     0.0000     0.0000     9.7080     0.1210     0.0000     0.0000     0.0000     0.0000     0.0000 
   26.6250     0.0000     0.0000    14.3800     0.1230     0.0000     0.0000     0.0000     0.0000     0.0000 
   26.7500     0.0000     0.0000    15.6240     0.1250     0.0000     0.0000     0.0000     0.0000     0.0000 
   26.8750     0.0000     0.0000    16.2870     0.1260     0.0000     0.0000     0.0000     0.0000     0.0000 
   27.0000     0.0000     0.0000    17.3980     0.1280     0.0000     0.0000     0.0000     0.0000     0.0000 
   27.1250     0.0000     0.0000    17.8300     0.1300     0.0000     0.0000     0.0000     0.0000     0.0000 
   27.2500     0.0000     0.0000    18.4340     0.1580     0.0000     0.0000     0.0000     0.0000     0.0000 
   27.3750     0.0000     0.0000    18.8070     4.2400     0.0000     0.0000     0.0000     0.0000     0.0000 
   27.5000     0.0000     0.0000    17.3920    13.2890     0.0000     0.0000     0.0000     0.0000     0.0000 
   27.6250     0.0000     0.0000    17.3350    12.7530     0.0000     0.0000     0.0000     0.0000     0.0000 
   27.7500     0.0000     0.0000    18.0100    12.2170     0.0000     0.0000     0.0000     0.0000     0.0000 
   27.8750     0.0000     0.0000    18.6310    11.6810     0.0000     0.0000     0.0000     0.0000     0.0000 
   28.0000     0.0000     0.0000    19.2310    13.3660     0.0000     0.0000     0.0000     0.0000     0.0000 
   28.1250     0.0000     0.0000    19.5570    15.1490     0.0000     0.0000     0.0000     0.0000     0.0000 
   28.2500     0.0000     0.0000    19.8930    16.9310     0.0000     0.0000     0.0000     0.0000     0.0000 
   28.3750     0.0000     0.0000    20.3200    18.7140     0.0000     0.0000     0.0000     0.0000     0.0000 
   28.5000     0.0000     0.0000    20.7800    20.4960     0.0000     0.0000     0.0000     0.0000     0.0000 
   28.6250     0.0000     0.0000    21.2170    22.2790     0.0000     0.0000     0.0000     0.0000     0.0000 
   28.7500     0.0000     0.0000    21.5690    24.0610     0.0000     0.0000     0.0000     0.0000     0.0000 
   28.8750     0.0000     0.0000    21.5870    25.8440     0.0000     0.0000     0.0000     0.0000     0.0000 
   29.0000     0.0000     0.0000    21.1730    27.6260     0.0000     0.0000     0.0000     0.0000     0.0000 
