~V
VERS. 2.00: Ver 2.00
~W
STRT.M 20.0000:
STOP.M 305.0000:
STEP.M 0.1250:
NULL. -999.2500:
UWI. Z111:
~C
DEPT.M :
AC.US/MT :
GR.API :
R025. :
R2M. :
RA2. :
RI. :
RML.OHMM :
RXO.OHMM :
SP.MV :
~A
# ...
  293.7500   344.5110     8.5840     7.6980     9.9110     9.2240     7.3080     8.3090     7.6190    -4.4610 
  293.8750   349.0130     8.6370     7.9330    10.2890     9.6940     7.9430     8.9890     7.4790    -4.4910 
  294.0000   356.0270     8.5610     8.3340    10.7670    10.2080     8.3470     9.6350     8.8150    -4.4870 
  294.1250   354.9120     8.5000     8.6560    11.0400    10.6720     7.9660     9.1070     9.4160    -4.4840 
  294.2500   348.6590     8.5010     8.7300    11.0130    10.7960     7.6440     8.4800     9.1750    -4.4800 
  294.3750   340.4060     8.4190     8.7300    10.8750    10.5130     7.7900     8.3880     8.6670    -4.3900 
  294.5000   337.2430     8.2350     8.7310    10.6650    10.3900     7.9530     8.6210     8.1530    -4.3140 
  294.6250   344.5600     8.1330     8.7310    10.8150    10.6400     8.1280     8.6730     7.4750    -4.2790 
  294.7500   355.3630     8.1740     8.7320    11.1400    10.9490     8.2630     8.6780     6.8510    -4.2670 
  294.8750   368.1790     8.0500     8.7240    11.2200    11.1830     8.2660     8.5380     7.6350    -4.3120 
  295.0000   362.4810     7.9690     8.6990    11.0730    10.8350     8.2360     8.4860     8.9790    -4.4780 
  295.1250   353.0960     8.0430     8.7060    10.7950    10.3400     8.1750     8.4020    10.5460    -4.6090 
  295.2500   343.4570     7.9750     8.7840    10.4760     9.9460     8.1740     8.9620    11.5810    -4.7090 
  295.3750   334.1440     7.9690     8.9410    10.0680     9.6770     8.5890     9.6780    12.7710    -4.6540 
  295.5000   323.3640     8.2580     9.2690     9.7740     9.4890     9.6080    10.0200    13.2400    -4.3470 
  295.6250   313.5810     8.1530     9.6740     9.7160     9.6540     9.8030    10.3040    12.3040    -4.1100 
  295.7500   318.4730     8.0200    10.1340     9.9950    10.2240     9.8060    10.9800    11.2670    -3.9170 
  295.8750   317.7380     7.9610    10.7080    10.3330    10.8350    10.0140    11.2730    14.3220    -3.7460 
  296.0000   313.2020     7.9460    11.1720    12.0180    11.5550    10.8230    11.6240    15.4850    -3.5870 
  296.1250   316.2150     7.9160    11.6250    12.8970    12.3080    11.3600    12.2850    13.9540    -3.4290 
  296.2500   314.2660     7.8780    12.0610    13.3700    13.1500    11.7640    13.0090    13.2360    -3.3010 
  296.3750   317.8680     7.8290    12.4840    13.8900    13.9650    12.5570    12.7460    11.3080    -3.1740 
  296.5000   321.2790     7.7990    12.8410    13.8520    13.5260    11.5480    12.1740     9.9410    -3.0120 
  296.6250   319.5020     7.8760    12.7900    13.5500    13.0640    10.7860    11.7710    14.8170    -2.8310 
  296.7500   319.6630     8.0290    12.7400    13.3260    12.6590    10.2330    11.6100    13.6920    -2.6760 
  296.8750   319.3730     8.1700    12.5770    13.1240    12.4330    10.1360    11.8120    11.9380    -2.5620 
  297.0000   318.8810     8.2210    12.4140    12.7900    12.2240    10.4060    11.7640     9.6500    -2.4520 
  297.1250   317.9360     8.2460    12.2500    13.2030    12.1660    11.0610    11.4240     6.9360    -2.3710 
  297.2500   316.4980     8.2800    12.0870    14.0380    12.5780    11.1540    11.8290     8.9390    -2.3070 
  297.3750   321.3360     8.3210    11.9290    13.8820    13.1900    10.6540    11.4240     8.8620    -2.3030 
  297.5000   329.4770     8.3700    11.7720    13.3480    13.7450    10.1940    10.5820     9.1460    -2.3000 
  297.6250   336.2810     8.2980    11.6150    12.7220    13.0380     9.4060     9.5210    11.9600    -2.2960 
  297.7500   331.5370     8.2140    11.3950    12.1210    12.3570     8.6630    10.3610    17.9080    -2.3590 
  297.8750   327.1290     8.1240    11.1490    11.6590    11.6310     9.4020    10.8460    18.3690    -2.4330 
  298.0000   321.6580     8.0650    11.0240    11.6630    11.2670    10.3370    11.0010    14.8680    -2.4830 
  298.1250   318.1000     7.9920    11.2960    11.9220    12.2860    10.8580    11.1120     9.0860    -2.5320 
  298.2500   320.5660     8.0060    11.6410    12.4200    13.4310    10.9790    11.1700    16.1880    -2.6210 
  298.3750   324.5960     8.0780    11.9350    13.1560    14.3970    10.9480    11.1760    24.6160    -2.6840 
  298.5000   321.8320     7.9650    12.1770    14.6710    15.5880    10.7830    10.8190    22.0400    -2.7060 
  298.6250   318.5790     7.8100    12.3010    15.8590    15.7530    10.6970    10.4890    12.9260    -2.7660 
  298.7500   320.9870     7.7310    12.3330    15.6470    15.0190    10.2990    11.5030    14.4050    -2.8660 
  298.8750   319.8280     7.8440    12.5130    15.3010    14.2140    10.0800    12.5590    11.3920    -2.9760 
  299.0000   317.6240     7.9680    12.7080    14.8970    14.0750    11.1600    13.8160     8.2860    -3.0620 
  299.1250   315.2140     7.9100    12.9180    14.6900    14.9570    12.6180    13.8210    19.2540    -3.0900 
  299.2500   315.0300     7.8990    13.1410    15.4560    15.7780    13.1560    11.4750    17.1170    -3.1490 
  299.3750   314.5820     7.9620    13.3650    16.1230    15.1690    11.8190    11.9680    14.5610    -3.2200 
  299.5000   304.8820     7.7960    13.6690    16.0630    14.8290    10.3470    13.2180    11.9030    -3.2850 
  299.6250   293.7780     7.6970    13.9830    15.6870    15.3710    11.6750    13.5490     7.1910    -3.3690 
  299.7500   279.7220     7.6470    14.0300    16.5000    16.1490    12.9950    14.5210     7.5040    -3.3810 
  299.8750   274.7800     7.6580    13.8000    17.9820    16.9080    14.6570    16.6570     7.6190    -3.3990 
  300.0000   288.7590     7.7240    13.5710    19.1860    17.6320    16.0440    17.2140     7.6250    -3.4050 
  300.1250   310.5880     7.5020    13.2290    18.9900    18.2370    15.2610    13.8930     7.6120    -3.3320 
  300.2500   319.0390     7.3480    12.7980    18.4220    18.4000    13.7280    11.7190     7.5930    -3.1390 
  300.3750   325.2750     7.2020    11.5760    17.8540    17.9930    12.1510    10.3100     7.5740    -2.9210 
  300.5000   337.2550     7.0880     9.8640    17.2730    17.5410    10.5180     8.6530     7.5550    -2.7340 
  300.6250   366.8010     7.0640     8.4980    16.3030    16.9860     8.6740     7.0150     7.5360    -2.6100 
  300.7500   384.5580     7.1620     7.7940    14.9570    16.1150     7.1600     6.0240     7.5170    -2.6070 
  300.8750   398.4390     7.2440     6.9530    12.6290    14.7940     5.9070     5.3030     7.4980    -2.7100 
  301.0000   401.0550     7.3080     6.6120    11.1710    12.5370     4.8040     4.8970     7.4800    -2.8250 
  301.1250   396.7480     7.2910     6.2710     9.9540     8.5130     4.3540     5.1590     7.4810    -2.9250 
  301.2500   390.4550     7.2280     5.9290     8.7430     7.6490     4.3960     5.4070     7.4620    -3.1520 
  301.3750   382.4710     7.1650     5.8330     7.8860     7.5060     4.8730     5.4440     7.4310    -3.3000 
  301.5000   370.6360     7.0940     6.0890     7.5720     7.7650     5.0990     5.8450     7.4010    -3.5140 
  301.6250   355.7260     7.0820     6.3840     7.9210     8.1280     5.6180     6.3540     7.4230    -3.8170 
  301.7500   345.0700     7.0630     6.8180     8.5340     8.5030     5.9820     6.8130     7.4480    -4.1240 
  301.8750   339.2810     7.0540     7.1710     9.2330     8.8910     6.6050     7.2880     7.4730    -4.5590 
  302.0000   332.6900     7.1330     7.6080     9.9870     9.3940     7.3230     7.8890     7.4980    -5.0530 
  302.1250   325.5090     7.2200     8.2920    10.6000    10.0610     7.9780     8.6290     7.5230    -5.5600 
  302.2500   319.9950     7.3150     8.8250    11.4310    10.8100     8.7160     9.3310     7.5740    -5.9990 
  302.3750   315.3730     7.4210     9.4600    12.2980    11.6900     9.7020     9.8280     7.6500    -6.3340 
  302.5000   309.1260     7.5210     9.5810    13.3390    12.5360    10.7080    11.3460     7.7270    -6.5460 
  302.6250   302.4880     7.3770     9.5350    14.4100    13.3700    11.0750    11.3880     7.7590    -6.4380 
  302.7500   294.0630     7.3700     9.4560    15.5260    14.3080    11.2400    11.9850     7.7650    -5.7840 
