~V
VERS. 2.00: Ver 2.00
~W
STRT.M 20.0000:
STOP.M 305.0000:
STEP.M 0.1250:
NULL. -999.2500:
UWI. Z111:
~C
DEPT.M :
AC.US/MT :
GR.API :
R025. :
R2M. :
RA2. :
RI. :
RML.OHMM :
RXO.OHMM :
SP.MV :
~A
# ...
  129.5000     0.0000     0.0000     4.1940     5.0890     0.0000     0.0000     0.0000     0.0000     0.0000 
  129.6250     0.0000     0.0000     4.2580     5.3220     0.0000     0.0000     0.0000     0.0000     0.0000 
  129.7500     0.0000     0.0000     4.3230     5.5320     0.0000     0.0000     0.0000     0.0000     0.0000 
  129.8750     0.0000     0.0000     4.3900     5.6940     0.0000     0.0000     0.0000     0.0000     0.0000 
  130.0000     0.0000     0.0000     4.4760     5.6450     0.0000     0.0000     0.0000     0.0000     0.0000 
  130.1250     0.0000     0.0000     4.5240     5.5520     0.0000     0.0000     0.0000     0.0000     0.0000 
  130.2500     0.0000     0.0000     4.4930     5.4890     0.0000     0.0000     0.0000     0.0000     0.0000 
  130.3750     0.0000     0.0000     4.4350     5.7000     0.0000     0.0000     0.0000     0.0000     0.0000 
  130.5000     0.0000     0.0000     4.4790     5.9370     0.0000     0.0000     0.0000     0.0000     0.0000 
  130.6250     0.0000     0.0000     4.5440     5.9950     0.0000     0.0000     0.0000     0.0000     0.0000 
  130.7500     0.0000     0.0000     4.6080     5.5880     0.0000     0.0000     0.0000     0.0000     0.0000 
  130.8750     0.0000     0.0000     4.6420     5.2550     0.0000     0.0000     0.0000     0.0000     0.0000 
  131.0000     0.0000     0.0000     4.6420     5.0040     0.0000     0.0000     0.0000     0.0000     0.0000 
  131.1250     0.0000     0.0000     4.6430     4.9190     0.0000     0.0000     0.0000     0.0000     0.0000 
  131.2500     0.0000     0.0000     4.6090     4.8350     0.0000     0.0000     0.0000     0.0000     0.0000 
  131.3750     0.0000     0.0000     4.5590     4.8240     0.0000     0.0000     0.0000     0.0000     0.0000 
  131.5000     0.0000     0.0000     4.3760     4.8250     0.0000     0.0000     0.0000     0.0000     0.0000 
  131.6250     0.0000     0.0000     4.1290     4.9030     0.0000     0.0000     0.0000     0.0000     0.0000 
  131.7500     0.0000     0.0000     4.0030     5.0560     0.0000     0.0000     0.0000     0.0000     0.0000 
  131.8750     0.0000     0.0000     3.9280     5.1540     0.0000     0.0000     0.0000     0.0000     0.0000 
  132.0000     0.0000     0.0000     3.9200     5.1980     0.0000     0.0000     0.0000     0.0000     0.0000 
  132.1250     0.0000     0.0000     3.8780     5.2150     0.0000     0.0000     0.0000     0.0000     0.0000 
  132.2500     0.0000     0.0000     3.8360     5.2320     0.0000     0.0000     0.0000     0.0000     0.0000 
  132.3750     0.0000     0.0000     3.8520     5.2070     0.0000     0.0000     0.0000     0.0000     0.0000 
  132.5000     0.0000     0.0000     3.8840     5.1310     0.0000     0.0000     0.0000     0.0000     0.0000 
  132.6250     0.0000     0.0000     3.9170     5.0890     0.0000     0.0000     0.0000     0.0000     0.0000 
  132.7500     0.0000     0.0000     3.9900     5.0780     0.0000     0.0000     0.0000     0.0000     0.0000 
  132.8750     0.0000     0.0000     4.0940     5.0280     0.0000     0.0000     0.0000     0.0000     0.0000 
  133.0000     0.0000     0.0000     4.2130     4.9250     0.0000     0.0000     0.0000     0.0000     0.0000 
  133.1250     0.0000     0.0000     4.3420     4.6370     0.0000     0.0000     0.0000     0.0000     0.0000 
  133.2500     0.0000     0.0000     4.4720     4.3490     0.0000     0.0000     0.0000     0.0000     0.0000 
  133.3750     0.0000     0.0000     4.4290     4.0750     0.0000     0.0000     0.0000     0.0000     0.0000 
  133.5000     0.0000     0.0000     4.2100     4.1710     0.0000     0.0000     0.0000     0.0000     0.0000 
  133.6250     0.0000     0.0000     4.2720     4.7080     0.0000     0.0000     0.0000     0.0000     0.0000 
  133.7500     0.0000     0.0000     4.5490     5.3260     0.0000     0.0000     0.0000     0.0000     0.0000 
  133.8750     0.0000     0.0000     4.9180     5.9210     0.0000     0.0000     0.0000     0.0000     0.0000 
  134.0000     0.0000     0.0000     5.3430     6.5120     0.0000     0.0000     0.0000     0.0000     0.0000 
  134.1250     0.0000     0.0000     5.7630     6.9690     0.0000     0.0000     0.0000     0.0000     0.0000 
  134.2500     0.0000     0.0000     6.1590     6.5380     0.0000     0.0000     0.0000     0.0000     0.0000 
  134.3750     0.0000     0.0000     6.6170     6.2200     0.0000     0.0000     0.0000     0.0000     0.0000 
  134.5000     0.0000     0.0000     7.0730     6.0570     0.0000     0.0000     0.0000     0.0000     0.0000 
  134.6250     0.0000     0.0000     7.4920     5.9700     0.0000     0.0000     0.0000     0.0000     0.0000 
  134.7500     0.0000     0.0000     7.6230     5.7350     0.0000     0.0000     0.0000     0.0000     0.0000 
  134.8750     0.0000     0.0000     7.1320     5.5670     0.0000     0.0000     0.0000     0.0000     0.0000 
  135.0000     0.0000     0.0000     6.7330     5.2270     0.0000     0.0000     0.0000     0.0000     0.0000 
  135.1250     0.0000     0.0000     6.3610     4.7690     0.0000     0.0000     0.0000     0.0000     0.0000 
  135.2500     0.0000     0.0000     5.9900     4.4550     0.0000     0.0000     0.0000     0.0000     0.0000 
  135.3750     0.0000     0.0000     5.6180     4.1940     0.0000     0.0000     0.0000     0.0000     0.0000 
  135.5000     0.0000     0.0000     5.1490     4.0980     0.0000     0.0000     0.0000     0.0000     0.0000 
  135.6250     0.0000     0.0000     4.5830     5.0490     0.0000     0.0000     0.0000     0.0000     0.0000 
  135.7500     0.0000     0.0000     4.5780     6.5390     0.0000     0.0000     0.0000     0.0000     0.0000 
  135.8750     0.0000     0.0000     5.7700     7.7490     0.0000     0.0000     0.0000     0.0000     0.0000 
  136.0000     0.0000     0.0000     6.8830     9.1040     0.0000     0.0000     0.0000     0.0000     0.0000 
  136.1250     0.0000     0.0000     7.5500    10.0500     0.0000     0.0000     0.0000     0.0000     0.0000 
  136.2500     0.0000     0.0000     8.4570     9.6600     0.0000     0.0000     0.0000     0.0000     0.0000 
  136.3750     0.0000     0.0000     8.3290     9.2210     0.0000     0.0000     0.0000     0.0000     0.0000 
  136.5000     0.0000     0.0000     8.1280     8.7120     0.0000     0.0000     0.0000     0.0000     0.0000 
  136.6250     0.0000     0.0000     7.9400     8.1340     0.0000     0.0000     0.0000     0.0000     0.0000 
  136.7500     0.0000     0.0000     7.7600     7.6500     0.0000     0.0000     0.0000     0.0000     0.0000 
  136.8750     0.0000     0.0000     7.5810     7.0650     0.0000     0.0000     0.0000     0.0000     0.0000 
  137.0000     0.0000     0.0000     7.4150     6.7190     0.0000     0.0000     0.0000     0.0000     0.0000 
  137.1250     0.0000     0.0000     7.2530     6.2680     0.0000     0.0000     0.0000     0.0000     0.0000 
  137.2500     0.0000     0.0000     7.0920     6.1340     0.0000     0.0000     0.0000     0.0000     0.0000 
  137.3750     0.0000     0.0000     6.9250     6.0580     0.0000     0.0000     0.0000     0.0000     0.0000 
  137.5000     0.0000     0.0000     6.7570     5.9900     0.0000     0.0000     0.0000     0.0000     0.0000 
  137.6250     0.0000     0.0000     6.6090     5.9660     0.0000     0.0000     0.0000     0.0000     0.0000 
  137.7500     0.0000     0.0000     6.4420     5.9440     0.0000     0.0000     0.0000     0.0000     0.0000 
  137.8750     0.0000     0.0000     6.3580     6.0400     0.0000     0.0000     0.0000     0.0000     0.0000 
  138.0000     0.0000     0.0000     6.3090     6.2910     0.0000     0.0000     0.0000     0.0000     0.0000 
  138.1250     0.0000     0.0000     6.3130     6.5550     0.0000     0.0000     0.0000     0.0000     0.0000 
  138.2500     0.0000     0.0000     6.5080     6.8250     0.0000     0.0000     0.0000     0.0000     0.0000 
  138.3750     0.0000     0.0000     6.7620     7.0960     0.0000     0.0000     0.0000     0.0000     0.0000 
  138.5000     0.0000     0.0000     7.0900     7.3670     0.0000     0.0000     0.0000     0.0000     0.0000 
