~V
VERS. 2.00: Ver 2.00
~W
STRT.M 20.0000:
STOP.M 305.0000:
STEP.M 0.1250:
NULL. -999.2500:
UWI. Z111:
~C
DEPT.M :
AC.US/MT :
GR.API :
R025. :
R2M. :
RA2. :
RI. :
RML.OHMM :
RXO.OHMM :
SP.MV :
~A
# ...
   38.2500     0.0000     0.0000    11.7360     5.6940     0.0000     0.0000     0.0000     0.0000     0.0000 
   38.3750     0.0000     0.0000    12.6650     6.4250     0.0000     0.0000     0.0000     0.0000     0.0000 
   38.5000     0.0000     0.0000    12.1500     7.5260     0.0000     0.0000     0.0000     0.0000     0.0000 
   38.6250     0.0000     0.0000    11.2020     8.6270     0.0000     0.0000     0.0000     0.0000     0.0000 
   38.7500     0.0000     0.0000    10.7470     9.7290     0.0000     0.0000     0.0000     0.0000     0.0000 
   38.8750     0.0000     0.0000    10.2950    10.1270     0.0000     0.0000     0.0000     0.0000     0.0000 
   39.0000     0.0000     0.0000     9.8080     9.3150     0.0000     0.0000     0.0000     0.0000     0.0000 
   39.1250     0.0000     0.0000     9.2990     8.5040     0.0000     0.0000     0.0000     0.0000     0.0000 
   39.2500     0.0000     0.0000     8.8620     7.6920     0.0000     0.0000     0.0000     0.0000     0.0000 
   39.3750     0.0000     0.0000     8.4680     6.8800     0.0000     0.0000     0.0000     0.0000     0.0000 
   39.5000     0.0000     0.0000     8.3480     6.3080     0.0000     0.0000     0.0000     0.0000     0.0000 
   39.6250     0.0000     0.0000     8.3470     6.2110     0.0000     0.0000     0.0000     0.0000     0.0000 
   39.7500     0.0000     0.0000     8.3450     6.1110     0.0000     0.0000     0.0000     0.0000     0.0000 
   39.8750     0.0000     0.0000     8.3440     6.0700     0.0000     0.0000     0.0000     0.0000     0.0000 
   40.0000     0.0000     0.0000     8.7100     6.4770     0.0000     0.0000     0.0000     0.0000     0.0000 
   40.1250     0.0000     0.0000     8.8340     6.8510     0.0000     0.0000     0.0000     0.0000     0.0000 
   40.2500     0.0000     0.0000     8.9640     7.2750     0.0000     0.0000     0.0000     0.0000     0.0000 
   40.3750     0.0000     0.0000     8.7860     7.8900     0.0000     0.0000     0.0000     0.0000     0.0000 
   40.5000     0.0000     0.0000     8.5840     8.8760     0.0000     0.0000     0.0000     0.0000     0.0000 
   40.6250     0.0000     0.0000     8.6480     9.8520     0.0000     0.0000     0.0000     0.0000     0.0000 
   40.7500     0.0000     0.0000     8.8010    10.8910     0.0000     0.0000     0.0000     0.0000     0.0000 
   40.8750     0.0000     0.0000     8.9980    11.8950     0.0000     0.0000     0.0000     0.0000     0.0000 
   41.0000     0.0000     0.0000     9.2270    13.8170     0.0000     0.0000     0.0000     0.0000     0.0000 
   41.1250     0.0000     0.0000     9.5760    14.0940     0.0000     0.0000     0.0000     0.0000     0.0000 
   41.2500     0.0000     0.0000     9.9230    14.9660     0.0000     0.0000     0.0000     0.0000     0.0000 
   41.3750     0.0000     0.0000    10.6530    15.2860     0.0000     0.0000     0.0000     0.0000     0.0000 
   41.5000     0.0000     0.0000    11.7100    15.4580     0.0000     0.0000     0.0000     0.0000     0.0000 
   41.6250     0.0000     0.0000    12.7670    15.9060     0.0000     0.0000     0.0000     0.0000     0.0000 
   41.7500     0.0000     0.0000    13.8240    17.3870     0.0000     0.0000     0.0000     0.0000     0.0000 
   41.8750     0.0000     0.0000    14.8820    18.4590     0.0000     0.0000     0.0000     0.0000     0.0000 
   42.0000     0.0000     0.0000    15.9390    19.0910     0.0000     0.0000     0.0000     0.0000     0.0000 
   42.1250     0.0000     0.0000    16.4840    17.9070     0.0000     0.0000     0.0000     0.0000     0.0000 
   42.2500     0.0000     0.0000    16.1640    16.7510     0.0000     0.0000     0.0000     0.0000     0.0000 
   42.3750     0.0000     0.0000    16.2070    16.2260     0.0000     0.0000     0.0000     0.0000     0.0000 
   42.5000     0.0000     0.0000    16.3210    15.7080     0.0000     0.0000     0.0000     0.0000     0.0000 
   42.6250     0.0000     0.0000    16.4510    15.4770     0.0000     0.0000     0.0000     0.0000     0.0000 
   42.7500     0.0000     0.0000    16.5800    16.2080     0.0000     0.0000     0.0000     0.0000     0.0000 
   42.8750     0.0000     0.0000    16.7100    17.4270     0.0000     0.0000     0.0000     0.0000     0.0000 
   43.0000     0.0000     0.0000    16.8400    18.9340     0.0000     0.0000     0.0000     0.0000     0.0000 
   43.1250     0.0000     0.0000    16.8160    19.1860     0.0000     0.0000     0.0000     0.0000     0.0000 
   43.2500     0.0000     0.0000    16.3650    19.8410     0.0000     0.0000     0.0000     0.0000     0.0000 
   43.3750     0.0000     0.0000    15.9140    20.3130     0.0000     0.0000     0.0000     0.0000     0.0000 
   43.5000     0.0000     0.0000    15.4930    20.2360     0.0000     0.0000     0.0000     0.0000     0.0000 
   43.6250     0.0000     0.0000    15.0610    20.0340     0.0000     0.0000     0.0000     0.0000     0.0000 
   43.7500     0.0000     0.0000    14.6150    19.8180     0.0000     0.0000     0.0000     0.0000     0.0000 
   43.8750     0.0000     0.0000    14.3790    19.6060     0.0000     0.0000     0.0000     0.0000     0.0000 
   44.0000     0.0000     0.0000    14.5080    20.0080     0.0000     0.0000     0.0000     0.0000     0.0000 
   44.1250     0.0000     0.0000    14.6930    20.5320     0.0000     0.0000     0.0000     0.0000     0.0000 
   44.2500     0.0000     0.0000    14.8880    21.1210     0.0000     0.0000     0.0000     0.0000     0.0000 
   44.3750     0.0000     0.0000    15.0830    21.3930     0.0000     0.0000     0.0000     0.0000     0.0000 
   44.5000     0.0000     0.0000    15.2780    21.2410     0.0000     0.0000     0.0000     0.0000     0.0000 
   44.6250     0.0000     0.0000    15.4740    21.0880     0.0000     0.0000     0.0000     0.0000     0.0000 
   44.7500     0.0000     0.0000    15.6690    20.9190     0.0000     0.0000     0.0000     0.0000     0.0000 
   44.8750     0.0000     0.0000    15.8180    20.8540     0.0000     0.0000     0.0000     0.0000     0.0000 
   45.0000     0.0000     0.0000    15.9260    20.9750     0.0000     0.0000     0.0000     0.0000     0.0000 
   45.1250     0.0000     0.0000    16.0280    21.0830     0.0000     0.0000     0.0000     0.0000     0.0000 
   45.2500     0.0000     0.0000    16.0500    21.3810     0.0000     0.0000     0.0000     0.0000     0.0000 
   45.3750     0.0000     0.0000    15.8230    21.6690     0.0000     0.0000     0.0000     0.0000     0.0000 
   45.5000     0.0000     0.0000    15.4520    22.0150     0.0000     0.0000     0.0000     0.0000     0.0000 
   45.6250     0.0000     0.0000    15.4060    22.2980     0.0000     0.0000     0.0000     0.0000     0.0000 
   45.7500     0.0000     0.0000    15.3950    22.6220     0.0000     0.0000     0.0000     0.0000     0.0000 
   45.8750     0.0000     0.0000    15.3450    22.8890     0.0000     0.0000     0.0000     0.0000     0.0000 
   46.0000     0.0000     0.0000    15.1770    23.2640     0.0000     0.0000     0.0000     0.0000     0.0000 
   46.1250     0.0000     0.0000    15.0100    23.9800     0.0000     0.0000     0.0000     0.0000     0.0000 
   46.2500     0.0000     0.0000    14.8780    24.5840     0.0000     0.0000     0.0000     0.0000     0.0000 
   46.3750     0.0000     0.0000    14.7670    25.3960     0.0000     0.0000     0.0000     0.0000     0.0000 
   46.5000     0.0000     0.0000    14.6570    26.0420     0.0000     0.0000     0.0000     0.0000     0.0000 
   46.6250     0.0000     0.0000    14.5570    26.5620     0.0000     0.0000     0.0000     0.0000     0.0000 
   46.7500     0.0000     0.0000    14.4730    26.8870     0.0000     0.0000     0.0000     0.0000     0.0000 
   46.8750     0.0000     0.0000    14.3890    27.0610     0.0000     0.0000     0.0000     0.0000     0.0000 
   47.0000     0.0000     0.0000    14.3240    27.1630     0.0000     0.0000     0.0000     0.0000     0.0000 
   47.1250     0.0000     0.0000    14.2610    26.6540     0.0000     0.0000     0.0000     0.0000     0.0000 
   47.2500     0.0000     0.0000    14.1980    25.8960     0.0000     0.0000     0.0000     0.0000     0.0000 
