~V
VERS. 2.00: Ver 2.00
~W
STRT.M 20.0000:
STOP.M 305.0000:
STEP.M 0.1250:
NULL. -999.2500:
UWI. Z111:
~C
DEPT.M :
AC.US/MT :
GR.API :
R025. :
R2M. :
RA2. :
RI. :
RML.OHMM :
RXO.OHMM :
SP.MV :
~A
# ...
  275.5000   317.2250     8.8640    13.7360    16.9250    15.9740    12.4520    15.6480    12.7550   -13.9230 
  275.6250   323.4530     8.7360    13.6820    16.7380    16.5330    14.2450    14.9240     5.9900   -13.9710 
  275.7500   329.1860     8.5820    13.5560    16.3970    16.8500    13.7320    14.0410     4.1830   -14.0040 
  275.8750   334.7620     8.4250    13.4300    16.0560    16.1110    13.0980    13.1850     8.1530   -14.0010 
  276.0000   339.6070     8.3360    13.3120    15.7210    15.5410    12.5950    12.8820    11.0340   -13.9970 
  276.1250   343.9140     8.3200    13.2280    15.3850    14.9620    12.3300    12.6330    11.6890   -13.8190 
  276.2500   343.3630     8.2960    13.3130    15.0260    14.6940    12.1390    12.4440    13.8670   -13.7140 
  276.3750   337.7930     8.2260    13.4880    14.6500    14.5800    12.0240    13.0070    17.1870   -13.5890 
  276.5000   332.4320     8.1350    13.8460    14.5890    14.7210    11.7260    13.7460    16.6550   -13.3740 
  276.6250   326.8880     7.9270    14.2590    14.8640    15.3460    12.3220    14.4310    15.2250   -13.0600 
  276.7500   323.3630     8.1510    14.7200    15.6680    16.5590    13.5460    15.0890    13.3260   -12.7740 
  276.8750   326.2750     8.1210    15.5020    17.3260    17.6380    14.5580    15.5930    14.4870   -12.4040 
  277.0000   330.7710     8.0470    16.1370    18.9850    18.6790    15.0010    16.0270    15.2270   -12.0000 
  277.1250   334.2990     8.1530    17.0100    20.6430    19.7500    15.0340    17.5770    15.8360   -11.5640 
  277.2500   337.1550     8.2250    17.0410    22.3020    20.6670    15.0390    19.1590    19.2940   -10.8520 
  277.3750   338.6010     8.1160    16.8200    23.9600    21.6890    16.2390    20.3350    21.1700   -10.1560 
  277.5000   341.8020     8.0600    16.5080    25.6190    22.5710    18.0840    19.6080    19.8650    -9.3300 
  277.6250   345.7040     7.9980    16.1370    27.2510    23.6370    18.5020    17.9320    20.7120    -8.5900 
  277.7500   354.4280     7.9340    15.5830    27.0710    24.8120    17.2240    15.3880    15.7480    -7.8520 
  277.8750   367.4220     7.9250    14.9250    26.0910    25.8230    15.5370    12.4530     7.6980    -7.1290 
  278.0000   378.8910     8.1290    13.7880    24.0670    26.8050    13.7810     9.9860     5.5070    -6.4640 
  278.1250   384.0040     8.0370    11.8240    22.0440    22.2300    11.9320     8.3440     5.8240    -6.0770 
  278.2500   379.5080     7.9450     9.7890    20.0200    17.4950     9.4240     6.8810     6.0740    -6.4900 
  278.3750   373.7630     7.8570     8.7500    17.9960    14.3720     7.1040     6.5080     6.3240    -7.2510 
  278.5000   374.4520     7.7610     7.9370    15.9720    12.2710     5.9530     6.4270     5.9820    -8.0450 
  278.6250   382.8510     7.7400     7.1530    13.9480    10.5460     5.6600     6.4330     5.2070    -9.0010 
  278.7500   379.4120     7.9360     6.6560    11.9240     9.9330     5.6550     6.4380     5.6080    -9.7470 
  278.8750   373.4920     8.1560     6.1630     9.9000     9.5640     5.6580     6.4900     6.3310   -10.7360 
  279.0000   365.7480     8.3270     5.9260     9.3790     9.2730     5.5470     6.7600     7.4300   -11.6080 
  279.1250   358.1250     8.5720     6.0490     9.6690     8.9780     5.5310     7.1470     8.9450   -12.3880 
  279.2500   351.8080     8.7890     6.2990     9.9930     8.9110     5.9700     7.7860     9.8770   -12.7950 
  279.3750   345.8370     8.7900     6.6570    10.5970     9.0370     6.4510     8.1560     9.0930   -13.1690 
  279.5000   340.8100     8.7530     6.9670    11.1200     9.3020     6.8120     8.3840     8.1260   -13.4630 
  279.6250   338.5110     8.7020     7.3560    11.5210     9.6660     7.1360     8.6250     9.2630   -13.6290 
  279.7500   339.0420     8.6310     7.8590    11.9330    10.1300     7.5010     8.8680    10.6370   -13.7350 
  279.8750   343.3840     8.5660     8.4250    12.3530    10.5320     7.2190     9.1670     9.8530   -13.9030 
  280.0000   339.3570     8.4880     8.9440    12.7440    11.0070     7.7750     9.5780    10.0230   -14.0590 
  280.1250   334.3270     8.3780     9.3740    13.0830    11.4460     8.5970    10.1250    12.1240   -14.2920 
  280.2500   328.7800     8.2940     9.9060    13.4200    11.9820     8.9180    10.6730    15.2200   -14.5990 
  280.3750   323.4000     8.2020    10.3750    13.8620    12.4920     9.4840    10.7750    18.0660   -14.8860 
  280.5000   318.7690     8.1400    10.8170    14.2990    12.9830    10.4410    11.7130    16.6280   -15.1630 
  280.6250   321.6140     8.1280    11.3200    13.8110    13.5230    12.4720    13.0700    14.5960   -15.4480 
  280.7500   328.3430     8.2770    11.7060    13.1960    13.9600    13.3980    14.4100    11.1650   -15.6380 
  280.8750   336.2460     8.3380    11.6090    12.3760    13.2700    12.9520    14.5430    10.0330   -15.8410 
  281.0000   343.9770     8.2250    11.4290    11.6310    12.4580    11.8690    13.1380    11.3150   -16.0090 
  281.1250   340.5030     8.1720    11.2500    10.9450    11.3440    10.8680    11.4030    13.1720   -16.1390 
  281.2500   336.5140     8.1990    11.0380    10.4760    10.2400    10.0240    10.1250    15.6670   -16.2380 
  281.3750   332.3440     8.1310    10.8130    10.5750     9.9430     9.4290     9.4620    18.0400   -16.2120 
  281.5000   327.6910     8.0450    10.7150    10.9220    10.1330     9.4720    10.4460    18.3720   -16.0850 
  281.6250   323.5710     7.9300    10.9270    11.4200    10.5450    10.3520    11.1090    17.8460   -15.8220 
  281.7500   316.7650     7.8590    11.2420    11.8230    11.0970    10.9370    11.5910    18.3980   -15.5810 
  281.8750   303.3620     8.0160    11.6110    12.2790    11.6420    11.6950    12.1510    19.1970   -15.3400 
  282.0000   296.2960     8.2060    12.0340    12.8320    12.2440    12.6310    12.8180    17.1040   -15.0400 
  282.1250   302.8180     8.3630    12.4050    13.3480    12.9560    13.5890    13.1530    14.2480   -14.9200 
  282.2500   309.9320     8.5690    12.7330    13.8270    13.7320    13.7480    12.4610    13.4900   -14.9010 
  282.3750   314.0170     8.7010    12.8010    14.2060    13.5310    12.7690    11.6550    18.1710   -14.8290 
  282.5000   312.7630     8.6750    12.8660    14.2070    13.2670    11.7180    11.1270    19.4710   -14.5690 
  282.6250   318.3240     8.5960    12.8930    14.5430    13.4290    10.8100    11.8960    17.0190   -14.2290 
  282.7500   322.5160     8.8200    12.8130    15.0960    13.7760    12.1190    12.3030    13.9820   -13.8210 
  282.8750   316.4260     9.0270    12.7120    15.6270    14.1960    12.4980    12.0680    17.7170   -13.3210 
  283.0000   305.2030     8.8400    12.5540    16.2380    14.7230    11.7870    11.7820    22.8720   -12.8210 
  283.1250   293.3960     8.4830    12.3780    16.8850    15.2390    11.4650    11.9830    22.5340   -12.3350 
  283.2500   284.0240     8.6960    12.1840    17.5900    15.8060    12.8030    14.3410    14.7500   -12.0270 
  283.3750   314.0670     8.6430    11.9830    18.1240    16.4170    14.1290    15.1230    10.3170   -11.9500 
  283.5000   338.2290     8.5480    11.5290    17.3010    17.0280    12.6800    13.3990     6.8400   -12.0720 
  283.6250   347.9360     8.5190    11.0450    16.6780    16.6340    11.0390    11.4810     9.3600   -12.3500 
  283.7500   350.8520     8.2610    10.6730    15.0480    15.2790     9.3960     8.4120    13.0350   -12.5210 
  283.8750   351.1570     8.1090    10.1180    13.6840    13.1690     7.5900     7.5450    11.0180   -12.0850 
  284.0000   356.3100     7.9390     9.5310    12.8930    11.7900     7.9350     7.9740     8.4590   -11.4600 
  284.1250   364.1590     7.8860     8.9820    12.3670    11.7670     7.6380     8.4540     7.1800   -10.8920 
  284.2500   374.2380     7.8660     8.4910    11.8920    11.1820     7.0750     7.6070     6.0310   -10.3370 
  284.3750   384.0160     7.9220     7.8210    11.5390    10.6570     6.3990     6.7980     6.0200    -9.7350 
  284.5000   384.1940     7.9380     7.3620     8.9050     9.9120     6.1970     6.1730     5.8270    -9.1110 
