~V
VERS. 2.00: Ver 2.00
~W
STRT.M 20.0000:
STOP.M 305.0000:
STEP.M 0.1250:
NULL. -999.2500:
UWI. Z111:
~C
DEPT.M :
AC.US/MT :
GR.API :
R025. :
R2M. :
RA2. :
RI. :
RML.OHMM :
RXO.OHMM :
SP.MV :
~A
# ...
  202.5000   449.1250     4.5310     4.8010     6.1190     5.9940     4.8150     5.1600     4.6890    -3.5610 
  202.6250   444.4440     4.6130     4.8030     5.8980     6.0090     4.9230     5.0950     3.4810    -3.4310 
  202.7500   431.1860     4.6610     4.8040     5.7180     6.0460     4.9650     5.0630     3.9280    -3.2860 
  202.8750   424.8320     4.6830     4.8040     5.8470     5.7620     4.9680     5.0690     4.6740    -3.1620 
  203.0000   425.4670     4.7000     4.8050     6.0550     5.5730     4.9700     5.0740     4.7190    -3.0400 
  203.1250   439.7510     4.7070     4.8050     6.1300     5.5510     4.9730     5.0800     4.4300    -2.9660 
  203.2500   451.8320     4.6760     4.8080     5.9400     5.6140     4.8930     5.0850     4.8560    -2.9090 
  203.3750   437.4090     4.5990     4.8180     5.7510     5.7980     4.7900     5.0910     4.8650    -2.8750 
  203.5000   433.7530     4.6310     4.8280     5.6420     5.8840     4.8800     5.0970     4.0400    -2.8610 
  203.6250   444.9090     4.6270     4.8370     5.5700     5.9420     5.0010     5.1020     3.6670    -2.8680 
  203.7500   435.5470     4.5630     4.8470     5.7150     5.9120     5.1450     5.1080     4.3900    -2.9170 
  203.8750   422.8390     4.6320     4.8560     5.9220     5.8190     5.1940     5.1130     4.2500    -2.9820 
  204.0000   422.3970     4.7290     4.8670     6.1470     5.7420     5.1920     5.0240     3.7530    -3.0930 
  204.1250   422.9820     4.8260     4.8780     6.2910     5.6920     5.1320     4.7990     4.1780    -3.2240 
  204.2500   427.9150     4.8870     4.8890     6.2650     5.7110     5.0800     4.7150     4.4580    -3.3770 
  204.3750   427.9890     4.7890     4.9000     6.2420     5.9290     5.0380     4.6300     4.2460    -3.4900 
  204.5000   428.3910     4.6460     4.9110     6.5240     6.1460     5.0060     4.6340     4.9670    -3.4870 
  204.6250   436.8410     4.5880     4.9040     6.5810     6.1820     5.0090     4.6880     4.7740    -3.4430 
  204.7500   447.7200     4.6630     4.8930     6.6380     6.1400     4.9870     4.7460     4.4820    -3.3740 
  204.8750   436.7480     4.8290     4.8830     6.6950     6.0850     4.9370     4.7520     4.1560    -3.2160 
  205.0000   425.6460     4.8300     4.8730     6.7520     6.0870     4.8920     4.8130     4.1810    -3.0680 
  205.1250   421.4560     4.7320     4.8620     6.8090     6.0890     4.8500     4.8810     4.5150    -3.0070 
  205.2500   425.6660     4.6460     4.8410     6.8640     6.0920     4.7520     4.9660     4.6250    -2.9460 
  205.3750   430.6030     4.5940     4.8210     6.8760     6.0940     4.5290     4.9780     4.5770    -2.8740 
  205.5000   428.1190     4.6760     4.8000     6.8890     6.0960     4.3240     4.9830     4.1110    -2.7930 
  205.6250   423.0550     4.6640     4.7790     6.9010     6.0980     4.3640     4.9890     3.7350    -2.7160 
  205.7500   417.3970     4.6070     4.7630     6.9140     6.0950     4.4040     5.0510     4.0110    -2.6410 
  205.8750   412.6990     4.5550     4.7640     6.8380     6.0270     4.4650     5.1310     4.2980    -2.5410 
  206.0000   409.1850     4.5290     4.7640     6.7110     6.0030     4.5650     5.2070     4.3600    -2.4180 
  206.1250   411.3870     4.5810     4.7650     6.5230     6.0050     4.6550     5.2830     4.6690    -2.2930 
  206.2500   418.1980     4.7290     4.7650     6.2960     6.0070     4.7150     5.2080     4.0510    -2.1660 
  206.3750   427.5830     4.8740     4.7660     6.1030     5.9870     4.7470     5.0150     3.0810    -2.0390 
  206.5000   425.8290     5.0050     4.7660     5.9750     5.9370     4.7500     4.9420     2.9090    -1.9160 
  206.6250   417.9540     5.1130     4.7670     5.9120     5.8210     4.7530     4.9330     3.5320    -1.7930 
  206.7500   413.4390     5.0790     4.7670     5.8500     5.6430     4.7560     5.0390     3.8930    -1.6610 
  206.8750   425.6710     5.4050     4.8160     5.7100     5.4790     4.7110     5.0450     4.0290    -1.5290 
  207.0000   437.9040     5.4840     4.6650     5.4890     5.3640     4.6510     5.0500     4.2660    -1.3960 
  207.1250   452.7670     5.5300     4.5140     5.3710     5.4870     4.5140     5.0340     4.2440    -1.2650 
  207.2500   475.0800     5.9990     4.4290     5.3400     5.5180     4.4640     4.9000     4.0930    -1.1590 
  207.3750   469.6960     6.2930     4.3450     5.3190     5.4980     4.4520     4.8640     3.7400    -1.0570 
  207.5000   459.2370     6.5640     4.3080     5.2990     5.4720     4.3760     4.8700     3.9280    -0.9820 
  207.6250   447.2760     6.9240     4.3090     5.2890     5.4740     4.1170     4.8760     4.1390    -0.9100 
  207.7500   436.1040     7.0810     4.3220     5.3830     5.4760     3.9400     4.8810     3.8430    -0.8790 
  207.8750   425.9320     7.4370     4.4020     5.5810     5.5710     3.8800     4.8870     3.7940    -0.8560 
  208.0000   419.3000     7.7500     4.4830     5.8400     5.9810     3.8740     4.8920     3.7550    -0.8530 
  208.1250   410.5950     7.9550     4.5640     6.2220     6.4100     4.0110     4.9590     3.9870    -0.8500 
  208.2500   402.2260     8.0900     4.8190     6.6120     6.8260     4.2800     5.6390     4.6280    -0.8560 
  208.3750   397.0610     7.9910     5.0590     7.0520     7.0760     4.5540     6.5600     5.3460    -0.8870 
  208.5000   416.4840     8.1730     5.2940     7.4460     7.1980     4.9220     6.5100     6.1080    -1.0160 
  208.6250   433.0050     8.3090     5.5780     7.2420     7.2250     5.3050     6.4430     6.4280    -1.1690 
  208.7500   449.8240     8.2390     5.8640     6.9400     6.9830     5.6130     6.3650     5.0960    -1.2480 
  208.8750   453.8340     8.0600     5.9760     6.6410     6.5600     5.6160     6.1790     5.1250    -1.3170 
  209.0000   442.1180     7.8610     5.8520     6.3640     6.1600     5.2770     5.7070     5.7080    -1.3290 
  209.1250   425.4430     7.7080     5.6950     6.0930     6.2170     5.0220     5.0800     4.7830    -1.3260 
  209.2500   409.5020     7.5780     5.5370     5.8660     6.3120     5.0180     5.6440     4.0700    -1.3730 
  209.3750   414.7790     7.5110     5.4130     5.6480     6.1230     5.0200     6.1080     4.0140    -1.4420 
  209.5000   417.9630     7.4820     5.3370     5.5220     6.0280     5.0240     6.1150     4.8410    -1.5300 
  209.6250   415.1100     7.5070     5.2900     5.3550     5.8850     5.2920     5.9780     5.3270    -1.6310 
  209.7500   412.5530     7.4300     5.2910     5.1670     5.7490     5.5740     5.8130     5.3300    -1.7590 
  209.8750   416.0670     7.6550     5.4350     5.2840     5.6490     5.6400     5.7540     5.8120    -1.9000 
  210.0000   413.8480     7.5460     5.6210     5.4390     5.6160     5.4950     5.8580     7.0380    -2.0540 
  210.1250   406.3990     7.2810     5.8070     5.9070     5.6180     5.3500     6.1930     9.0800    -2.2190 
  210.2500   398.5460     7.1300     5.9590     6.3410     5.8810     5.6350     6.2110    10.6220    -2.3600 
  210.3750   391.5300     6.9750     6.2930     6.9910     6.4220     6.1360     6.7680    11.3940    -2.4760 
  210.5000   389.6140     7.0090     6.8300     7.6920     7.1430     6.6030     7.6700     9.0240    -2.5970 
  210.6250   393.3280     7.0550     7.1380     8.1740     7.8180     7.0670     8.7660    11.2990    -2.7240 
  210.7500   398.2690     6.9850     7.4260     7.8220     8.2410     8.2650     8.8190     8.8720    -2.8700 
  210.8750   404.2460     6.8940     7.8130     7.4040     8.1210     9.2190     9.9710     6.1320    -3.0370 
  211.0000   398.8540     6.8170     8.1800     6.6620     7.7510     9.2190     9.0660     5.7410    -3.2530 
  211.1250   384.1620     6.7360     8.4950     6.1910     6.7410     7.8570     6.9600    14.2840    -3.4900 
  211.2500   364.3380     6.6450     8.6810     6.2000     6.4320     6.8810     8.2260    15.5560    -3.7150 
  211.3750   368.5080     6.6400     9.3090     7.0420     7.1700     6.3950    11.0940    14.0730    -3.9350 
  211.5000   382.3930     6.6330    10.9080     7.8840     7.7610     9.3810    13.2780    14.9470    -4.1160 
