~V
VERS. 2.00: Ver 2.00
~W
STRT.M 90.0000:
STOP.M 356.0000:
STEP.M 0.1250:
NULL. -999.2500:
UWI. ∑Á÷ÿ017:
~C
DEPT.M :
GR.API :
RML.OHMM :
RI. :
RXO.OHMM :
AC.US/MT :
SP.MV :
R2M. :
R025. :
DEN.GM/CC :
~A
# ...
  144.7500    59.9600     7.5900     6.4070    11.6180   431.4300   -45.5670     5.4580     6.1070     2.1070 
  144.8750    61.6990     7.4650     6.3240    11.2280   428.6980   -45.4360     5.3090     5.8910     2.1080 
  145.0000    61.6490     7.3670     6.2700    10.9580   426.3250   -45.2050     5.3820     5.8700     2.1070 
  145.1250    61.6890     7.3460     6.2570    10.8180   422.0670   -45.0820     5.5000     5.9960     2.1060 
  145.2500    60.8340     7.4010     6.2920    10.8440   420.0230   -45.0400     5.5970     6.0360     2.1070 
  145.3750    58.6990     7.4990     6.3620    11.1030   423.4120   -45.0070     5.7100     5.8510     2.1090 
  145.5000    58.9470     7.5800     6.4310    11.6830   427.2830   -45.0620     5.9690     5.6740     2.1180 
  145.6250    60.3380     7.6070     6.4760    12.2740   418.3990   -45.0410     6.3070     5.8000     2.1220 
  145.7500    62.0070     7.6020     6.5010    11.9480   414.1900   -45.1370     6.4060     5.7840     2.1260 
  145.8750    63.2980     7.6000     6.5250    11.4030   409.1930   -45.2230     6.2740     5.7820     2.1260 
  146.0000    63.4570     7.6260     6.5640    11.1130   406.8240   -45.2740     6.2470     5.8830     2.1240 
  146.1250    62.5030     7.6860     6.6260    11.1560   409.9540   -45.3020     6.4330     6.0540     2.1230 
  146.2500    62.1060     7.7530     6.7070    11.0360   411.4730   -45.2890     6.1500     6.0780     2.1250 
  146.3750    60.3680     7.8210     6.7750    11.0830   411.3190   -45.3480     6.1030     6.1370     2.1300 
  146.5000    61.6090     7.8280     6.7990    11.3650   412.4440   -45.2960     6.2490     6.1820     2.1320 
  146.6250    63.8340     7.8060     6.7880    11.6940   413.2250   -45.1730     6.4410     6.1430     2.1320 
  146.7500    65.5630     7.7710     6.7620    11.9630   412.6710   -45.0900     6.5260     6.1040     2.1310 
  146.8750    65.6620     7.7320     6.7380    12.0890   409.6190   -45.1130     6.5150     6.1780     2.1350 
  147.0000    63.1790     7.6990     6.7170    11.9530   401.9490   -45.1430     6.7340     6.3900     2.1440 
  147.1250    62.4340     7.7060     6.7000    11.7980   404.4160   -45.2010     6.6950     6.3000     2.1540 
  147.2500    62.2850     7.7130     6.6990    11.8990   407.5820   -45.2810     6.5980     6.4240     2.1550 
  147.3750    63.4770     7.7520     6.7080    12.3170   416.3480   -45.3850     6.5570     6.5250     2.1500 
  147.5000    63.3780     7.7890     6.7210    12.7260   423.9860   -45.4440     6.6010     6.5360     2.1430 
  147.6250    60.0500     7.7950     6.7290    12.7980   424.5800   -45.4120     6.6300     6.4540     2.1360 
  147.7500    56.3250     7.8030     6.7310    12.5760   425.4170   -45.3700     6.3610     6.2390     2.1320 
  147.8750    53.1460     7.7570     6.7100    12.3970   423.5920   -45.1850     6.3300     6.3150     2.1310 
  148.0000    55.0930     7.7270     6.6780    12.3160   422.0140   -45.1000     6.2860     6.1890     2.1320 
  148.1250    60.2580     7.7390     6.6540    12.3620   424.5960   -45.0040     6.3180     6.1240     2.1340 
  148.2500    65.0070     7.7800     6.6590    12.5760   428.2710   -44.9170     6.3780     6.1250     2.1390 
  148.3750    66.5460     7.8340     6.7090    12.9440   429.3110   -44.8780     6.4770     6.1290     2.1440 
  148.5000    65.5030     7.9220     6.7940    13.3360   429.6520   -44.8190     6.8700     6.1960     2.1480 
  148.6250    61.5300     7.9610     6.8710    13.3530   426.8440   -44.8400     7.1080     6.0860     2.1490 
  148.7500    59.9400     8.0170     6.9250    13.2150   426.3420   -44.7710     7.0990     6.1450     2.1450 
  148.8750    60.4670     8.0460     6.9500    12.9990   427.6020   -44.7440     7.0530     6.1030     2.1400 
  149.0000    62.3640     8.0420     6.9480    12.8350   429.8060   -44.6860     6.9320     6.0100     2.1360 
  149.1250    65.0070     8.0350     6.9380    12.8060   431.5220   -44.5450     6.7250     6.0080     2.1350 
  149.2500    68.4830     8.0890     6.9720    12.8490   430.3840   -44.5110     6.7090     6.1060     2.1380 
  149.3750    67.7380     8.2320     7.0670    12.5670   424.5730   -44.3300     6.6420     6.0330     2.1360 
  149.5000    66.7950     8.3350     7.1280    12.7060   413.1430   -44.1190     6.8150     5.7530     2.1300 
  149.6250    66.8440     8.3320     7.1070    12.9110   404.0450   -43.8070     6.9780     5.7530     2.1270 
  149.7500    66.7950     8.2220     7.0060    12.6970   399.8360   -43.4590     7.0670     5.8250     2.1300 
  149.8750    66.3080     8.0450     6.8570    12.0490   401.1420   -43.1350     7.0470     5.6800     2.1380 
  150.0000    68.8410     7.8590     6.7040    12.0110   410.1050   -42.7390     6.7560     5.5620     2.1440 
  150.1250    69.5860     7.7930     6.6240    12.4050   414.4320   -42.4150     6.5950     5.5620     2.1370 
  150.2500    68.5430     7.7760     6.5910    12.4650   416.2110   -42.1550     6.4610     5.6590     2.1290 
  150.3750    68.8410     7.8420     6.6360    12.2950   418.3760   -41.9110     6.1750     5.6620     2.1230 
  150.5000    67.3510     7.9530     6.7260    12.2160   420.9350   -41.6970     5.9940     5.6710     2.1200 
  150.6250    63.1690     8.0540     6.8190    12.4820   423.2870   -41.4940     6.1260     5.7730     2.1170 
  150.7500    66.0990     8.1400     6.9080    13.0030   426.5550   -41.1540     6.2340     5.7300     2.1120 
  150.8750    63.8640     8.2280     6.9810    13.2030   423.8580   -40.9180     6.3210     5.5320     2.1050 
  151.0000    65.4040     8.2320     7.0040    12.6740   421.7720   -40.6820     6.1200     5.5240     2.0980 
  151.1250    67.3210     8.1170     6.9230    11.8590   419.9480   -40.5020     6.1480     5.3730     2.0890 
  151.2500    67.6890     7.8840     6.7310    11.1370   419.8430   -40.3760     6.2900     5.0770     2.0810 
  151.3750    66.1790     7.5700     6.4610    10.6570   422.1820   -40.3030     6.3390     4.8010     2.0770 
  151.5000    64.1920     7.2610     6.1790    10.1670   424.4590   -40.3410     6.5210     4.7000     2.0770 
  151.6250    59.7220     6.9290     5.8910     9.3670   432.3560   -40.3870     6.4310     4.7950     2.0750 
  151.7500    58.7480     6.6410     5.6320     8.8800   431.4470   -40.4060     6.5080     4.7030     2.0760 
  151.8750    59.4830     6.4250     5.4270     8.6320   430.1770   -40.3230     6.4810     4.6430     2.0850 
  152.0000    61.1520     6.2530     5.2670     8.6900   425.0360   -40.1390     6.3170     4.6690     2.1060 
  152.1250    64.5790     6.1000     5.1360     9.0180   414.2220   -39.8930     6.1110     4.7010     2.1350 
  152.2500    72.7750     5.9970     5.0370     9.2340   411.3350   -39.6240     5.9690     4.5590     2.1680 
  152.3750    73.7190     5.9970     5.0430     7.8390   406.3220   -39.3540     6.0760     4.4620     2.1870 
  152.5000    77.6420     6.1220     5.1420     7.3220   410.2430   -38.9370     5.9350     4.4700     2.1910 
  152.6250    76.0830     6.3030     5.2830     8.0980   414.2980   -38.5560     5.8540     4.5080     2.1830 
  152.7500    73.4500     6.4760     5.4150     8.9920   416.2570   -38.2200     5.8760     4.4940     2.1700 
  152.8750    74.8410     6.5800     5.5000     8.8370   416.5980   -37.8840     5.9240     4.4320     2.1550 
  153.0000    73.8480     6.5680     5.5150     8.0700   414.6620   -37.5690     5.9460     4.5080     2.1440 
  153.1250    75.0890     6.5100     5.5240     8.0290   412.9920   -37.2700     5.8030     4.7530     2.1390 
  153.2500    74.3440     6.4850     5.5420     8.7300   414.9050   -37.2000     5.8430     4.7420     2.1340 
  153.3750    72.8340     6.6230     5.6850     9.4630   415.3440   -37.2480     5.9640     4.8100     2.1290 
  153.5000    71.0070     6.9130     5.9540     9.5300   416.3020   -37.3140     6.0110     4.9430     2.1220 
  153.6250    69.7250     7.2690     6.2860     9.1510   419.5670   -37.3520     5.9100     5.0550     2.1140 
  153.7500    71.4640     7.5930     6.6060    10.3770   419.4910   -37.4070     5.8060     5.2620     2.1070 
