~V
VERS. 2.00: Ver 2.00
~W
STRT.M 90.0000:
STOP.M 356.0000:
STEP.M 0.1250:
NULL. -999.2500:
UWI. ∑Á÷ÿ017:
~C
DEPT.M :
GR.API :
RML.OHMM :
RI. :
RXO.OHMM :
AC.US/MT :
SP.MV :
R2M. :
R025. :
DEN.GM/CC :
~A
# ...
  345.5000     8.7220    11.9870    11.3260    28.0100   318.2250   -17.7900     9.3910    10.5520     2.2520 
  345.6250     8.7220    11.8000    11.1900    68.7690   324.1800   -17.7480     9.8630    10.4060     2.2420 
  345.7500     8.7220    11.4800    10.9110   197.5550   329.0420   -17.6530    10.7410    10.1310     2.2400 
  345.8750     8.7220    11.3850    10.7250   289.4370   333.7110   -17.5730    10.9290    10.0270     2.2370 
  346.0000     8.7220    11.3890    10.5520   307.8200   334.6290   -17.5040    11.0170     9.6400     2.2380 
  346.1250     8.7220    10.9800    10.0250   307.8200   334.9410   -17.3940    11.0900     9.2890     2.2400 
  346.2500     8.7220     9.9420     9.0370   307.8200   336.3850   -17.2020    11.1510     9.0700     2.2420 
  346.3750     8.7220     8.3030     7.6660   307.8200   340.8530   -16.9480    11.0620     8.9630     2.2410 
  346.5000     8.7220     6.2770     6.0880   307.8200   351.9590   -16.7570    10.4850     8.9470     2.2340 
  346.6250     8.7220     4.9300     4.8020   307.8200   363.2780   -16.4830    10.2560     8.8940     2.2200 
  346.7500     8.7220     4.1430     3.8730   307.8200   376.4140   -16.1320     9.5420     9.0510     2.2020 
  346.8750     8.7220     3.7800     3.3730   307.8200   390.9970   -15.7820     8.5770     9.0870     2.1730 
  347.0000     8.7220     3.7220     3.2160   307.8200   407.6440   -15.4160     7.6010     9.0750     2.1370 
  347.1250     8.7220     3.8410     3.2470   307.8200   424.8820   -14.9930     6.7100     9.0950     2.1010 
  347.2500     8.7220     3.9750     3.3200   307.8200   436.0470   -14.5240     5.7040     8.8360     2.0770 
  347.3750     8.7220     4.0280     3.3560   307.8200   431.2890   -14.0950     5.0870     8.7710     2.0890 
  347.5000     8.7220     4.0370     3.3640   307.8200   429.3340   -13.7500     4.8950     8.5730     2.1140 
  347.6250     8.7220     4.0240     3.3510   307.8200   426.2890   -13.4240     4.9120     8.5150     2.1290 
  347.7500     8.7220     4.0080     3.3290   307.8200   424.7510   -13.1700     4.9470     8.5610     2.1130 
  347.8750     8.7220     4.0130     3.3130   307.8200   425.6400   -13.0280     4.9500     8.6240     2.0610 
  348.0000     8.7220     4.0720     3.3360   307.8200   420.0560   -12.8980     5.1330     8.8270     1.9840 
  348.1250     8.7220     4.2140     3.4200   307.8200   413.9860   -12.7610     5.1880     8.9980     1.9160 
  348.2500     8.7220     4.4360     3.5390   307.8200   406.0270   -12.5820     5.0770     9.1340     1.8770 
  348.3750     8.7220     4.6800     3.6600   307.8200   397.3920   -12.4260     5.0480     9.2740     1.8830 
  348.5000     8.7220     4.9280     3.7530   307.8200   389.8360   -12.2770     5.2910     9.2850     1.9330 
  348.6250     8.7220     5.1430     3.8030   307.8200   385.2200   -12.1200     5.7210     9.1440     2.0130 
  348.7500     8.7220     5.2050     3.8130   307.8200   385.0490   -12.0270     5.7650     9.2230     2.0880 
  348.8750     8.7220     5.2390     3.8080   307.8200   389.8560   -12.0510     5.8110     9.3380     2.1350 
  349.0000     8.7220     5.2120     3.8080   307.8200   388.9300   -12.1260     5.8760     9.4120     2.1610 
  349.1250     8.7220     5.2150     3.8140   307.8200   379.6160   -12.1860     5.8970     9.3390     2.1810 
  349.2500     8.7220     5.2290     3.8200   307.8200   360.5710   -12.2580     5.9020     9.2820     2.2040 
  349.3750     8.7220     5.2070     3.8190   307.8200   336.2890   -12.3680     5.9240     9.3630     2.2350 
  349.5000     8.7220     5.1670     3.8190   307.8200   321.6040   -12.4430     5.9180     9.3580     2.2770 
  349.6250     8.7220     5.1440     3.8180   307.8200   319.5540   -12.4810     5.8650     9.2380     2.3080 
  349.7500     8.7220     5.1250     3.8170   307.8200   334.9540   -12.4650     5.8540     9.1790     2.3140 
  349.8750     8.7220     5.1180     3.8170   307.8200   355.4630   -12.4740     5.8470     9.1390     2.2930 
  350.0000     8.7220     5.1080     3.8160   307.8200   377.6540   -12.4690     5.8300     9.0930     2.2570 
  350.1250     8.7220     5.1140     3.8160   307.8200   398.4580   -12.3960     5.8060     9.0340     2.2250 
  350.2500     8.7220     5.1200     3.8160   307.8200   406.6040   -12.2870     5.7740     8.9760     2.2130 
  350.3750     8.7220     5.1240     3.8160   307.8200   411.6730   -12.2530     5.8000     8.9690     2.2170 
  350.5000     8.7220     5.1260     3.8160   307.8200   413.5270   -12.2130     5.8130     8.8710     2.2190 
  350.6250     8.7220     5.1250     3.8160   307.8200   415.1770   -12.1680     5.8110     8.8510     2.2140 
  350.7500     8.7220     5.1230     3.8160   307.8200   416.4930   -12.1250     5.7850     8.8650     2.1930 
  350.8750     8.7220     5.1240     3.8170   307.8200   416.2530   -12.1150     5.7470     8.7230     2.1530 
  351.0000     8.7220     5.1270     3.8170   307.8200   414.1930   -12.2160     5.7560     8.1630     2.1140 
  351.1250     8.7220     5.1170     3.8180   253.3980   409.0880   -12.1700     5.7530     7.6240     2.1020 
  351.2500  -999.2500  -999.2500  -999.2500  -999.2500   401.2430   -12.1170     5.7410     7.1610     2.1230 
  351.3750  -999.2500  -999.2500  -999.2500  -999.2500   394.1730   -12.0400     5.7420     6.6810     2.1530 
  351.5000  -999.2500  -999.2500  -999.2500  -999.2500   389.1110   -11.9470     5.7780     6.1710     2.1750 
  351.6250  -999.2500  -999.2500  -999.2500  -999.2500   386.5550   -11.8610     5.8440     5.7570     2.1800 
  351.7500  -999.2500  -999.2500  -999.2500  -999.2500   387.8080   -11.8020     5.8990     5.7570     2.1680 
  351.8750  -999.2500  -999.2500  -999.2500  -999.2500   384.8920   -11.7350     5.9270     5.7570     2.1560 
  352.0000  -999.2500  -999.2500  -999.2500  -999.2500   386.8240   -11.7820     5.9330     5.7570     2.1530 
  352.1250  -999.2500  -999.2500  -999.2500  -999.2500   388.8680   -11.8780     5.9480     5.7570     2.1570 
  352.2500  -999.2500  -999.2500  -999.2500  -999.2500   391.3680   -11.9440     5.9450     5.7570     2.1630 
  352.3750  -999.2500  -999.2500  -999.2500  -999.2500   394.1210   -11.8580     5.9030     5.7570     2.1680 
  352.5000  -999.2500  -999.2500  -999.2500  -999.2500   390.7480   -11.4290     5.8640     5.7570     2.1680 
  352.6250  -999.2500  -999.2500  -999.2500  -999.2500   392.7430   -11.4090     5.7240     5.7570     2.1600 
  352.7500  -999.2500  -999.2500  -999.2500  -999.2500   391.7750   -11.4870     5.5900     5.7570     2.1480 
  352.8750  -999.2500  -999.2500  -999.2500  -999.2500   390.4330   -11.3410     5.4880     5.7570     2.1370 
  353.0000  -999.2500  -999.2500  -999.2500  -999.2500   387.8640   -10.8950     5.4380     5.7570     2.1300 
  353.1250  -999.2500  -999.2500  -999.2500  -999.2500   384.0320   -10.2530     5.4220     5.7570     2.1280 
  353.2500  -999.2500  -999.2500  -999.2500  -999.2500   384.0090    -9.6330     5.3670     5.7570     2.1300 
  353.3750  -999.2500  -999.2500  -999.2500  -999.2500   386.1380    -8.8720     5.4050     5.7570     2.1340 
  353.5000  -999.2500  -999.2500  -999.2500  -999.2500   387.2470    -8.1260     5.3060     5.7570     2.1360 
  353.6250  -999.2500  -999.2500  -999.2500  -999.2500   386.9060    -7.4460     5.3780     5.7570     2.1370 
  353.7500  -999.2500  -999.2500  -999.2500  -999.2500   386.1090    -7.1870     5.1840     5.7570     2.1370 
  353.8750  -999.2500  -999.2500  -999.2500  -999.2500   385.9880  -999.2500  -999.2500  -999.2500     2.1360 
  354.0000  -999.2500  -999.2500  -999.2500  -999.2500   386.5090  -999.2500  -999.2500  -999.2500     2.1370 
  354.1250  -999.2500  -999.2500  -999.2500  -999.2500   387.3420  -999.2500  -999.2500  -999.2500     2.1390 
  354.2500  -999.2500  -999.2500  -999.2500  -999.2500   344.5900  -999.2500  -999.2500  -999.2500     2.1380 
  354.3750  -999.2500  -999.2500  -999.2500  -999.2500   291.3290  -999.2500  -999.2500  -999.2500     2.1330 
  354.5000  -999.2500  -999.2500  -999.2500  -999.2500   238.7960  -999.2500  -999.2500  -999.2500     2.1250 
