~V
VERS. 2.00: Ver 2.00
~W
STRT.M 90.0000:
STOP.M 356.0000:
STEP.M 0.1250:
NULL. -999.2500:
UWI. ∑Á÷ÿ017:
~C
DEPT.M :
GR.API :
RML.OHMM :
RI. :
RXO.OHMM :
AC.US/MT :
SP.MV :
R2M. :
R025. :
DEN.GM/CC :
~A
# ...
  281.6250    54.0890    12.0860    11.1360    21.1860   374.8130   -48.2300    12.4270    10.2300     2.1640 
  281.7500    56.8210    12.2870    11.3050    22.2580   372.7100   -48.0900    12.3240    10.3030     2.1700 
  281.8750    58.4110    12.5050    11.4850    22.5360   373.2120   -47.8000    12.1700    10.4080     2.1790 
  282.0000    58.4110    12.5480    11.5260    20.1840   376.9320   -47.5810    12.0300    10.5490     2.1850 
  282.1250    53.9410    12.2980    11.3410    19.5320   375.9450   -47.3630    11.8790    10.6470     2.1770 
  282.2500    52.6490    11.8400    11.0410    19.0630   382.2180   -47.2410    11.6500    10.8310     2.1630 
  282.3750    51.4070    11.4860    10.8020    19.0800   381.0790   -47.0990    11.4460    10.9850     2.1530 
  282.5000    51.2980    11.4020    10.7590    19.7180   376.5220   -46.9500    11.1830    11.0280     2.1540 
  282.6250    53.4630    11.6510    10.9870    20.8310   373.0970   -46.8250    10.8700    11.0670     2.1680 
  282.7500    54.9540    12.2300    11.4930    21.8630   357.7950   -46.6520    10.8840    11.5510     2.1860 
  282.8750    54.4570    12.9880    12.1830    22.6030   357.7560   -46.3580    11.2430    11.9600     2.1950 
  283.0000    52.4900    13.7650    12.8460    25.2650   351.6110   -46.0870    11.7410    12.2530     2.1980 
  283.1250    49.8580    14.3890    13.3680    26.9370   348.0410   -45.8320    12.3860    12.4180     2.2020 
  283.2500    49.1520    14.6780    13.6070    26.9950   346.2200   -45.6220    13.1690    12.5530     2.2150 
  283.3750    51.1390    14.5190    13.4730    26.1430   343.1530   -45.4810    14.0160    12.6370     2.2410 
  283.5000    51.1390    13.9460    13.0020    25.4530   341.0240   -45.3800    14.7480    12.3050     2.2670 
  283.6250    54.3180    13.3980    12.5620    22.5810   342.8480   -45.2540    15.0990    11.9510     2.2720 
  283.7500    57.7350    12.8520    12.1100    21.7430   342.3620   -45.1640    15.0160    11.8750     2.2650 
  283.8750    60.6160    12.4640    11.7900    22.2880   345.9450   -45.0590    14.6580    11.7460     2.2610 
  284.0000    61.9670    12.2250    11.6160    22.8770   350.4720   -44.9440    14.1350    11.6280     2.2620 
  284.1250    61.1820    12.1690    11.6370    22.7260   352.3100   -44.8380    13.4510    11.7080     2.2640 
  284.2500    58.6490    12.5920    12.0980    22.8470   356.3350   -44.7280    12.4360    12.0180     2.2590 
  284.3750    60.3870    13.5290    12.9730    23.8130   354.7410   -44.6780    11.6620    12.3240     2.2560 
  284.5000    58.3510    14.5790    13.8930    26.0800   353.2050   -44.4860    11.3840    12.4270     2.2760 
  284.6250    56.2950    15.3000    14.4880    26.8150   350.1840   -44.3070    11.5630    12.4710     2.3040 
  284.7500    54.5960    15.3690    14.5350    24.9620   346.9780   -44.1120    11.9590    12.5230     2.3240 
  284.8750    53.4730    14.6710    13.9720    21.7290   346.0530   -43.8570    12.3210    12.5020     2.3230 
  285.0000    56.2050    13.3880    12.8990    21.0720   349.3180   -43.6380    12.5810    12.1170     2.2950 
  285.1250    60.4270    12.4550    12.0530    21.0270   353.1920   -43.4910    12.4440    11.7720     2.2650 
  285.2500    61.5500    11.9160    11.5070    21.1800   357.7920   -43.3900    12.3300    11.5440     2.2470 
  285.3750    61.4500    11.8120    11.3380    21.3190   360.1180   -43.2490    11.9760    11.4530     2.2350 
  285.5000    60.2190    11.9360    11.3890    21.2440   360.8300   -43.1230    11.4800    11.4320     2.2250 
  285.6250    58.2320    12.0380    11.4550    20.8210   361.6080   -43.0340    11.0430    11.4130     2.2180 
  285.7500    58.2320    12.0240    11.4640    20.0360   362.4410   -42.7900    10.7160    11.4180     2.2140 
  285.8750    57.3870    11.9670    11.4250    20.3860   362.2150   -42.4360    11.0340    11.2830     2.2110 
  286.0000    58.0130    12.0090    11.4770    21.3820   363.6880   -42.1900    11.1390    11.3430     2.2130 
  286.1250    57.9640    12.2120    11.6630    22.3130   362.4870   -41.9290    11.1380    11.5050     2.2170 
  286.2500    57.7150    12.5710    11.9820    23.7720   359.2810   -41.6600    11.1530    11.5240     2.2220 
  286.3750    57.9140    13.0140    12.3730    26.0430   355.0160   -41.4670    11.3000    11.3850     2.2280 
  286.5000    56.9210    13.3900    12.6890    27.4910   346.1290   -41.4460    11.6780    11.6780     2.2310 
  286.6250    58.4110    13.5220    12.7710    25.6770   350.8370   -41.4040    11.7750    12.0020     2.2340 
  286.7500    58.6690    13.4410    12.6880    23.6080   352.3850   -41.3020    11.9880    11.9650     2.2370 
  286.8750    58.2020    13.2520    12.5290    22.6960   360.0030   -41.2370    12.4380    11.8300     2.2430 
  287.0000    57.1590    12.9340    12.2800    22.6530   366.1650   -41.1620    12.7890    11.8800     2.2550 
  287.1250    56.7710    12.5540    11.9920    22.4540   363.6710   -41.0070    12.7660    12.1520     2.2760 
  287.2500    60.7940    12.4790    11.9590    21.3010   362.7590   -40.8050    12.6750    12.1680     2.3000 
  287.3750    61.0430    12.9550    12.3920    20.0520   348.3690   -40.6920    12.6910    12.3230     2.3190 
  287.5000    63.0790    13.7530    13.0620    23.0410   331.4270   -40.5380    12.6900    12.5540     2.3330 
  287.6250    60.9440    14.5650    13.7200    24.4070   316.9650   -40.3660    12.4870    12.8260     2.3460 
  287.7500    59.6020    15.0390    14.0890    23.0030   306.8040   -40.1660    12.3950    12.9660     2.3550 
  287.8750    63.3180    14.9120    13.9630    20.8480   303.3860   -39.9230    12.6200    12.8510     2.3560 
  288.0000    64.0130    14.1330    13.3050    21.5770   313.6380   -39.6540    12.6570    12.5950     2.3450 
  288.1250    70.4700    13.1430    12.4400    21.4090   329.3600   -39.3170    12.6410    12.3260     2.3250 
  288.2500    69.9740    12.4550    11.7890    21.0660   345.5640   -39.0040    12.3380    11.9680     2.3090 
  288.3750    68.2150    12.2130    11.5060    20.8200   355.6300   -38.6670    12.2390    11.5770     2.2980 
  288.5000    66.6760    12.3310    11.5460    20.8200   358.5370   -38.3650    12.1710    11.3440     2.2900 
  288.6250    65.3250    12.5900    11.7440    21.1620   357.1720   -38.1570    11.9460    11.3920     2.2810 
  288.7500    65.3250    12.7320    11.8950    21.9630   356.5650   -37.9930    12.0030    11.5680     2.2760 
  288.8750    64.5800    12.9090    12.0850    22.1070   355.7280   -37.9000    12.2370    11.4850     2.2780 
  289.0000    65.1850    13.1970    12.3310    22.0550   356.1380   -37.7710    12.4940    11.6040     2.2820 
  289.1250    67.0530    13.5370    12.5760    22.4260   357.7490   -37.6390    12.6500    11.8530     2.2880 
  289.2500    69.2580    13.7980    12.7090    22.7780   358.7040   -37.5230    12.8070    11.9970     2.2970 
  289.3750    70.5890    13.8410    12.6330    22.3000   357.6570   -37.4340    13.0700    11.8690     2.3060 
  289.5000    70.0930    13.5780    12.3330    20.4920   356.0630   -37.3920    13.3290    11.6010     2.3140 
  289.6250    69.0990    13.0620    11.8610    18.1100   347.7460   -37.4050    13.1850    11.6960     2.3130 
  289.7500    70.6490    12.5650    11.3940    17.6630   349.7280   -37.4580    13.2840    11.6280     2.3050 
  289.8750    69.9440    12.2340    11.0490    18.4550   355.0590   -37.5560    13.3280    11.3970     2.2920 
  290.0000    67.0730    12.0870    10.8340    19.5150   362.8970   -37.6530    13.2390    11.0910     2.2770 
  290.1250    63.6460    12.0680    10.7080    20.0530   371.1150   -37.7110    13.0910    10.8140     2.2640 
  290.2500    59.4240    12.1200    10.6620    19.9010   368.9110   -37.7660    13.0530    10.6130     2.2590 
  290.3750    62.8010    12.0800    10.5550    18.7350   369.7470   -37.7110    13.0820    10.3690     2.2590 
  290.5000    64.8280    12.0350    10.4700    18.7030   368.3960   -37.7030    12.8410    10.1310     2.2570 
  290.6250    65.3540    11.9870    10.3760    19.4370   367.9100   -37.7480    12.5830     9.9010     2.2500 
