~V
VERS. 2.00: Ver 2.00
~W
STRT.M 90.0000:
STOP.M 356.0000:
STEP.M 0.1250:
NULL. -999.2500:
UWI. ∑Á÷ÿ017:
~C
DEPT.M :
GR.API :
RML.OHMM :
RI. :
RXO.OHMM :
AC.US/MT :
SP.MV :
R2M. :
R025. :
DEN.GM/CC :
~A
# ...
  172.1250    92.2050     6.8770     6.0590    11.6040   404.4550   -39.9720     6.0410     5.9690     2.1980 
  172.2500    96.2980     6.8660     6.1250    11.7070   391.7880   -39.7430     6.6630     6.5580     2.2480 
  172.3750    96.3980     6.8960     6.2890    11.2800   381.8370   -39.5920     6.9800     7.3800     2.2920 
  172.5000    86.9610     7.2420     6.7970    13.7910   382.6740   -39.4570     6.8290     8.3920     2.3070 
  172.6250    80.2050     8.2310     7.9470    18.3140   387.0010   -39.2510     6.4580     9.8640     2.2830 
  172.7500    69.7160     9.7280     9.4960    28.7540   383.3100   -38.9670     6.0540    11.5750     2.2750 
  172.8750    65.5930    11.9920    11.6440    59.7400   371.1910   -38.7980     5.4150    13.4370     2.3110 
  173.0000    66.7750    14.6130    14.2600   110.6590   349.5010   -38.7620     4.8490    15.4330     2.3880 
  173.1250    68.5130    17.1790    17.1550   151.9940   319.6690   -38.7880     4.8060    17.6520     2.4830 
  173.2500    69.8540    19.9340    20.3500   111.6480   288.9900   -38.8010     5.5020    20.3160     2.5610 
  173.3750    64.8880    23.0340    23.8370    69.7370   258.5330   -39.0450     6.3420    22.8940     2.5980 
  173.5000    58.1330    27.0570    28.0280    65.0570   235.7350   -39.4230     6.9280    25.0200     2.6170 
  173.6250    53.8510    32.6780    33.4460    69.3230   217.7200   -39.7090     7.6020    26.4810     2.6320 
  173.7500    52.1520    38.1030    38.3330    69.8700   205.9020   -39.8910     8.3510    26.8380     2.6480 
  173.8750    51.9040    39.7540    39.3650    63.2070   200.3150   -40.0540     9.0170    25.7490     2.6620 
  174.0000    53.6420    32.9530    32.3670    48.5660   193.9340   -40.2600     9.5050    23.3000     2.6660 
  174.1250    56.1260    23.1400    23.0130    34.2490   210.8690   -40.5500     9.9020    19.9750     2.6430 
  174.2500    59.4830    15.9540    16.4180    22.2300   236.2500   -40.8000    10.5260    16.5070     2.5730 
  174.3750    62.8510    11.3750    11.9920    15.8710   274.8590   -41.1490    10.7420    13.1590     2.4630 
  174.5000    66.9730     8.8850     9.1990    13.9520   316.0530   -41.6110    10.4310    10.5310     2.3350 
  174.6250    71.3840     7.7900     7.6410    13.7570   350.5770   -42.1470     9.7580     8.9910     2.2190 
  174.7500    71.5830     7.5340     7.1390    14.1680   387.4110   -42.7240     8.9490     8.1120     2.1450 
  174.8750    71.0860     7.9720     7.3770    14.1930   401.3850   -43.1360     8.0460     7.9100     2.1230 
  175.0000    68.4040     8.4290     7.7000    14.1250   413.8420   -43.6560     7.1490     7.6690     2.1200 
  175.1250    67.1130     8.7220     7.9580    14.4130   415.8460   -44.1980     6.7790     7.5790     2.1250 
  175.2500    66.3180     8.8070     8.0870    14.8200   414.7540   -44.7440     6.9230     7.5150     2.1320 
  175.3750    64.4310     8.7220     8.0790    14.9970   418.7470   -45.3020     7.2500     7.3120     2.1380 
  175.5000    62.9400     8.5340     7.9570    15.0660   421.4040   -45.8700     7.3130     7.0400     2.1420 
  175.6250    64.5300     8.3220     7.7750    15.0460   423.3790   -46.3320     7.9370     6.5490     2.1400 
  175.7500    67.0330     8.0850     7.5550    15.0310   423.9570   -46.6670     8.3400     6.3390     2.1330 
  175.8750    68.2750     7.8430     7.3210    15.1190   420.8140   -46.9220     8.5910     6.3330     2.1250 
  176.0000    67.1520     7.6230     7.1000    15.1960   419.6750   -47.1130     8.7870     6.3700     2.1170 
  176.1250    64.2120     7.4700     6.9310    15.1030   423.3200   -47.2160     9.0190     6.3910     2.1090 
  176.2500    62.2250     7.4470     6.8710    14.8020   420.5840   -47.1570     9.3580     6.6280     2.1030 
  176.3750    57.2580     7.6330     6.9960    14.9980   426.4340   -47.2200     9.0370     6.7160     2.1080 
  176.5000    58.0930     7.9970     7.2570    15.3130   425.5380   -47.3270     8.9050     6.7740     2.1140 
  176.6250    60.0500     8.4410     7.5760    15.6330   426.8500   -47.4270     8.7130     6.7710     2.1190 
  176.7500    62.1850     8.8450     7.8570    15.9570   428.1960   -47.4520     8.4840     6.7630     2.1230 
  176.8750    63.4770     9.0400     7.9700    16.2720   425.6590   -47.3790     8.3440     6.7510     2.1270 
  177.0000    59.0070     8.7780     7.7350    16.4280   423.0020   -47.3040     8.3500     6.5280     2.1320 
  177.1250    58.8080     8.1750     7.2700    14.9910   421.0630   -47.2240     8.3900     6.6600     2.1360 
  177.2500    59.7620     7.6320     6.8350    13.3330   418.1860   -47.0970     8.1860     6.4600     2.1440 
  177.3750    62.6420     7.3020     6.5500    13.0170   418.6710   -46.9200     7.8870     6.3620     2.1540 
  177.5000    65.4040     7.2650     6.4930    13.8740   419.8560   -46.7310     7.5860     6.4210     2.1620 
  177.6250    66.2480     7.5270     6.6780    14.9540   418.9600   -46.5610     7.3230     6.5760     2.1630 
  177.7500    66.6950     8.0310     7.0400    15.4800   419.9480   -46.3850     7.0970     6.9140     2.1550 
  177.8750    67.6890     8.5560     7.4050    15.4560   417.2150   -46.1490     6.8390     6.9840     2.1380 
  178.0000    66.4970     8.8180     7.5990    15.5430   417.7590   -45.8390     6.8860     7.3140     2.1210 
  178.1250    65.5330     8.8610     7.6420    14.5920   420.9280   -45.5110     7.0240     7.4910     2.1060 
  178.2500    65.1060     8.7760     7.5920    13.4680   423.5470   -45.2220     7.1170     7.4940     2.0990 
  178.3750    64.9370     8.6730     7.5170    13.4520   424.1540   -45.0240     7.1050     7.4320     2.1010 
  178.5000    65.6820     8.6430     7.4840    14.6430   427.1920   -44.9610     6.9920     7.2820     2.1140 
  178.6250    67.6690     8.6950     7.5190    14.2520   423.6610   -44.8300     7.0130     7.4210     2.1190 
  178.7500    67.7480     8.7890     7.5970    13.7940   422.6510   -44.7600     6.7330     7.5350     2.1120 
  178.8750    66.5460     8.8760     7.6800    13.9880   419.2190   -44.6960     6.6220     7.5730     2.1000 
  179.0000    65.0070     8.9550     7.7580    14.4650   416.6670   -44.5820     6.6520     7.6600     2.0930 
  179.1250    64.2710     9.0520     7.8460    14.6660   418.3990   -44.4030     6.6360     7.8740     2.0960 
  179.2500    65.5630     9.2070     7.9820    14.7310   419.7640   -44.2130     6.5730     8.0250     2.1040 
  179.3750    65.8110     9.3400     8.1030    14.8940   424.9280   -43.9610     6.6980     7.8240     2.1110 
  179.5000    66.8940     9.3380     8.1130    14.2390   424.6850   -43.8100     6.9850     7.8400     2.1150 
  179.6250    68.7520     9.2540     8.0560    13.1610   423.1360   -43.7030     7.1040     7.9490     2.1210 
  179.7500    69.6950     9.0940     7.9350    12.2490   420.7680   -43.5990     7.1280     7.9080     2.1280 
  179.8750    68.4930     8.8660     7.7560    11.7940   416.7290   -43.4720     7.2490     7.5870     2.1360 
  180.0000    66.4570     8.6270     7.5640    11.3110   411.1090   -43.3250     7.4950     7.2060     2.1460 
  180.1250    62.3350     8.4700     7.4470    10.1390   412.3230   -43.3040     7.5160     6.9880     2.1540 
  180.2500    63.6950     8.4360     7.4400    10.1210   409.2850   -43.1240     7.4030     6.7490     2.1610 
  180.3750    64.1920     8.5180     7.5320    11.2840   407.0510   -42.9030     7.2950     6.5090     2.1640 
  180.5000    63.3580     8.6790     7.6930    12.6380   403.7570   -42.6900     7.2140     6.3800     2.1640 
  180.6250    62.9300     8.8670     7.8750    13.1550   397.5520   -42.4680     7.1100     6.4260     2.1610 
  180.7500    63.1790     9.0090     8.0210    12.7620   393.5630   -42.1480     6.9010     6.5220     2.1550 
  180.8750    63.6750     9.0520     8.0980    12.8880   398.1960   -41.7440     6.7080     6.8110     2.1490 
  181.0000    64.9670     8.9890     8.0790    13.5300   404.4090   -41.3300     6.6800     7.0390     2.1400 
  181.1250    66.8440     8.9430     8.0600    13.6830   412.4050   -40.8890     6.5450     7.1560     2.1310 
