~V
VERS. 2.00: Ver 2.00
~W
STRT.M 90.0000:
STOP.M 356.0000:
STEP.M 0.1250:
NULL. -999.2500:
UWI. ∑Á÷ÿ017:
~C
DEPT.M :
GR.API :
RML.OHMM :
RI. :
RXO.OHMM :
AC.US/MT :
SP.MV :
R2M. :
R025. :
DEN.GM/CC :
~A
# ...
  226.8750    87.2280     6.6100     5.5830     6.6600   381.3980   -23.1860     4.7610     5.0110     2.2850 
  227.0000    88.0730     6.6280     5.6280     6.7680   382.1720   -23.3870     4.6880     4.8040     2.2900 
  227.1250    87.0000     6.7160     5.7130     6.9980   381.5720   -23.5050     4.4670     4.6740     2.2990 
  227.2500    83.6230     6.8190     5.8070     7.4640   386.7750   -23.6730     4.4790     4.9030     2.2990 
  227.3750    81.3880     7.0110     5.9730     7.8300   386.3940   -23.7740     4.6680     5.0480     2.2880 
  227.5000    82.3310     7.0920     6.0930     7.5600   386.1970   -23.7610     4.9080     5.1630     2.2770 
  227.6250    84.2780     7.2970     6.3310     7.5970   379.8030   -23.8220     5.2030     5.2640     2.2720 
  227.7500    86.4440     7.7130     6.7220     8.0300   367.4540   -23.9630     5.6600     5.3920     2.2770 
  227.8750    87.2780     8.2990     7.2060     8.9030   353.3730   -24.1090     6.3280     5.5540     2.2910 
  228.0000    82.3110     8.9070     7.6620    11.0300   343.1200   -24.2180     7.0270     5.6710     2.3100 
  228.1250    78.5860     8.9630     7.7030    11.0100   340.1610   -24.1720     7.5100     5.6670     2.3290 
  228.2500    79.1130     8.4810     7.3760     9.1750   348.3170   -24.1160     7.8270     5.5440     2.3340 
  228.3750    81.0890     7.6930     6.8010     7.6380   357.5660   -23.9760     7.9340     5.5620     2.3240 
  228.5000    83.1260     6.9160     6.1790     6.9180   368.7600   -23.7940     7.8490     5.6070     2.3070 
  228.6250    84.3180     6.3740     5.6720     6.6910   381.9290   -23.6190     7.5380     5.4970     2.2940 
  228.7500    83.3250     6.0080     5.2910     6.5230   384.5870   -23.4000     6.7890     5.2960     2.2910 
  228.8750    82.5800     5.8980     5.1650     6.1060   392.8640   -23.2780     6.4070     4.9700     2.2970 
  229.0000    85.4100     5.7200     5.0000     5.7040   394.2160   -23.2200     6.1640     4.7220     2.3030 
  229.1250    88.8970     5.4640     4.7860     5.5620   397.8020   -23.1000     5.8710     4.4860     2.3040 
  229.2500    91.0330     5.1780     4.5500     5.5600   401.6310   -22.8950     5.5680     4.1810     2.3040 
  229.3750    90.9640     4.9270     4.3420     5.4570   401.4010   -22.6420     5.3650     3.8440     2.3090 
  229.5000    89.2250     4.7400     4.2080     5.1390   399.3500   -22.3860     5.2700     3.7760     2.3210 
  229.6250    90.2180     4.7970     4.3050     5.2250   392.5920   -22.2000     5.0230     4.1190     2.3420 
  229.7500    92.9200     5.1870     4.7460     6.2890   380.9120   -22.0050     4.8490     4.3950     2.3600 
  229.8750    94.1130     5.9830     5.4870     8.8000   372.2380   -21.8830     4.8670     4.6370     2.3790 
  230.0000    93.1590     7.2260     6.4760    11.7790   364.9340   -21.8890     5.0550     5.0240     2.3940 
  230.1250    91.7180     8.7350     7.5710    13.3990   356.6990   -22.0100     5.3130     5.5690     2.3980 
  230.2500    93.4570     9.9190     8.4610    11.5920   353.5100   -22.1280     5.5180     5.7980     2.3910 
  230.3750    94.3010     9.8250     8.4340     9.6540   352.6740   -22.2710     6.2100     5.4640     2.3580 
  230.5000    94.2720     9.1900     7.9210     8.2120   354.3900   -22.3970     6.8580     5.2680     2.3270 
  230.6250    92.8010     8.3540     7.2040     7.7000   360.8920   -22.4840     7.3450     5.0850     2.3010 
  230.7500    90.5370     7.5170     6.4640     7.6280   370.0660   -22.5610     7.6920     4.8270     2.2810 
  230.8750    89.0460     6.7390     5.7790     7.2190   380.2590   -22.6480     8.0180     4.4410     2.2680 
  231.0000    90.5360     5.9440     5.1030     6.0470   395.0660   -22.6990     8.4890     3.9150     2.2610 
  231.1250    90.5860     5.1200     4.4290     4.6740   403.4970   -22.7950     8.1100     3.6310     2.2590 
  231.2500    93.6160     4.4280     3.8270     3.8430   413.6290   -22.7940     7.5030     3.2960     2.2550 
  231.3750    93.6360     3.9130     3.3410     3.3980   416.4170   -22.7490     6.8740     2.9000     2.2500 
  231.5000    91.4500     3.5780     3.0040     3.1470   417.0770   -22.6280     6.1770     2.5210     2.2470 
  231.6250    89.0070     3.3990     2.8240     2.9820   420.0690   -22.4400     5.3490     2.2130     2.2460 
  231.7500    83.7420     3.3330     2.7670     2.9870   414.0680   -22.3600     4.5450     1.8960     2.2480 
  231.8750    84.0890     3.4270     2.8530     3.0320   414.3340   -22.2590     3.8280     2.0060     2.2560 
  232.0000    84.3580     3.6140     3.0260     3.6770   406.7320   -22.2530     3.3870     1.9050     2.2690 
  232.1250    85.5000     3.9330     3.2930     4.6570   401.7650   -22.2590     3.3510     1.9810     2.2840 
  232.2500    86.1060     4.3530     3.6270     5.2980   398.8350   -22.3080     3.5720     2.0930     2.2950 
  232.3750    85.5200     4.8040     3.9790     5.2690   394.2950   -22.4090     3.8570     2.1230     2.3000 
  232.5000    86.9600     5.2100     4.2690     5.3270   389.5080   -22.4260     4.2050     2.5290     2.2980 
  232.6250    84.4770     5.4050     4.4050     5.4020   387.9890   -22.5020     4.6490     2.6050     2.3000 
  232.7500    84.3770     5.3920     4.3860     5.2870   385.4400   -22.6180     5.1470     2.8040     2.3010 
  232.8750    87.5860     5.2900     4.2900     5.1950   389.2810   -22.8300     5.3550     3.0020     2.2900 
  233.0000    92.3840     5.1740     4.1770     5.0440   394.3370   -23.0960     5.3540     3.2390     2.2620 
  233.1250    96.2780     5.0700     4.0750     4.8210   396.3290   -23.3720     5.3420     3.5160     2.2270 
  233.2500    97.8670     4.9480     3.9700     4.9410   405.3640   -23.7080     5.3240     3.5830     2.2020 
  233.3750    91.4110     4.8840     3.9170     5.1260   403.7700   -24.0280     5.3100     3.6060     2.2160 
  233.5000    89.7220     4.8700     3.9090     5.0010   406.2760   -24.3040     5.0790     3.5150     2.2430 
  233.6250    89.4640     4.9640     3.9880     4.9820   406.9620   -24.5840     4.8970     3.4060     2.2660 
  233.7500    88.9470     5.1610     4.1450     5.3130   405.8370   -24.8360     4.6450     3.4190     2.2690 
  233.8750    87.1390     5.4400     4.3610     5.9960   403.9470   -25.0570     4.2150     3.5850     2.2530 
  234.0000    82.6690     5.8120     4.6370     6.7220   398.4420   -25.3850     3.9280     3.6790     2.2360 
  234.1250    80.6820     6.0760     4.8530     6.8130   392.0600   -25.5830     3.8300     3.7000     2.2290 
  234.2500    79.0130     6.2010     4.9580     6.8160   388.6580   -25.8140     3.9370     3.9590     2.2290 
  234.3750    77.2750     6.1140     4.9160     6.5160   384.0420   -26.0080     3.9640     4.0880     2.2300 
  234.5000    75.3780     5.9270     4.7880     6.1280   381.6240   -26.2250     4.0560     4.0110     2.2290 
  234.6250    73.8380     5.8100     4.6850     5.9810   383.4940   -26.4750     4.2920     3.8590     2.2260 
  234.7500    74.0860     5.8630     4.7090     6.2160   381.4440   -26.5460     4.1730     3.8910     2.2300 
  234.8750    74.1850     6.0140     4.7950     6.8740   382.5820   -26.7780     4.3810     3.9890     2.2410 
  235.0000    74.1260     6.1180     4.8660     7.4780   378.1000   -26.9950     4.4810     4.0340     2.2480 
  235.1250    73.4900     6.2080     4.9650     7.1610   374.1990   -27.2330     4.6750     4.1450     2.2470 
  235.2500    75.0790     6.3650     5.1470     6.6710   371.9490   -27.4210     4.7960     4.3260     2.2430 
  235.3750    78.5270     6.6860     5.4520     7.1580   369.9310   -27.5510     4.7660     4.5040     2.2450 
  235.5000    73.9080     7.2390     5.8850     8.9640   366.8180   -27.8290     5.0500     4.5690     2.2560 
  235.6250    71.6720     7.9660     6.3990    10.1290   366.7030   -27.8540     5.1430     4.7200     2.2730 
  235.7500    69.9540     8.4290     6.7360     9.8190   360.9680   -27.9770     5.3480     4.6690     2.2760 
  235.8750    72.2980     8.2970     6.7020     8.9590   360.9380   -28.0890     5.3480     4.5630     2.2640 
