~V
VERS. 2.00: Ver 2.00
~W
STRT.M 90.0000:
STOP.M 356.0000:
STEP.M 0.1250:
NULL. -999.2500:
UWI. ∑Á÷ÿ017:
~C
DEPT.M :
GR.API :
RML.OHMM :
RI. :
RXO.OHMM :
AC.US/MT :
SP.MV :
R2M. :
R025. :
DEN.GM/CC :
~A
# ...
  263.3750    52.4700    11.6730    10.4690    20.8640   387.9590   -49.6550    10.5380    10.2210     2.1650 
  263.5000    53.2450    11.5640    10.3840    20.5260   385.1640   -49.5560    10.3980    10.3000     2.1660 
  263.6250    54.5660    11.5030    10.3320    20.2310   386.4570   -49.4420    10.2460    10.4400     2.1670 
  263.7500    55.3910    11.4860    10.3080    20.1810   391.7550   -49.3120    10.0770    10.5030     2.1690 
  263.8750    54.9440    11.4860    10.3000    20.4540   398.0450   -49.1380     9.8800    10.3910     2.1700 
  264.0000    53.7020    11.4810    10.3130    20.7470   401.5390   -48.9450     9.7240    10.3240     2.1700 
  264.1250    51.6660    11.6520    10.4790    20.4870   403.1330   -48.6500     9.7130    10.5270     2.1680 
  264.2500    52.8480    12.0110    10.7890    20.9320   397.0110   -48.5200     9.7410    10.5890     2.1720 
  264.3750    54.1190    12.4840    11.1610    22.6620   391.2630   -48.4170     9.9560    10.6130     2.1820 
  264.5000    56.1850    12.9130    11.4710    24.0310   385.5740   -48.3520    10.3270    10.7170     2.1940 
  264.6250    59.7610    13.1370    11.6190    23.2170   379.7570   -48.3340    10.7410    10.9200     2.2040 
  264.7500    61.7480    13.0790    11.5810    20.2770   382.2640   -48.2120    11.0900    11.0090     2.2120 
  264.8750    62.4440    12.8780    11.4430    19.6230   381.4670   -48.1660    11.3880    11.0500     2.2200 
  265.0000    61.9870    12.7110    11.3260    20.4670   381.6110   -48.0630    11.8060    11.2290     2.2330 
  265.1250    60.1990    12.6380    11.2550    22.1400   384.5870   -47.8920    11.8970    11.1970     2.2490 
  265.2500    57.3180    12.6460    11.2330    22.8490   388.1730   -47.7140    11.7850    11.0330     2.2610 
  265.3750    54.3870    12.6490    11.2140    21.5810   390.8760   -47.5780    11.7060    10.9150     2.2630 
  265.5000    53.6420    12.4900    11.0870    20.0180   396.7980   -47.4350    11.5640    10.7860     2.2470 
  265.6250    53.4930    12.1760    10.8460    19.8670   395.4330   -47.2830    11.3820    10.6930     2.2200 
  265.7500    57.6350    11.9380    10.6510    19.9270   399.8980   -47.1420    11.0100    10.4070     2.2000 
  265.8750    61.0630    11.8340    10.5580    20.3780   400.3080   -47.0510    10.7240    10.2210     2.1920 
  266.0000    62.0660    11.8960    10.5970    20.8970   397.2540   -46.9160    10.5050    10.2180     2.1940 
  266.1250    60.6660    12.0880    10.7460    21.2080   393.6250   -46.6920    10.2760    10.3370     2.2030 
  266.2500    57.0400    12.2740    10.9140    21.6350   386.4110   -46.5610    10.1480    10.4390     2.2180 
  266.3750    55.0530    12.4040    11.0300    22.5280   381.8540   -46.5020     9.9510    10.1290     2.2350 
  266.5000    56.2450    12.3790    11.0220    22.4080   382.6440   -46.4500    10.1100    10.2260     2.2450 
  266.6250    57.4270    12.2330    10.9000    21.5550   383.5400   -46.3470    10.3190    10.4290     2.2440 
  266.7500    57.0200    12.0290    10.7200    20.4960   385.2850   -46.2110    10.3950    10.5270     2.2350 
  266.8750    55.3610    11.8440    10.5550    19.7900   389.0390   -46.0770    10.3240    10.4940     2.2250 
  267.0000    55.0130    11.7540    10.4620    19.8230   390.7840   -45.9250    10.2980    10.5880     2.2210 
  267.1250    57.4970    11.7970    10.4730    20.8620   390.1020   -45.7150    10.2770    10.7510     2.2210 
  267.2500    62.1650    11.8540    10.5060    20.6980   385.0720   -45.4510    10.3200    10.6820     2.2170 
  267.3750    65.2050    11.8890    10.5400    19.9610   378.0250   -45.2280    10.3730    10.5990     2.2150 
  267.5000    66.0600    11.8910    10.5680    19.4520   374.1210   -45.0650    10.5440    10.5990     2.2160 
  267.6250    65.2350    11.8920    10.6080    19.6480   375.1640   -44.9610    10.8370    10.6600     2.2190 
  267.7500    62.1060    11.9890    10.7190    20.2080   373.3790   -44.9610    10.8840    10.6430     2.2220 
  267.8750    63.3480    12.2320    10.9480    20.7080   375.8070   -44.7970    11.0520    10.7570     2.2190 
  268.0000    65.3840    12.5400    11.2310    21.2000   371.1910   -44.7370    10.9020    10.9360     2.2170 
  268.1250    66.6660    12.8220    11.4910    21.5390   371.4630   -44.7010    10.7620    11.0830     2.2200 
  268.2500    65.5230    12.9840    11.6300    21.5750   372.1030   -44.6560    10.7350    11.0770     2.2270 
  268.3750    62.0660    12.9460    11.5720    21.0830   368.4880   -44.5800    10.8060    10.8630     2.2350 
  268.5000    60.0800    12.6710    11.2990    19.6940   372.2830   -44.4200    10.9360    10.5490     2.2450 
  268.6250    62.3140    12.1920    10.8790    17.3090   367.5750   -44.5170    10.8860    10.4370     2.2570 
  268.7500    65.8210    11.7530    10.5100    15.5710   363.5960   -44.4730    11.0800    10.3610     2.2730 
  268.8750    68.5730    11.4510    10.2630    14.8920   354.2390   -44.3220    11.3100    10.1130     2.2900 
  269.0000    68.7020    11.3440    10.1800    15.6060   344.6720   -44.1560    11.3120     9.8140     2.3020 
  269.1250    66.2680    11.4340    10.2640    17.2500   342.7850   -44.0330    11.0490     9.7470     2.3050 
  269.2500    65.0270    11.6520    10.4680    17.8400   350.6860   -43.8900    10.9830    10.1860     2.2970 
  269.3750    61.7490    11.8720    10.7010    18.2180   358.3560   -43.6590    11.1020    10.2300     2.2790 
  269.5000    62.5630    11.8840    10.7800    18.6580   365.6000   -43.5420    10.8330    10.3050     2.2640 
  269.6250    64.4900    12.0070    10.9430    18.0110   361.8500   -43.5550    10.7130    10.6130     2.2530 
  269.7500    66.6750    12.3530    11.2780    16.8030   355.1800   -43.6400    10.8590    11.1980     2.2470 
  269.8750    68.2450    12.9570    11.8050    17.3070   353.6480   -43.7400    11.1770    11.8460     2.2500 
  270.0000    66.1590    13.8930    12.5770    23.6190   346.5850   -43.8700    11.5690    11.9940     2.2640 
  270.1250    62.9310    14.6470    13.2340    25.6710   353.1170   -43.9500    11.9700    12.2550     2.2770 
  270.2500    62.1260    14.9920    13.6060    21.5140   352.5390   -44.0430    12.5080    12.4420     2.2760 
  270.3750    61.4500    14.8490    13.5800    19.0680   355.5610   -44.1630    12.8590    12.4690     2.2630 
  270.5000    59.5630    14.3670    13.2250    19.2380   360.3150   -44.2980    13.0450    12.3480     2.2450 
  270.6250    56.2250    13.7980    12.7180    19.6240   362.6080   -44.4630    13.0880    12.1330     2.2320 
  270.7500    52.4510    13.3710    12.2800    18.2430   366.1780   -44.7540    12.6580    11.8670     2.2310 
  270.8750    54.7350    13.1830    12.0230    19.1930   369.9740   -45.0730    12.2980    11.9080     2.2330 
  271.0000    57.1790    12.8870    11.7010    20.3470   367.4540   -45.4070    12.1240    11.8790     2.2390 
  271.1250    60.8540    12.5640    11.3770    20.5960   366.5880   -45.7310    11.9800    11.9550     2.2530 
  271.2500    63.2980    12.3310    11.1630    19.5250   363.7800   -46.0030    11.8950    11.9500     2.2710 
  271.3750    62.2250    12.3110    11.1680    18.2150   356.8670   -46.2020    11.9380    11.8090     2.2880 
  271.5000    59.2450    12.6120    11.4570    20.0370   358.1590   -46.3750    12.0610    12.0990     2.2930 
  271.6250    55.0230    13.2620    12.0590    23.9450   355.7680   -46.5850    12.0040    12.1230     2.2840 
  271.7500    52.2320    14.0640    12.7770    25.8260   355.7740   -46.7040    11.8960    12.3500     2.2720 
  271.8750    51.7350    14.6980    13.3840    25.9860   356.0630   -46.7610    11.7170    12.4540     2.2620 
  272.0000    50.7220    14.9120    13.6590    25.2270   356.5190   -46.7720    11.5620    12.5710     2.2550 
  272.1250    47.7910    14.6350    13.5060    24.5200   358.1140   -46.7480    11.5300    12.7880     2.2500 
  272.2500    48.0400    14.0790    13.0710    24.6780   361.9850   -46.6980    11.6180    12.6420     2.2460 
  272.3750    49.8280    13.7000    12.7250    23.5580   359.1010   -46.5800    11.9960    12.7240     2.2380 
