~V
VERS. 2.00: Ver 2.00
~W
STRT.M 90.0000:
STOP.M 356.0000:
STEP.M 0.1250:
NULL. -999.2500:
UWI. ∑Á÷ÿ017:
~C
DEPT.M :
GR.API :
RML.OHMM :
RI. :
RXO.OHMM :
AC.US/MT :
SP.MV :
R2M. :
R025. :
DEN.GM/CC :
~A
   90.0000  -999.2500  -999.2500  -999.2500  -999.2500   229.9050    46.5620     0.4230     0.0000     2.3960 
   90.1250  -999.2500  -999.2500  -999.2500  -999.2500   238.1630    46.3690     0.3420     0.0000     2.3960 
   90.2500  -999.2500  -999.2500  -999.2500  -999.2500   243.6880    46.1690     0.1710     0.0000     2.3950 
   90.3750  -999.2500  -999.2500  -999.2500  -999.2500   243.8480    45.8580     0.0790     0.0000     2.3970 
   90.5000  -999.2500  -999.2500  -999.2500  -999.2500   241.7060    46.1360     0.0710     0.0000     2.4010 
   90.6250  -999.2500  -999.2500  -999.2500  -999.2500   240.9450    47.1200     0.0700     0.0000     2.4060 
   90.7500  -999.2500  -999.2500  -999.2500  -999.2500   240.7710    46.9420     0.0000     0.0000     2.4130 
   90.8750    51.5560     0.2000     0.2000     0.2000   232.2870    46.8220     0.0000     0.0000     2.4200 
   91.0000    51.5560     0.2000     0.2000     0.2000   221.1090    46.7130     0.0000     0.0000     2.4260 
   91.1250    51.5560     0.2000     0.2000     0.2000   210.3580    46.6160     0.0000     0.0000     2.4320 
   91.2500    51.5560     0.2000     0.2000     0.2000   204.5240    46.4850     0.0000     0.0000     2.4380 
   91.3750    51.5560     0.2000     0.2000     0.2000   205.2660    46.2910     0.0080     0.0000     2.4400 
   91.5000    51.5560     0.2000     0.2000     0.2000   207.1420    46.0890     0.0490     0.0000     2.4370 
   91.6250    48.9240     0.2000     0.2000     0.2000   206.6900    45.7040     0.0530     0.0000     2.4370 
   91.7500    49.7880     0.2000     0.2000     0.2000   205.9580    45.2710     0.1490     0.0000     2.4350 
   91.8750    49.7380     0.2000     0.2000     0.2000   205.3670    44.7830     0.1940     0.0000     2.4340 
   92.0000    49.1520     0.2000     0.2000     0.2000   206.8700    44.2850     0.2320     0.0000     2.4320 
   92.1250    48.6850     0.2000     0.2000     0.2000   211.9060    43.8360     0.3170     0.0000     2.4290 
   92.2500    44.7620     0.2000     0.2000     0.2000   219.3110    43.4720     0.3280     0.0000     2.4260 
   92.3750    45.0100     0.2000     0.2000     0.2000   228.3100    43.1210     0.3820     0.0000     2.4210 
   92.5000    43.6690     0.2000     0.2000     0.2000   225.5090    42.7810     0.2920     0.0000     2.4180 
   92.6250    43.3910     0.2000     0.2000     0.2000   217.4640    42.4600     0.2020     0.0000     2.4220 
   92.7500    43.4110     0.2000     0.2000     0.2000   207.5330    42.1780     0.1100     0.0000     2.4330 
   92.8750    42.6660     0.2000     0.2000     0.2000   199.1010    41.9290     0.0100     0.0000     2.4430 
   93.0000    42.9140     0.2000     0.2000     0.2000   198.8750    41.6340     0.0320     0.0000     2.4450 
   93.1250    42.1690     0.2000     0.2000     0.2000   203.8850    41.4720     0.0050     0.0000     2.4320 
   93.2500    42.2190     0.2000     0.2000     0.2000   206.3910    41.2310     0.0350     0.0000     2.4200 
   93.3750    43.0930     0.2000     0.2000     0.2000   209.8430    40.9110     0.0460     0.0000     2.4180 
   93.5000    44.0660     0.2000     0.2000     0.2000   212.7720    40.4550     0.0260     0.0000     2.4280 
   93.6250    44.6130     0.2000     0.2000     0.2000   212.9200    39.8200     0.0000     0.0000     2.4420 
   93.7500    45.3580     0.2000     0.2000     0.2000   211.3810    39.0440     0.0000     0.0000     2.4540 
   93.8750    44.8110     0.2000     0.2000     0.2000   212.3490    38.1830     0.0000     0.0040     2.4500 
   94.0000    42.9140     0.2000     0.2000     0.2000   212.7260    37.4170     0.0000     0.0160     2.4480 
   94.1250    41.3050     0.2210     0.2000     0.2190   218.7300    36.8030     0.0000     0.0140     2.4630 
   94.2500    39.5960     0.2510     0.2000     0.2520   225.5970    36.4010     0.0510     0.0180     2.5020 
   94.3750    36.8640     0.3360     0.2000     0.2990   227.0240    36.2160     0.1290     0.0630     2.5620 
   94.5000    33.1390     0.6800     0.2000     0.3980   224.5730    36.1400     0.0010     0.1790     2.6360 
   94.6250    33.3380     0.2800     0.2000     0.4760   213.9210    36.2830     0.0120     0.0300     2.6830 
   94.7500    35.3250     0.2000     0.2000     0.3870   200.8560    36.4360     0.0660     0.0000     2.6820 
   94.8750    37.9370     0.2000     0.2000     0.2720   190.6360    36.5610     0.1470     0.0000     2.6420 
   95.0000    39.0790     0.2000     0.2000     0.2100   184.7700    36.6460     0.2160     0.0000     2.5810 
   95.1250    38.0960     0.2000     0.2000     0.2100   183.3370    36.7200     0.2370     0.0000     2.5250 
   95.2500    38.1460     0.2000     0.2000     0.2080   187.3230    36.8550     0.2150     0.0000     2.5010 
   95.3750    42.1190     0.2000     0.2000     0.2010   190.7380    36.7880     0.2100     0.0000     2.5060 
   95.5000    44.3050     0.2000     0.2000     0.2000   191.3320    36.7040     0.0700     0.0000     2.5260 
   95.6250    44.2550     0.2000     0.2000     0.2000   194.2950    36.5000     0.0000     0.0300     2.5660 
   95.7500    43.5100     0.2820     0.2000     0.2000   198.7830    36.2190     0.0000     0.0540     2.6230 
   95.8750    43.6590     0.4970     0.2000     0.2000   201.7550    35.9390     0.0000     0.0370     2.6790 
   96.0000    44.4040     0.7610     0.2000     0.2000   201.8140    35.6760     0.0000     0.0000     2.6940 
   96.1250    43.6590     0.7050     0.2000     0.2000   195.5480    35.5160     0.0000     0.0000     2.6650 
   96.2500    40.6490     0.6250     0.2000     0.2000   189.9210    35.3610     0.1330     0.0000     2.6340 
   96.3750    37.7280     0.5200     0.2000     0.2000   187.4610    35.2990     0.1850     0.0000     2.6380 
   96.5000    36.7350     0.4510     0.2000     0.2000   186.6830    35.2410     0.1930     0.0000     2.6700 
   96.6250    38.2450     0.5110     0.2000     0.2000   185.6230    35.0480     0.2460     0.0000     2.6900 
   96.7500    40.8280     0.8000     0.2000     0.2000   185.3410    34.6550     0.2830     0.0000     2.6410 
   96.8750    42.8150     0.3570     0.2000     0.2000   185.2820    34.1600     0.1900     0.0000     2.5390 
   97.0000    45.8340     0.2230     0.2000     0.2000   187.0470    33.6220     0.0570     0.0000     2.4570 
   97.1250    48.9340     0.2000     0.2000     0.2000   189.5080    33.0410     0.0000     0.0000     2.4130 
   97.2500    50.6230     0.2000     0.2000     0.2000   192.0370    32.4720     0.0000     0.0000     2.3970 
   97.3750    50.7620     0.2040     0.2000     0.2000   194.0420    32.0000     0.0000     0.0120     2.3920 
   97.5000    52.4500     0.2260     0.2000     0.2000   194.4980    31.7180     0.0000     0.0720     2.3910 
   97.6250    50.9600     0.2040     0.2000     0.2000   194.4420    31.3170     0.0000     0.2370     2.4000 
   97.7500    51.4570     0.2000     0.2000     0.2000   194.6130    30.8190     0.0000     0.2520     2.4110 
   97.8750    51.2580     0.2000     0.2000     0.2000   195.4560    30.2550     0.0000     0.1890     2.4250 
   98.0000    52.4500     0.2000     0.2000     0.2000   196.9820    29.5970     0.0000     0.0890     2.4440 
   98.1250    56.8710     0.2000     0.2000     0.2000   199.3730    28.8020     0.0320     0.0000     2.4680 
   98.2500    61.0930     0.2000     0.2000     0.2000   203.5890    27.8510     0.1900     0.0000     2.4990 
   98.3750    65.8110     0.2000     0.2000     0.2000   208.3730    26.8810     0.2610     0.0000     2.5260 
   98.5000    67.1520     0.2000     0.2000     0.2000   213.0220    25.8910     0.3760     0.0000     2.5380 
   98.6250    66.4570     0.2000     0.2000     0.2000   216.3390    24.8260     0.3160     0.0000     2.5480 
   98.7500    63.5560     0.2000     0.2000     0.2000   217.6940    23.6840     0.1500     0.0000     2.5650 
   98.8750    58.3510     0.2000     0.2000     0.2000   216.4070    22.4740     0.0370     0.0000     2.5930 
   99.0000    52.3910     0.2000     0.2000     0.2020   211.1220    21.1690     0.0210     0.0000     2.6220 
