~V
VERS. 2.00: Ver 2.00
~W
STRT.M 90.0000:
STOP.M 356.0000:
STEP.M 0.1250:
NULL. -999.2500:
UWI. ∑Á÷ÿ017:
~C
DEPT.M :
GR.API :
RML.OHMM :
RI. :
RXO.OHMM :
AC.US/MT :
SP.MV :
R2M. :
R025. :
DEN.GM/CC :
~A
# ...
  208.6250    89.1060     5.8450     4.3600     5.2100   419.8790   -22.2050     5.5030     3.2430     2.2100 
  208.7500    86.1260     6.3060     4.6770     5.8610   421.6340   -22.3450     5.4790     3.3720     2.2120 
  208.8750    83.2950     6.6720     4.9420     6.3030   420.7680   -22.4230     5.4560     3.3500     2.2130 
  209.0000    82.6490     6.8990     5.1230     6.4510   420.3410   -22.4430     5.4810     3.3360     2.2150 
  209.1250    85.0930     6.9680     5.1950     6.3870   422.7660   -22.4420     5.6150     3.4180     2.2220 
  209.2500    87.3770     6.8490     5.1250     6.2990   422.2700   -22.4210     6.0180     3.1660     2.2370 
  209.3750    84.1490     6.5290     4.9150     6.1660   428.1960   -22.2820     6.0350     3.0900     2.2600 
  209.5000    83.5030     6.1290     4.6370     5.5790   428.7730   -22.1430     5.9520     3.0550     2.2720 
  209.6250    85.2610     5.7330     4.3520     4.7920   435.3710   -22.0550     5.8220     3.1840     2.2720 
  209.7500    87.9140     5.3860     4.0930     4.2400   443.8550   -21.9730     5.6060     3.2920     2.2620 
  209.8750    89.1560     5.1050     3.8730     4.1550   446.8180   -21.8860     5.2620     3.2380     2.2460 
  210.0000    86.4240     4.9070     3.7080     4.1850   445.8300   -21.9360     4.8280     3.2820     2.2300 
  210.1250    83.9400     4.7570     3.5900     3.9400   431.4760   -21.8810     4.7210     3.3480     2.2200 
  210.2500    83.2450     4.6330     3.4940     3.9000   418.5790   -21.8970     4.6300     3.1080     2.2160 
  210.3750    83.7710     4.5230     3.4070     3.8420   414.2980   -21.8280     4.4970     2.8740     2.2160 
  210.5000    84.8940     4.4520     3.3460     3.7190   414.9050   -21.7210     4.4150     2.6230     2.2170 
  210.6250    85.4900     4.4540     3.3410     3.6350   415.6040   -21.6310     4.4840     2.3300     2.2150 
  210.7500    83.5030     4.5420     3.4050     3.8280   420.3120   -21.4160     4.6580     2.3080     2.2180 
  210.8750    82.2120     4.7500     3.5640     4.3640   412.9070   -21.5170     4.2850     2.3420     2.2240 
  211.0000    79.7680     5.0830     3.8080     4.7300   410.9420   -21.5510     4.3840     2.5930     2.2250 
  211.1250    80.3740     5.4730     4.0770     5.2200   403.2710   -21.6150     4.4850     2.6770     2.2220 
  211.2500    81.7750     5.7960     4.2930     5.8020   393.9140   -21.7110     4.5760     2.7880     2.2190 
  211.3750    80.6820     5.9540     4.4010     6.1230   388.6880   -21.8230     4.7180     3.1000     2.2230 
  211.5000    78.1990     5.9530     4.4180     5.5230   381.8540   -22.0170     4.6700     3.1750     2.2310 
  211.6250    78.0990     5.8080     4.3400     4.9180   377.5230   -22.0760     5.0560     3.4800     2.2400 
  211.7500    79.8670     5.6960     4.2690     5.3180   372.5260   -22.2220     5.0290     3.5150     2.2440 
  211.8750    81.2090     5.6360     4.2160     5.6490   368.7760   -22.4010     5.0020     3.6190     2.2400 
  212.0000    80.0660     5.6230     4.1910     5.5940   371.7060   -22.5820     5.0210     3.7760     2.2300 
  212.1250    76.7880     5.6450     4.1940     5.3810   380.8500   -22.7350     4.9810     3.8740     2.2150 
  212.2500    76.2910     5.6840     4.2150     5.5610   380.3940   -22.7890     4.8430     3.9710     2.1990 
  212.3750    74.3050     5.6890     4.2260     5.6020   384.6490   -22.8270     4.5980     3.8050     2.1940 
  212.5000    74.3050     5.7500     4.2770     5.7140   378.3010   -22.7710     4.4190     3.5890     2.1980 
  212.6250    74.3540     5.8810     4.3780     5.9190   372.7850   -22.6860     4.2980     3.5120     2.2060 
  212.7500    75.0000     6.0460     4.5000     6.1440   368.0770   -22.6060     4.1410     3.5360     2.2130 
  212.8750    76.3910     6.1900     4.6030     6.2800   362.0700   -22.5600     3.9150     3.5660     2.2160 
  213.0000    75.3970     6.2750     4.6640     6.2290   359.9800   -22.5980     3.7900     3.6240     2.2130 
  213.1250    72.6660     6.2050     4.6250     6.1460   363.7800   -22.7110     3.6150     3.6040     2.2070 
  213.2500    72.1190     6.0180     4.5210     6.0230   363.5040   -22.7880     3.6140     3.8630     2.2020 
  213.3750    72.5660     5.8330     4.4130     5.7280   364.7210   -22.8800     3.5910     4.0010     2.2000 
  213.5000    73.9270     5.7180     4.3470     5.5100   366.3290   -22.9710     3.5640     4.0200     2.2000 
  213.6250    75.2090     5.7160     4.3570     5.6760   367.4310   -23.0270     3.6470     4.0560     2.2010 
  213.7500    72.4770     5.8520     4.4660     6.2630   374.1540   -23.0520     3.9320     4.1110     2.1980 
  213.8750    71.7320     6.0960     4.6580     6.4080   366.7850   -22.9470     4.3990     4.1460     2.1920 
  214.0000    69.9540     6.4070     4.8880     6.5340   364.7050   -22.9490     4.5680     4.0760     2.1880 
  214.1250    70.4200     6.6910     5.0870     6.6560   359.8230   -22.9610     4.7280     4.0240     2.1940 
  214.2500    73.0930     6.8890     5.2120     6.7310   356.2300   -22.9900     4.9560     4.0330     2.2070 
  214.3750    76.4700     6.9380     5.2250     6.6420   358.1270   -23.0620     5.1560     4.0230     2.2210 
  214.5000    79.4500     6.7390     5.0820     6.1830   357.7490   -23.1380     5.1140     3.7490     2.2370 
  214.6250    83.0260     6.2720     4.7820     5.8690   362.4570   -23.2850     5.1710     3.6050     2.2530 
  214.7500    86.8410     5.7620     4.4270     5.4510   370.7810   -23.3250     5.4670     3.4080     2.2770 
  214.8750    92.2650     5.3500     4.1220     5.1270   380.8500   -23.3450     5.6720     3.2700     2.3050 
  215.0000    99.2180     5.1020     3.9200     5.1210   391.6630   -23.3200     5.7050     3.0840     2.3310 
  215.1250   106.0430     5.0370     3.8420     5.4090   400.9780   -23.1970     5.6700     2.8500     2.3490 
  215.2500   109.3710     5.1510     3.8920     5.4510   403.1790   -22.9860     5.8050     2.9910     2.3550 
  215.3750   106.7390     5.3380     3.9970     5.3110   407.0140   -22.7300     5.5810     3.0890     2.3450 
  215.5000   102.8350     5.4910     4.0940     5.3210   404.7440   -22.4660     5.4110     3.1170     2.3380 
  215.6250    98.0170     5.5200     4.1310     5.3110   407.5980   -22.1860     5.3160     3.1220     2.3360 
  215.7500    93.6160     5.4440     4.1110     5.2230   412.6870   -21.9140     5.2810     3.1060     2.3390 
  215.8750    90.1290     5.3330     4.0660     5.1170   416.0890   -21.6850     5.2560     3.0360     2.3390 
  216.0000    85.4110     5.2400     4.0270     5.1700   425.9610   -21.5170     5.1680     2.8620     2.3320 
  216.1250    82.6790     5.2380     4.0340     5.2120   419.6590   -21.4160     5.2070     3.0350     2.3120 
  216.2500    82.4500     5.2780     4.0690     5.0840   408.1300   -21.3050     5.1820     3.1230     2.2960 
  216.3750    85.5890     5.3490     4.1270     4.9860   393.7930   -21.2040     5.0680     3.0870     2.2820 
  216.5000    89.1660     5.4370     4.1970     5.0430   382.0370   -21.1160     4.9150     3.1260     2.2660 
  216.6250    90.0990     5.5290     4.2680     5.2140   377.1000   -21.0310     4.7690     3.3370     2.2510 
  216.7500    88.8080     5.6300     4.3340     5.2020   377.9330   -20.9260     4.5940     3.3900     2.2340 
  216.8750    84.2880     5.6060     4.3150     4.9660   377.8580   -20.7410     4.5420     3.0300     2.2230 
  217.0000    86.3640     5.4680     4.2200     4.8150   380.9420   -20.6130     4.3640     2.8880     2.2130 
  217.1250    91.2810     5.2730     4.0780     4.4380   385.4530   -20.5780     4.2670     2.8340     2.2100 
  217.2500    95.5830     5.0810     3.9290     4.1570   390.3900   -20.5710     4.2700     2.7460     2.2150 
  217.3750    96.2880     4.9450     3.8110     4.3030   393.7930   -20.5420     4.3040     2.6110     2.2270 
  217.5000    91.0730     4.8940     3.7470     4.5980   391.0560   -20.5630     4.3110     2.6240     2.2430 
  217.6250    86.3540     4.8910     3.7290     4.5710   385.4000   -20.7390     4.3560     2.9090     2.2450 
