~V
VERS. 2.00: Ver 2.00
~W
STRT.M 90.0000:
STOP.M 356.0000:
STEP.M 0.1250:
NULL. -999.2500:
UWI. ∑Á÷ÿ017:
~C
DEPT.M :
GR.API :
RML.OHMM :
RI. :
RXO.OHMM :
AC.US/MT :
SP.MV :
R2M. :
R025. :
DEN.GM/CC :
~A
# ...
  290.7500    63.4180    11.9590    10.3000    19.4270   368.0020   -37.8090    12.3580     9.7310     2.2360 
  290.8750    59.4540    11.9600    10.2630    17.6760   367.1950   -37.8460    12.1020     9.6800     2.2180 
  291.0000    57.5170    11.9530    10.2150    15.3620   364.9930   -37.8460    11.7280     9.7770     2.2020 
  291.1250    57.0200    12.0010    10.1970    16.3800   371.2960   -37.8080    11.4500     9.6960     2.1890 
  291.2500    57.3180    12.0450    10.1490    17.0070   369.0030   -37.6600    11.2710     9.5850     2.1810 
  291.3750    56.1760    12.1160    10.1140    17.3010   369.0490   -37.4650    11.2050     9.5570     2.1800 
  291.5000    53.8010    12.1980    10.0990    17.6760   369.4460   -37.2590    11.2040     9.5580     2.1840 
  291.6250    51.6850    12.2420    10.0860    18.4060   366.1090   -37.0480    11.2140     9.5090     2.1890 
  291.7500    51.4370    12.1820    10.0270    19.1270   363.7170   -36.8160    11.2280     9.4360     2.1900 
  291.8750    50.1950    12.0550     9.9360    20.1040   363.0710   -36.6190    11.4280     9.3810     2.1900 
  292.0000    50.2250    11.9270     9.8530    20.5270   361.2430   -36.3970    11.6170     9.3480     2.1890 
  292.1250    49.0830    11.7810     9.7690    20.7250   367.0440   -36.0360    11.6970     9.3070     2.1880 
  292.2500    48.3970    11.6330     9.6990    20.7940   373.1330   -35.5620    11.6890     9.3090     2.1890 
  292.3750    49.8380    11.5180     9.6600    20.6270   371.6600   -35.0450    11.6710     9.3660     2.1900 
  292.5000    51.0790    11.4670     9.6550    19.9490   369.9150   -34.4940    11.7210     9.3240     2.1900 
  292.6250    51.6750    11.5770     9.7280    20.1450   365.1310   -33.9340    11.6010     9.1760     2.1890 
  292.7500    51.0000    11.7750     9.8000    20.8970   365.5090   -33.3710    11.4110     9.0570     2.1840 
  292.8750    50.9010    11.6720     9.5980    20.8580   371.2370   -32.8680    11.3390     8.6440     2.1830 
  293.0000    51.6750    10.9500     8.9120    19.3970   376.3550   -32.3980    11.3860     7.9340     2.1950 
  293.1250    54.0690     9.5240     7.7320    16.0130   377.8740   -31.8790    11.4810     7.0320     2.2280 
  293.2500    61.2710     7.7120     6.3650     9.7450   384.8590   -31.2020    11.5910     5.9340     2.2840 
  293.3750    66.2380     6.1270     5.1730     6.0700   380.3050   -30.4230    11.2640     4.8970     2.3440 
  293.5000    70.7280     5.0310     4.2250     4.8090   384.9800   -29.6480    10.9790     3.9270     2.3820 
  293.6250    70.2420     4.3920     3.6050     4.3380   384.6780   -28.7880    10.5280     3.2840     2.3840 
  293.7500    66.1200     4.1210     3.3090     4.0330   384.4950   -27.8640     9.8490     2.8960     2.3560 
  293.8750    61.6390     4.0950     3.2600     3.8340   390.4430   -26.9330     8.9400     2.5900     2.3150 
  294.0000    58.1130     4.1740     3.3200     3.8060   391.0140   -26.0160     7.7770     2.3180     2.2760 
  294.1250    59.1560     4.1160     3.3110     3.6220   400.0490   -25.1370     6.8970     2.2060     2.2680 
  294.2500    62.1450     3.9890     3.2640     3.4450   402.8280   -24.2770     6.0840     2.2630     2.2780 
  294.3750    66.6650     3.9040     3.2470     3.4920   401.1520   -23.5320     5.4070     2.3630     2.2920 
  294.5000    71.6620     3.9070     3.2930     3.8590   395.9480   -22.9240     4.9370     2.3220     2.3010 
  294.6250    76.4600     4.0420     3.4430     4.5520   386.9260   -22.4750     4.7070     2.2300     2.2960 
  294.7500    81.7740     4.3940     3.7830     5.5200   372.1950   -22.2640     4.6680     2.7750     2.2770 
  294.8750    81.7750     5.0800     4.4190     6.1520   364.7510   -22.1760     4.6980     3.3320     2.2610 
  295.0000    81.7750     6.0640     5.1940     8.0050   352.9950   -22.2290     4.8930     3.7900     2.2550 
  295.1250    79.7780     7.2320     6.0620     9.7210   348.3170   -22.3680     5.0420     4.2320     2.2580 
  295.2500    76.3910     8.3290     6.8720    10.6150   345.0070   -22.5820     5.1910     4.8380     2.2710 
  295.3750    72.5570     9.1220     7.4690    10.7950   336.0890   -22.8500     5.4300     5.5680     2.2910 
  295.5000    67.2920     9.5800     7.7830    11.2640   329.1770   -23.0770     5.6760     5.8430     2.3200 
  295.6250    62.8210     9.5700     7.7530    11.3880   321.1290   -23.4390     6.0850     6.4570     2.3440 
  295.7500    61.9270     9.5020     7.6990    11.0710   318.4840   -23.8750     6.2830     6.8570     2.3530 
  295.8750    63.2980     9.5710     7.7490    11.1070   321.2930   -24.3620     6.4720     7.1840     2.3490 
  296.0000    65.8010     9.8720     7.9620    11.6410   324.1670   -24.8560     6.6310     7.5610     2.3420 
  296.1250    67.9170    10.4000     8.3290    12.4510   323.3890   -25.3220     6.6840     8.0340     2.3400 
  296.2500    67.1720    11.0520     8.7640    13.2320   324.0750   -25.7680     6.6800     8.5020     2.3530 
  296.3750    65.6820    11.6310     9.1540    13.8080   324.9080   -26.1890     6.6260     8.5310     2.3650 
  296.5000    65.1060    11.9140     9.3630    12.8830   326.9590   -26.4320     6.6760     8.6400     2.3660 
  296.6250    65.6520    11.8900     9.3690    12.1010   328.9500   -26.6670     6.7290     8.7040     2.3540 
  296.7500    66.0400    11.7160     9.2550    12.2850   331.4700   -26.8890     6.7440     8.6410     2.3370 
  296.8750    64.8980    11.5480     9.1170    13.1110   334.8720   -27.0560     6.7360     8.4670     2.3260 
  297.0000    62.1660    11.3750     8.9810    12.8010   337.1520   -27.2330     6.7810     8.3330     2.3230 
  297.1250    64.9470    11.0650     8.7420    13.0920   340.0360   -27.3880     6.7650     8.2690     2.3260 
  297.2500    65.5030    10.5730     8.3900    12.7170   341.0700   -27.5240     6.6160     8.1120     2.3170 
  297.3750    65.6520    10.1150     8.0430    11.4730   341.9820   -27.6060     6.5560     7.9650     2.3030 
  297.5000    64.3310     9.8110     7.7970    10.5420   344.3040   -27.6590     6.6100     7.7690     2.2930 
  297.6250    61.3010     9.7290     7.7230    11.0290   346.3250   -27.7240     6.6750     7.5530     2.2960 
  297.7500    60.8540     9.9310     7.8670    12.5110   340.0230   -27.8340     6.5920     7.6870     2.3080 
  297.8750    62.3440    10.5550     8.3360    12.5350   340.9350   -27.7960     6.7110     7.7490     2.3250 
  298.0000    61.8480    11.2300     8.8270    12.2060   333.0970   -27.8450     7.0690     7.8100     2.3460 
  298.1250    61.1230    11.6770     9.1630    12.7550   329.6330   -27.8790     7.5250     7.8510     2.3700 
  298.2500    60.2980    11.6050     9.1440    12.9160   329.2390   -27.8930     8.1290     7.9070     2.3920 
  298.3750    59.1260    10.9120     8.7050    11.6370   328.5470   -27.8920     8.8730     7.9140     2.4030 
  298.5000    58.2320     9.9040     8.0750    10.7970   334.5080   -27.8030     9.4320     7.5610     2.3910 
  298.6250    59.4730     9.2350     7.5830    10.8280   340.2030   -27.7570     9.7280     7.1950     2.3580 
  298.7500    60.7150     8.8750     7.2730    10.7880   343.3500   -27.7110     9.7750     7.0230     2.3370 
  298.8750    61.8970     8.9130     7.2430    10.8840   344.0550   -27.7200     9.6960     6.8260     2.3340 
  299.0000    63.2580     9.2320     7.4160    11.0210   342.2700   -27.7850     9.5010     6.6380     2.3420 
  299.1250    64.6090     9.6040     7.6310    10.9960   339.9310   -27.8970     9.2650     6.5590     2.3500 
  299.2500    64.6090     9.7740     7.7320    10.6820   343.1200   -28.0860     9.2990     6.5510     2.3460 
  299.3750    62.3740     9.6110     7.6250    10.0200   347.0700   -28.3180     9.2360     6.4630     2.3260 
  299.5000    61.5700     9.1540     7.3400     9.7600   352.1130   -28.5220     9.2980     6.2680     2.2990 
  299.6250    62.7910     8.6420     7.0060     9.6400   357.0180   -28.7450     9.1850     6.2180     2.2750 
  299.7500    65.4830     8.2330     6.7240     9.4250   361.6500   -28.9650     8.8850     6.3140     2.2590 
