~V
VERS. 2.00: Ver 2.00
~W
STRT.M 90.0000:
STOP.M 356.0000:
STEP.M 0.1250:
NULL. -999.2500:
UWI. ∑Á÷ÿ017:
~C
DEPT.M :
GR.API :
RML.OHMM :
RI. :
RXO.OHMM :
AC.US/MT :
SP.MV :
R2M. :
R025. :
DEN.GM/CC :
~A
# ...
  245.1250    69.7650    12.6500    11.2190    18.3250   393.5790   -41.3990     9.6430     9.7050     2.2470 
  245.2500    67.5300    12.7550    11.3870    19.0260   392.7430   -41.9460     9.4120    10.1410     2.2470 
  245.3750    66.1390    12.6750    11.3550    19.1720   387.3520   -42.5060     9.2640    10.4420     2.2430 
  245.5000    66.5360    12.6340    11.3130    19.1580   387.8220   -43.0960     9.4610    10.5060     2.2360 
  245.6250    69.2580    12.5900    11.2390    19.2900   387.4800   -43.7260     9.6300    10.5400     2.2280 
  245.7500    72.1390    12.5050    11.1200    19.4640   387.3060   -44.4070     9.7650    10.5930     2.2220 
  245.8750    72.8640    12.3650    10.9600    19.3620   389.1440   -45.0870     9.9670    10.5820     2.2200 
  246.0000    71.5230    12.1990    10.7950    18.6380   388.9170   -45.5920    10.1680    10.3320     2.2240 
  246.1250    72.0200    12.0650    10.6500    17.9670   391.3840   -45.9450    10.2990    10.1540     2.2350 
  246.2500    71.5230    11.9380    10.5330    17.7220   397.5300   -46.2720    10.3350    10.0500     2.2440 
  246.3750    71.8210    11.8890    10.4900    17.5450   399.2590   -46.4960    10.4710     9.9390     2.2470 
  246.5000    72.4970    11.9230    10.5300    17.4690   398.6810   -46.6390    10.6210     9.8660     2.2420 
  246.6250    73.0530    12.0190    10.6360    17.7070   397.3230   -46.7710    10.6960     9.8560     2.2330 
  246.7500    75.0400    12.1570    10.7800    18.4480   385.3640   -46.9600    10.8710     9.7640     2.2260 
  246.8750    78.5160    12.1960    10.8530    18.9170   381.1840   -47.0950    10.9050     9.8220     2.2280 
  247.0000    77.8610    12.1360    10.8490    18.8590   377.1920   -47.1590    10.8040     9.7040     2.2300 
  247.1250    75.6950    12.0300    10.8000    18.4470   377.9560   -47.2350    10.6730     9.7010     2.2280 
  247.2500    72.9140    11.9330    10.7420    18.0700   382.7030   -47.2930    10.5930     9.6700     2.2240 
  247.3750    70.2320    11.8830    10.6960    18.1640   387.2440   -47.2930    10.6140     9.5140     2.2220 
  247.5000    69.7350    11.8680    10.6570    19.0470   385.9550   -47.2930    10.7490     9.6810     2.2220 
  247.6250    69.9340    11.8910    10.6440    19.4490   384.4360   -47.3060    10.8940     9.6610     2.2210 
  247.7500    67.1920    11.8780    10.6270    18.8110   376.0200   -47.4370    11.1100     9.9360     2.2200 
  247.8750    64.6090    11.8590    10.6170    18.5510   373.6980   -47.6070    11.3720    10.0100     2.2210 
  248.0000    62.2450    11.8600    10.6180    19.0060   375.8230   -47.7460    11.5160    10.0660     2.2220 
  248.1250    60.4470    11.9020    10.6360    19.7820   378.6550   -47.8270    11.4700    10.2840     2.2210 
  248.2500    63.1790    11.9940    10.6880    20.1050   388.8710   -47.8940    11.4820    10.1700     2.2140 
  248.3750    63.1790    12.0790    10.7500    19.9130   394.6420   -48.0630    11.4640     9.9800     2.2020 
  248.5000    64.3710    12.0740    10.7660    19.7530   397.2540   -48.2510    11.3130     9.5650     2.1940 
  248.6250    63.1790    12.0060    10.7220    19.7280   398.2580   -48.4220    11.2680     9.3290     2.1930 
  248.7500    60.8940    11.9050    10.6330    19.8080   396.3120   -48.6450    11.3550     9.2200     2.1940 
  248.8750    59.2350    11.8000    10.5240    19.9140   392.9330   -48.9740    11.4630     9.0720     2.1920 
  249.0000    55.9070    11.7080    10.4260    19.9990   398.2120   -49.3230    11.4220     8.9650     2.1810 
  249.1250    55.4110    11.5930    10.3360    19.8830   396.1610   -49.5670    11.4550     9.2780     2.1570 
  249.2500    56.3050    11.5240    10.2880    19.7240   402.3720   -49.7470    11.3800     9.4910     2.1400 
  249.3750    59.0660    11.5170    10.2820    19.4170   402.5430   -49.9440    11.1650     9.4540     2.1370 
  249.5000    62.9200    11.5580    10.3050    19.0130   400.2790   -50.1670    10.9870     9.3450     2.1490 
  249.6250    65.4540    11.6150    10.3350    18.6920   401.3420   -50.3910    11.0070     9.4140     2.1720 
  249.7500    62.2250    11.6440    10.3450    18.7400   397.8480   -50.6060    11.1470     9.7240     2.1920 
  249.8750    60.2880    11.6130    10.3090    18.6750   401.3780   -50.7030    10.8890     9.4570     2.1960 
  250.0000    58.9070    11.5660    10.2600    17.6940   402.2670   -50.7590    11.0040     9.4390     2.1920 
  250.1250    59.0070    11.5290    10.2270    16.9920   401.8570   -50.7220    10.9380     9.5820     2.1930 
  250.2500    60.0000    11.5240    10.2300    17.1190   401.2660   -50.6090    10.7790     9.7570     2.2010 
  250.3750    60.2390    11.5630    10.2730    17.9640   400.6960   -50.4480    10.7220     9.8410     2.2120 
  250.5000    57.4570    11.6350    10.3450    18.7300   398.7600   -50.2120    10.5360     9.7580     2.2160 
  250.6250    54.4770    11.6580    10.4160    19.3540   400.2000   -50.1990    10.7180     9.9260     2.2140 
  250.7500    52.6890    11.6490    10.4560    19.2820   400.1250   -50.1670    10.4730    10.0750     2.2060 
  250.8750    53.2850    11.6050    10.4790    19.1610   401.3320   -50.1240    10.4020    10.1550     2.1990 
  251.0000    55.1720    11.5660    10.4960    19.2850   401.5550   -50.0980    10.3550    10.1300     2.1950 
  251.1250    56.8110    11.5630    10.5150    19.5790   399.5640   -50.0920    10.0980    10.0390     2.1900 
  251.2500    58.0530    11.5590    10.5330    19.5980   401.3090   -50.0500     9.9850    10.0580     2.1860 
  251.3750    55.8680    11.5920    10.5540    19.4540   401.3090   -49.9620     9.9150     9.9270     2.1860 
  251.5000    57.8940    11.6200    10.5720    19.1400   401.3420   -49.8870    10.1560     9.9130     2.1930 
  251.6250    59.5730    11.6380    10.5930    19.0090   398.9400   -49.8760    10.2810    10.0320     2.2030 
  251.7500    61.0130    11.6480    10.6210    19.1140   394.4910   -49.8850    10.3690    10.2310     2.2130 
  251.8750    63.1790    11.6570    10.6620    19.3150   391.0270   -49.8890    10.5580    10.4170     2.2210 
  252.0000    64.0730    11.6760    10.7230    19.3800   394.0650   -49.9900    10.6020    10.4730     2.2250 
  252.1250    66.5560    11.7070    10.7990    19.2610   392.3560   -50.0190    10.5470    10.5870     2.2300 
  252.2500    65.7020    11.6950    10.8780    19.3830   394.8690   -50.0690    10.4770    10.3640     2.2330 
  252.3750    63.9840    11.7060    10.9610    19.4000   392.7890   -50.0480    10.5160    10.0460     2.2360 
  252.5000    62.6420    11.7210    11.0200    19.2380   390.7250   -49.9760    10.6050     9.7810     2.2370 
  252.6250    62.6320    11.6930    11.0320    18.9660   393.3370   -49.9100    10.6360     9.6410     2.2370 
  252.7500    65.5630    11.6270    10.9990    18.6730   391.9690   -49.8640    10.5940     9.6480     2.2360 
  252.8750    67.9970    11.4610    10.9060    18.1460   392.6540   -49.8260    10.6060     9.6740     2.2360 
  253.0000    68.2850    11.3370    10.8790    17.9690   389.2060   -49.7640    10.4380     9.8500     2.2380 
  253.1250    70.1220    11.3050    10.9610    18.1650   387.2770   -49.7630    10.2460    10.0240     2.2400 
  253.2500    70.4900    11.3810    11.1600    18.6010   387.9590   -49.7950    10.1030    10.1550     2.2390 
  253.3750    67.1420    11.5460    11.4360    19.1710   389.7050   -49.8040     9.9670    10.2420     2.2350 
  253.5000    66.0990    11.7370    11.6870    19.9780   390.2360   -49.7830     9.6430    10.2660     2.2290 
  253.6250    58.4010    11.7620    11.7010    20.0480   389.3270   -49.6780     9.4490    10.5420     2.2220 
  253.7500    54.6760    11.5570    11.5030    20.0750   388.4450   -49.6400     9.3280    10.7220     2.2130 
  253.8750    51.3780    11.0790    11.1330    19.9520   389.9180   -49.6490     9.2540    10.9160     2.2000 
  254.0000    49.4700    10.5800    10.8060    19.7180   392.2280   -49.7270     9.0620    11.3710     2.1830 
  254.1250    50.8610    10.4680    10.8850    19.6440   393.1170   -49.8590     8.8160    12.3110     2.1690 
