~V
VERS. 2.00: Ver 2.00
~W
STRT.M 90.0000:
STOP.M 356.0000:
STEP.M 0.1250:
NULL. -999.2500:
UWI. ∑Á÷ÿ017:
~C
DEPT.M :
GR.API :
RML.OHMM :
RI. :
RXO.OHMM :
AC.US/MT :
SP.MV :
R2M. :
R025. :
DEN.GM/CC :
~A
# ...
  126.5000    58.0730     9.3290     7.9140    11.1530   423.7760   -49.4380     5.6320     7.5240     2.1050 
  126.6250    59.8010     9.4790     8.0290    10.6810   426.8730   -49.5940     5.6090     7.8190     2.1050 
  126.7500    60.4970     9.5360     8.0940    10.3350   420.4950   -49.5860     5.5330     7.8430     2.0930 
  126.8750    59.7020     9.4870     8.1160    11.0440   412.9760   -49.6950     5.3700     7.9050     2.0750 
  127.0000    58.3510     9.3120     8.0360    11.6620   409.2220   -49.7170     5.5000     7.6810     2.0590 
  127.1250    56.4140     9.1130     7.8860    11.4390   411.6080   -49.8230     5.8020     7.6010     2.0340 
  127.2500    55.1920     8.9760     7.7080    10.3320   421.0860   -49.9700     5.9890     7.3790     1.9950 
  127.3750    55.2810     8.9080     7.5520     9.0320   433.5730   -50.0770     5.9510     6.8230     1.9480 
  127.5000    54.5360     8.7620     7.4780     8.9870   436.3060   -50.2120     6.1190     6.6550     1.9130 
  127.6250    54.5360     8.6730     7.5080    10.4640   440.3310   -50.1530     6.6920     6.4840     1.9370 
  127.7500    54.9340     8.4060     7.5950    11.5930   433.3890   -50.1720     7.3010     6.6720     1.9930 
  127.8750    55.7280     8.6390     7.6560    12.2880   426.5550   -50.1140     7.7450     6.7030     2.0520 
  128.0000    56.3050     8.9650     7.6930    12.7750   420.7090   -49.9850     8.0740     6.7500     2.0890 
  128.1250    56.5130     8.9260     7.7500    13.1920   413.8710   -49.8540     8.3920     7.0390     2.0980 
  128.2500    57.7550     9.0210     7.8700    13.1850   408.5560   -49.7580     8.6700     7.2180     2.0910 
  128.3750    59.2450     8.6100     8.0050    12.4830   405.9740   -49.7030     8.7670     7.3810     2.0900 
  128.5000    62.2450     8.7380     8.0690    12.0570   397.2540   -49.5940     8.5390     7.2770     2.0950 
  128.6250    63.2980     8.9280     8.0010    12.1070   394.7470   -49.4340     8.2880     7.2110     2.1020 
  128.7500    63.0000     8.9030     7.8340    12.3440   396.9820   -49.2050     8.0780     7.2370     2.1080 
  128.8750    63.0790     8.6300     7.6350    12.4780   401.0530   -48.9010     7.9040     7.2680     2.1090 
  129.0000    63.4770     8.3800     7.4430    12.7090   415.0260   -48.5560     7.8630     7.1810     2.1060 
  129.1250    62.9800     8.2480     7.3370    12.9150   421.6340   -48.1900     7.6960     7.0050     2.1060 
  129.2500    62.0070     8.3000     7.3570    12.8660   429.5770   -47.8370     7.4810     7.0810     2.1080 
  129.3750    62.0170     8.4030     7.4250    12.8640   431.0200   -47.5310     7.3300     6.9850     2.1110 
  129.5000    62.0660     8.4820     7.4800    12.8080   429.4550   -47.2990     7.3620     6.7800     2.1100 
  129.6250    61.3410     8.4940     7.4790    12.5170   428.7860   -47.1260     7.4780     6.6670     2.1050 
  129.7500    61.6890     8.3940     7.4130    12.0640   422.4080   -46.9200     7.1390     6.6300     2.0930 
  129.8750    59.5530     8.2580     7.2980    11.4690   417.1690   -46.7770     6.9040     6.7610     2.0800 
  130.0000    59.5230     8.1050     7.1690    11.1080   413.1430   -46.5870     6.7940     6.6480     2.0720 
  130.1250    59.1260     7.9650     7.0460    11.1160   408.6910   -46.3640     6.6940     6.6900     2.0690 
  130.2500    58.5300     7.7940     6.9590    11.3190   408.6480   -46.1420     6.5810     6.7740     2.0700 
  130.3750    58.7280     7.6090     6.9260    11.4690   414.2360   -45.9500     6.5420     6.7440     2.0730 
  130.5000    59.7220     7.6170     6.9340    11.4760   413.0220   -45.7990     6.7790     6.8720     2.0760 
  130.6250    60.9640     7.7420     7.0410    11.1890   418.7170   -45.4540     6.7020     6.5280     2.0750 
  130.7500    60.3380     8.0580     7.1180    11.2140   418.9440   -45.0420     6.8190     6.3610     2.0720 
  130.8750    60.4070     8.2030     7.1390    11.5780   419.3110   -44.7230     6.8370     6.0350     2.0730 
  131.0000    61.8080     8.0920     7.0780    12.0020   421.6500   -44.3940     6.8490     5.6890     2.0800 
  131.1250    64.6390     7.7730     6.9030    12.2100   424.7640   -43.9210     7.0120     5.4750     2.0950 
  131.2500    69.8540     7.2850     6.5600    12.2520   425.1410   -43.3950     7.2360     5.1080     2.1120 
  131.3750    72.9830     6.8180     6.1490    11.2120   435.6230   -43.1680     7.2200     4.7940     2.1250 
  131.5000    73.2520     6.5450     5.7710     9.4140   436.1380   -43.0420     7.1550     4.5070     2.1330 
  131.6250    74.2650     6.3630     5.5010     8.4950   436.9000   -42.8150     7.1170     4.5280     2.1400 
  131.7500    75.3580     6.3480     5.4010     8.5560   436.2600   -42.5620     6.9500     4.7260     2.1460 
  131.8750    74.7620     6.5680     5.5050     9.2750   431.6730   -42.3940     6.5370     4.9150     2.1470 
  132.0000    72.7750     6.8950     5.7970    11.0140   430.6100   -42.2090     6.0660     5.1980     2.1420 
  132.1250    68.5530     7.4900     6.2740    12.8590   427.9530   -41.9140     6.1300     5.5180     2.1300 
  132.2500    62.9400     7.9090     6.7420    13.1970   427.8440   -41.7040     6.0360     5.8400     2.1150 
  132.3750    57.8440     8.2980     7.0840    13.0690   425.6660   -41.5880     6.0230     6.1030     2.0990 
  132.5000    54.1390     8.5050     7.3070    13.0060   421.5120   -41.5680     6.0920     6.3460     2.0860 
  132.6250    52.4500     8.5200     7.4560    13.0570   418.2320   -41.6400     6.1580     6.5440     2.0810 
  132.7500    53.9400     8.9080     7.5360    12.8220   419.4460   -41.8000     6.2100     6.4500     2.0860 
  132.8750    59.9010     8.5420     7.6210    13.1850   423.5470   -42.0020     6.2300     6.6090     2.0970 
  133.0000    60.6950     8.6230     7.6500    13.6290   427.7100   -42.1400     6.7100     6.8520     2.1050 
  133.1250    61.0930     8.5530     7.6350    13.0550   426.9190   -42.2690     6.9710     6.9800     2.1050 
  133.2500    60.2980     8.3930     7.5630    11.9020   424.1110   -42.3450     7.0800     6.9220     2.1000 
  133.3750    57.7150     8.3400     7.4380    11.1340   424.5340   -42.3250     7.2840     6.7780     2.0920 
  133.5000    58.7090     8.1950     7.3250    11.2270   430.1540   -42.2750     7.4400     6.8620     2.0860 
  133.6250    55.9270     8.1670     7.2440    11.2080   426.2040   -42.1230     7.2780     6.9300     2.0850 
  133.7500    54.1790     8.1920     7.2670    11.2590   428.0280   -41.8810     6.8340     6.7260     2.0890 
  133.8750    52.5400     8.2980     7.3530    11.2670   421.6800   -41.5320     6.5290     6.5790     2.0940 
  134.0000    53.2450     8.3830     7.4120    11.1870   415.8170   -41.1200     6.2660     6.4380     2.0950 
  134.1250    57.1390     8.2790     7.2970    11.0350   419.6750   -40.6660     5.8880     6.1740     2.0910 
  134.2500    59.1260     7.8010     6.8020    10.8750   421.0400   -40.0930     5.6370     5.8850     2.0910 
  134.3750    63.3480     7.1380     6.2540     9.0740   430.6100   -39.6260     5.6130     5.5650     2.1070 
  134.5000    67.8480     6.3650     5.7610     7.8020   433.1920   -39.2160     5.5630     5.2320     2.1330 
  134.6250    70.8680     6.0380     5.5480     8.5240   430.1540   -38.7500     5.5660     5.0840     2.1600 
  134.7500    71.9600     6.2160     5.6270     9.7360   424.1400   -38.2370     5.7130     5.0660     2.1830 
  134.8750    71.3640     6.6680     5.8610     9.8730   417.3880   -37.7440     6.0730     4.9870     2.1990 
  135.0000    69.3780     7.0760     6.0180    10.2270   410.0590   -37.3310     6.6460     4.6390     2.2150 
  135.1250    76.0830     7.1080     6.0270     7.7720   409.3010   -36.7090     7.1450     4.3330     2.2440 
  135.2500    82.7880     6.4150     5.6480     6.2640   404.2260   -36.0790     7.4920     4.1850     2.2760 
  135.3750    87.9730     5.7410     5.2060     6.1740   402.9950   -35.5740     7.7630     3.9380     2.3020 
  135.5000    91.9670     5.3030     4.8710     6.3570   402.9820   -35.1600     7.9460     3.6900     2.3160 
