~V
VERS. 2.00: Ver 2.00
~W
STRT.M 90.0000:
STOP.M 356.0000:
STEP.M 0.1250:
NULL. -999.2500:
UWI. ∑Á÷ÿ017:
~C
DEPT.M :
GR.API :
RML.OHMM :
RI. :
RXO.OHMM :
AC.US/MT :
SP.MV :
R2M. :
R025. :
DEN.GM/CC :
~A
# ...
  309.0000    59.5430    15.0590    14.8130    16.1810   286.9820   -27.3540    14.7160    14.5230     2.4400 
  309.1250    61.5300    13.5430    13.3950    15.9490   302.4740   -27.0720    14.5030    13.8650     2.4420 
  309.2500    61.5300    12.8470    12.6850    15.7340   313.1660   -26.7870    13.7720    13.6050     2.4200 
  309.3750    61.6590    12.9470    12.6740    15.8470   316.0530   -26.5010    12.6460    13.6810     2.3880 
  309.5000    60.9940    13.5810    13.1770    16.1880   313.5330   -26.2480    11.3310    14.0500     2.3610 
  309.6250    59.2150    14.4510    13.9730    16.6570   308.5600   -26.0460    10.1650    14.6990     2.3520 
  309.7500    60.2580    15.4300    14.9380    17.5680   299.7870   -25.8440     9.6790    15.6410     2.3630 
  309.8750    62.4930    16.7460    16.3390    19.8700   292.3460   -25.6000     9.5870    16.8730     2.3760 
  310.0000    63.3380    18.7130    18.4140    21.7330   282.7170   -25.3730     9.8130    18.6350     2.3840 
  310.1250    61.2720    21.9200    21.6210    25.2600   271.1250   -25.0820    10.3600    20.5670     2.3940 
  310.2500    57.4170    26.7980    26.3010    29.2590   258.3830   -24.7670    11.5330    22.7390     2.4120 
  310.3750    53.9410    33.0960    32.2070    36.7090   244.8030   -24.4840    13.5320    25.1350     2.4380 
  310.5000    52.4500    39.3490    38.0120    62.2420   229.1600   -24.1980    16.0310    27.1380     2.4660 
  310.6250    55.9270    41.8010    40.4980    83.8280   222.1330   -24.0640    19.2870    28.7400     2.4970 
  310.7500    56.4240    41.5730    40.6210    64.1390   215.5940   -23.8920    22.9880    29.7910     2.5260 
  310.8750    57.6650    39.8930    39.2950    40.2210   211.4760   -23.7640    26.9670    30.2930     2.5510 
  311.0000    60.1590    38.1890    37.6190    37.6330   208.0450   -23.6580    30.7420    30.0300     2.5710 
  311.1250    63.7050    37.0430    36.1160    58.0190   202.7820   -23.5430    33.9340    28.8830     2.5840 
  311.2500    69.9130    35.1670    33.9730    66.6690   195.3020   -23.4710    36.6880    27.1330     2.5940 
  311.3750    73.6390    30.6760    29.6720    43.8320   190.5940   -23.4450    38.1350    24.2040     2.6040 
  311.5000    75.0600    24.6020    23.8020    31.1850   187.8280   -23.4770    38.8710    20.9200     2.6040 
  311.6250    75.7550    18.2080    17.7080    38.7420   196.4860   -23.5840    38.7260    17.1810     2.5930 
  311.7500    73.4310    12.5890    12.5020    46.5440   216.4900   -23.7060    37.9750    13.3650     2.5820 
  311.8750    66.6260     8.4760     8.7620    33.3350   245.6330   -23.7810    36.7040     9.9390     2.5730 
  312.0000    59.4240     6.0420     6.2220     5.2570   287.0240   -23.8240    34.1800     7.0780     2.5610 
  312.1250    50.8810     4.5470     4.5420     4.4220   337.5300   -23.7070    30.0620     5.5400     2.5070 
  312.2500    45.3980     3.7880     3.6230     4.3140   382.6540   -23.5420    25.1510     4.3130     2.4130 
  312.3750    44.1060     3.5000     3.2270     4.4350   416.3450   -23.2690    20.3310     3.6770     2.3090 
  312.5000    46.3900     3.5860     3.2440     4.7270   431.4600   -22.8840    15.6470     3.5530     2.2270 
  312.6250    50.8610     4.0020     3.6140     5.2850   426.4340   -22.4020    11.2440     3.7290     2.1870 
  312.7500    56.3240     4.6370     4.2310     6.0750   411.9290   -21.8300     8.3110     4.0910     2.1840 
  312.8750    56.5730     5.5820     5.1460     6.7210   388.8020   -21.0810     7.3120     4.4300     2.2080 
  313.0000    54.4370     6.9450     6.2880     8.3530   364.6750   -20.3020     7.1360     4.8770     2.2380 
  313.1250    51.5570     8.4090     7.4350    10.2620   344.4880   -19.5100     7.1610     5.1060     2.2660 
  313.2500    50.5630     9.2980     8.1040    10.8670   331.3940   -18.8020     7.3460     5.0060     2.2880 
  313.3750    52.3510     9.0350     7.8940     9.2120   328.7140   -18.2670     7.6680     4.6340     2.3030 
  313.5000    53.3440     7.6050     6.8270     6.4810   341.8900   -17.8970     7.5630     4.1630     2.3210 
  313.6250    57.5660     6.2060     5.7460     5.2460   359.2810   -17.7330     7.4360     3.8480     2.3280 
  313.7500    58.3710     5.4480     4.9870     5.0570   377.8280   -17.6960     7.2640     3.4690     2.3220 
  313.8750    59.9900     5.2030     4.6130     5.2910   382.6970   -17.7150     7.1250     3.4090     2.2980 
  314.0000    62.6220     5.3690     4.5650     5.7340   374.1990   -17.7200     6.9220     3.5840     2.2760 
  314.1250    64.7680     5.7680     4.6930     6.1590   361.6670   -17.6840     6.5880     3.7670     2.2720 
  314.2500    65.5630     6.0480     4.7830     5.8960   357.3390   -17.6540     6.2810     3.9000     2.2920 
  314.3750    66.3080     5.8870     4.6500     5.2410   363.0350   -17.5580     6.1530     3.7560     2.2940 
  314.5000    66.3380     5.7050     4.5130     5.0180   378.6610   -17.2990     6.0120     3.8140     2.2850 
  314.6250    67.1720     5.6570     4.4600     5.3740   386.5450   -17.0790     5.8170     3.8980     2.2850 
  314.7500    69.5560     5.7720     4.5140     5.9930   385.4820   -16.9580     5.6120     3.9560     2.3000 
  314.8750    72.9630     6.0060     4.6430     6.4530   380.2070   -16.8920     5.4180     4.0150     2.3190 
  315.0000    75.0990     6.2840     4.7770     6.5840   370.8270   -16.7660     5.1240     4.1410     2.3210 
  315.1250    74.6030     6.2020     4.7260     6.2220   366.9160   -16.6520     4.7780     4.3050     2.3000 
  315.2500    72.1590     5.9120     4.5700     5.8570   373.3630   -16.6330     4.6080     4.3030     2.2740 
  315.3750    68.4540     5.7690     4.5320     5.6200   375.7020   -16.6070     4.5660     4.2650     2.2570 
  315.5000    63.7350     5.9630     4.7440     6.1050   372.9230   -16.5440     4.5540     4.3220     2.2600 
  315.6250    58.5100     6.5700     5.2290     7.9210   366.6670   -16.4700     4.5510     4.5350     2.2880 
  315.7500    54.2390     7.6140     5.8840    11.2440   350.4130   -16.4580     4.7270     4.8160     2.3340 
  315.8750    56.5230     8.6200     6.4510    10.1160   345.7810   -16.4700     5.1760     4.9900     2.3790 
  316.0000    62.3440     8.9850     6.6980     7.8610   339.9310   -16.4590     5.5490     5.2930     2.4020 
  316.1250    68.4530     8.8420     6.6620     6.8380   341.8900   -16.4220     5.5610     5.5650     2.4050 
  316.2500    74.6420     8.4680     6.4600     7.2800   347.0700   -16.3350     5.4410     5.6990     2.3970 
  316.3750    80.9900     8.1570     6.2450     8.2220   349.2880   -16.1910     5.4540     5.6990     2.3870 
  316.5000    85.1120     8.0940     6.1750     8.4220   352.7820   -16.0440     5.4310     5.7280     2.3830 
  316.6250    91.3210     8.2810     6.3120     8.1690   350.7320   -16.0230     5.1530     5.9350     2.3720 
  316.7500    93.3580     8.4290     6.4620     8.4890   353.2380   -16.0590     4.9900     5.9450     2.3540 
  316.8750    96.3470     8.5550     6.6030     8.7880   357.2930   -16.0990     5.1110     5.7730     2.3350 
  317.0000    99.0400     8.7280     6.7580     8.9390   359.4030   -16.1450     5.3880     5.6070     2.3190 
  317.1250    99.5660     8.9660     6.9320     9.0650   357.6570   -16.1860     5.6620     5.5840     2.3080 
  317.2500   101.2050     9.1280     7.0490     9.3180   353.7830   -16.1400     6.0010     5.5730     2.3050 
  317.3750   104.6820     8.8740     6.8950     8.8470   352.4180   -15.9750     6.0120     5.1590     2.3060 
  317.5000   106.5690     8.2140     6.4870     7.7330   351.7190   -15.8110     6.1190     4.8970     2.3090 
  317.6250   106.9270     7.3870     5.9430     6.6340   354.2390   -15.6700     6.0880     4.7020     2.3100 
  317.7500   104.5040     6.5970     5.3790     5.8720   358.4910   -15.5520     5.8970     4.5240     2.3080 
  317.8750    99.3680     5.9900     4.8980     5.4860   362.6710   -15.4630     5.5550     4.2890     2.3050 
  318.0000    95.5430     5.6320     4.5840     5.2830   368.3660   -15.4380     4.9240     3.8510     2.3000 
