~V
VERS. 2.00: Ver 2.00
~W
STRT.M 90.0000:
STOP.M 356.0000:
STEP.M 0.1250:
NULL. -999.2500:
UWI. ∑Á÷ÿ017:
~C
DEPT.M :
GR.API :
RML.OHMM :
RI. :
RXO.OHMM :
AC.US/MT :
SP.MV :
R2M. :
R025. :
DEN.GM/CC :
~A
# ...
  108.2500    70.5890     8.2010     7.0700    11.2170   438.1270   -41.6400     6.6950     5.9220     2.1260 
  108.3750    69.0790     8.8220     7.5760    11.2750   432.5590   -41.5500     6.7420     6.0220     2.1310 
  108.5000    68.5830     9.6440     8.2190    12.4540   417.1230   -41.4350     7.0240     6.0040     2.1640 
  108.6250    66.1190    10.3140     8.7180    16.6940   394.2090   -41.3170     7.7710     5.9390     2.2230 
  108.7500    67.7090    10.5310     8.8000    24.5180   368.9570   -41.1490     9.0820     5.6580     2.2920 
  108.8750    67.2120     9.5580     8.0700    15.6570   359.3440   -40.9720    10.4390     5.5220     2.3290 
  109.0000    75.6560     8.1190     7.0640     8.4880   361.4040   -40.7450    10.9240     5.1510     2.3190 
  109.1250    84.2180     6.7470     6.0330     5.7580   376.2800   -40.5330    10.9060     4.8270     2.2810 
  109.2500    89.8210     5.7090     5.1310     5.7360   399.5280   -40.3460    10.4800     4.5620     2.2430 
  109.3750    92.0960     5.1070     4.5010     5.7330   424.1540   -40.1900     9.5530     4.3430     2.2250 
  109.5000    90.3580     4.9900     4.3730     5.6190   443.6650   -40.1210     7.9360     4.3620     2.2260 
  109.6250    90.1090     5.3430     4.7300     5.4840   443.1530   -40.1360     6.3180     4.3140     2.2270 
  109.7500    86.8410     5.9660     5.3160     7.1630   437.1260   -40.1810     5.3380     4.5750     2.2090 
  109.8750    82.1320     6.8760     6.1120     9.5660   431.8410   -40.2350     4.8210     4.9410     2.1740 
  110.0000    75.7550     7.9200     6.9790    11.2870   428.4220   -40.3130     4.5540     5.4610     2.1340 
  110.1250    68.0070     8.8070     7.7110    11.5760   426.3120   -40.4640     4.3890     6.1510     2.1010 
  110.2500    62.0460     9.1300     8.0950    11.3090   426.6930   -40.7620     4.3550     6.6950     2.0860 
  110.3750    63.4870     9.1910     8.3570    11.0230   423.3890   -41.1940     4.3570     7.5040     2.0930 
  110.5000    67.1520     9.7410     8.9900    11.3040   420.9060   -41.7980     4.6940     8.1750     2.1220 
  110.6250    71.3740    11.2020    10.2050    17.2140   396.3450   -42.5750     5.2450     9.0150     2.1860 
  110.7500    71.9210    13.5830    11.9460    29.3780   352.2050   -43.4970     6.2900     9.7200     2.2850 
  110.8750    67.3510    16.2790    13.7570    40.5710   302.2310   -44.4950     8.0240     9.9600     2.4040 
  111.0000    64.3710    17.8680    14.6430    32.3110   257.2740   -45.4330    10.0670     9.9680     2.5070 
  111.1250    61.5890    15.6140    12.9130    19.1210   253.2480   -46.1940    11.7730     9.9830     2.5180 
  111.2500    61.0330    12.7290    10.7990    13.2590   269.5770   -46.8050    12.8340     9.7060     2.4480 
  111.3750    59.9900    10.3740     8.9540    11.3370   303.6580   -47.2880    13.1250     9.0360     2.3350 
  111.5000    59.2650     8.9390     7.6900    10.9930   345.1570   -47.6160    12.6020     8.2140     2.2220 
  111.6250    59.6520     8.3340     7.0620    10.8830   382.7660   -47.7680    11.3300     7.5690     2.1400 
  111.7500    58.4110     8.2780     6.9460    10.6810   411.0170   -47.8060     9.5140     7.2650     2.1020 
  111.8750    59.1560     8.5420     7.1300    11.2850   418.5330   -47.8250     7.8510     6.8910     2.0880 
  112.0000    56.7220     8.8800     7.3860    12.9870   426.1750   -47.7910     6.7340     6.6140     2.0700 
  112.1250    55.4300     9.1600     7.6150    13.0230   432.3880   -47.7510     6.1700     6.4500     2.0520 
  112.2500    56.5230     9.3270     7.7670    11.7450   435.4690   -47.7660     5.9230     6.4530     2.0410 
  112.3750    59.0070     9.3790     7.8260    10.7090   435.0070   -47.9010     5.7210     6.5880     2.0420 
  112.5000    60.4970     9.3370     7.7990    10.7640   433.2970   -48.2060     5.4720     6.6160     2.0530 
  112.6250    63.7250     9.2490     7.7180    10.7690   432.2340   -48.5590     5.6620     6.5850     2.0610 
  112.7500    61.7480     9.2220     7.6690    10.7100   435.9120   -49.0110     5.9280     6.4460     2.0620 
  112.8750    61.4800     9.2600     7.6510    10.6990   436.3520   -49.4380     6.3000     6.4330     2.0590 
  113.0000    62.2250     9.3340     7.6420    10.7090   434.3930   -49.7550     6.8640     6.4770     2.0610 
  113.1250    62.0260     9.3870     7.6050    10.6510   433.0090   -49.9240     7.6800     6.4330     2.0740 
  113.2500    64.0130     9.3270     7.4820    10.4660   430.6560   -49.9690     8.7060     6.3030     2.0970 
  113.3750    65.2550     9.0690     7.2490     9.9860   431.7950   -50.0250     9.4170     6.2640     2.1160 
  113.5000    65.9010     8.7060     6.9600     9.5470   429.4720   -49.9580     9.9080     6.3890     2.1230 
  113.6250    65.8610     8.3430     6.6810     9.4600   429.0620   -49.8690    10.1700     6.2590     2.1150 
  113.7500    65.7220     8.1070     6.5000     9.5850   428.7430   -49.8010    10.0410     5.9640     2.0980 
  113.8750    65.9210     8.1200     6.5100     9.6830   428.1330   -49.7620     9.4690     5.7900     2.0820 
  114.0000    65.9210     8.4720     6.7910     9.7810   436.9460   -49.7320     8.7900     5.9110     2.0710 
  114.1250    65.9210     9.0700     7.2260    11.6830   446.9680   -49.6190     8.3930     5.9640     2.0650 
  114.2500    64.1320     9.6540     7.6460    14.3140   449.5210   -49.5220     8.3510     6.1560     2.0400 
  114.3750    62.1950    10.0250     7.9490    14.1620   446.2860   -49.4570     8.1800     6.5350     1.9910 
  114.5000    60.7550    10.1720     8.1230    12.2900   438.9500   -49.4680     8.0460     6.9520     1.9330 
  114.6250    59.2150    10.1780     8.2010    11.1080   433.0020   -49.5410     8.2100     7.2320     1.8960 
  114.7500    55.4900    10.1340     8.2040    11.1460   441.5450   -49.5200     8.4680     7.3470     1.9210 
  114.8750    54.6460    10.1310     8.1980    10.9880   452.5590   -49.4360     8.5930     7.4440     1.9970 
  115.0000    54.8340    10.2020     8.2320    10.8710   456.8860   -49.3820     8.3060     7.4750     2.0420 
  115.1250    56.5030    10.0340     8.2440    11.1030   455.0790   -49.3210     8.1630     7.4280     2.0380 
  115.2500    58.7880     9.6840     8.1730    11.5030   450.7510   -49.2170     8.1190     7.3970     2.0050 
  115.3750    60.6260     9.4510     8.0190    11.7270   447.4410   -49.0810     8.0180     7.4200     1.9860 
  115.5000    61.8680     9.7330     7.9010    11.5960   445.4660   -49.0050     8.0850     7.2970     2.0140 
  115.6250    64.5990    10.0710     7.8270    11.6880   443.5300   -48.9340     7.9410     7.4000     2.0620 
  115.7500    64.6290    10.1590     7.8180    11.9110   440.7710   -48.8590     7.9580     7.1100     2.0920 
  115.8750    64.0730     9.9740     7.7780    11.7430   434.8950   -48.7530     8.0380     6.8850     2.1040 
  116.0000    64.2720     9.9080     7.7500    11.3180   432.5230   -48.5610     8.1480     6.8220     2.1040 
  116.1250    66.0100    10.2230     7.7750    11.0050   436.7160   -48.2680     8.1990     6.7900     2.1020 
  116.2500    69.7350    10.5080     7.7540    10.9680   434.4390   -47.9650     7.9210     6.5500     2.0950 
  116.3750    71.7220     9.8220     7.3310    11.0030   430.6400   -47.6710     7.9220     6.1970     2.0880 
  116.5000    75.4970     8.7040     6.6690     9.7440   423.6840   -47.4100     7.9490     6.0230     2.1000 
  116.6250    77.1850     7.7980     6.0010     7.6520   415.7090   -47.1820     7.8730     5.8370     2.1260 
  116.7500    77.3440     7.2620     5.5350     6.4880   409.2390   -47.0380     7.6200     5.5330     2.1550 
  116.8750    76.9170     7.0650     5.4210     7.5490   405.3970   -47.0050     7.2710     5.2100     2.1710 
  117.0000    73.1920     7.2890     5.7050     9.9110   402.1290   -47.0260     7.1660     5.3040     2.1620 
  117.1250    70.2120     8.0000     6.4020    10.8820   403.9530   -47.1270     6.9690     5.3860     2.1420 
  117.2500    67.5100     8.9370     7.1830    10.9630   408.4190   -47.1300     6.7080     5.6840     2.1300 
