~V
VERS. 2.00: Ver 2.00
~W
STRT.M 90.0000:
STOP.M 356.0000:
STEP.M 0.1250:
NULL. -999.2500:
UWI. ∑Á÷ÿ017:
~C
DEPT.M :
GR.API :
RML.OHMM :
RI. :
RXO.OHMM :
AC.US/MT :
SP.MV :
R2M. :
R025. :
DEN.GM/CC :
~A
# ...
  190.3750    71.6220    18.7250    18.0770    19.6300   269.4390   -27.9300     8.4790    16.6100     2.4220 
  190.5000    75.0990    18.1100    17.3980    18.5150   263.2870   -27.9600     9.4960    16.2520     2.4450 
  190.6250    75.0990    17.6050    16.8730    15.9060   257.5920   -27.9220    10.2400    16.1890     2.4590 
  190.7500    77.2450    17.4950    16.7830    17.4500   257.3030   -27.8440    11.1870    16.2550     2.4640 
  190.8750    78.4670    17.8860    17.1500    20.3310   255.4720   -27.8010    11.9230    16.3240     2.4640 
  191.0000    79.9070    18.8760    18.0270    21.8270   254.2490   -27.8250    12.6390    16.4450     2.4650 
  191.1250    82.2120    20.4180    19.3750    21.6930   254.7800   -27.8630    13.7220    16.6570     2.4700 
  191.2500    80.8210    22.1970    20.9450    24.5380   247.1130   -27.7330    15.3330    16.7990     2.4820 
  191.3750    79.0830    23.0860    21.8020    26.8160   248.2870   -27.7200    17.8610    17.2600     2.4990 
  191.5000    77.3440    22.7240    21.5700    24.2630   242.9950   -27.6030    20.0010    17.2660     2.5080 
  191.6250    74.6230    21.5340    20.6400    21.8490   242.5980   -27.4830    21.8990    17.3180     2.4990 
  191.7500    73.3910    20.2560    19.6220    20.4110   248.6150   -27.3510    23.5230    17.3830     2.4710 
  191.8750    74.1360    19.4790    18.9710    19.6500   258.8450   -27.2370    24.5800    17.3930     2.4320 
  192.0000    69.9140    19.1780    18.6340    21.1460   273.5400   -27.3590    24.4250    17.7380     2.4010 
  192.1250    70.2620    19.7240    18.9760    25.0330   281.2110   -27.4470    23.6180    17.4460     2.3960 
  192.2500    67.4700    20.1580    19.2260    24.8230   285.1150   -27.7180    23.1360    17.7020     2.4040 
  192.3750    68.1260    20.2740    19.2810    22.7810   284.3180   -28.0230    22.6940    18.0360     2.4130 
  192.5000    70.3110    20.1100    19.1740    21.1640   283.1560   -28.3250    22.1880    18.3860     2.4170 
  192.6250    71.3050    19.9430    19.1070    21.2160   284.8850   -28.5960    21.7130    18.8350     2.4120 
  192.7500    75.2780    20.2880    19.4840    22.1680   285.3410   -28.7220    21.5600    19.3410     2.4010 
  192.8750    75.5260    21.9480    20.9390    25.2510   287.5460   -28.7770    21.6180    20.2060     2.3920 
  193.0000    76.5690    25.1790    23.5850    29.4640   285.7970   -28.7480    22.0750    20.8280     2.3960 
  193.1250    78.0200    29.2950    26.8510    34.8270   277.2310   -28.6420    23.4050    20.9370     2.4160 
  193.2500    81.0590    32.2080    29.1000    38.4340   264.5050   -28.4900    25.6500    20.5030     2.4480 
  193.3750    85.9770    31.6850    28.5500    36.8400   251.2730   -28.3170    28.5620    19.6280     2.4840 
  193.5000    89.7020    26.5980    24.2020    28.4510   237.6800   -28.1060    31.7400    18.4330     2.5100 
  193.6250    86.5230    20.4750    19.0070    18.8790   241.0960   -27.9040    33.4490    16.7900     2.5070 
  193.7500    80.9210    16.1820    15.3380    14.2410   248.8880   -27.6420    33.3790    14.9290     2.4810 
  193.8750    74.8610    13.5950    13.0010    12.5420   263.9240   -27.3540    31.8890    13.4770     2.4430 
  194.0000    71.5630    12.3860    11.7880    12.2540   278.2640   -27.0980    29.2710    12.5450     2.4030 
  194.1250    72.5560    12.1460    11.4570    12.5290   284.3860   -26.9180    25.7790    11.9460     2.3730 
  194.2500    74.7420    12.5090    11.7260    13.4080   286.4370   -26.8090    21.6680    11.4080     2.3580 
  194.3750    76.4800    13.4020    12.5100    13.1710   288.7140   -26.7030    18.8630    11.2540     2.3610 
  194.5000    76.4300    14.1630    13.1710    14.2920   295.4260   -26.6620    17.2920    11.2410     2.3740 
  194.6250    75.1590    14.5950    13.5540    15.9440   303.6150   -26.6500    16.6010    11.2030     2.3900 
  194.7500    72.8940    14.5700    13.5770    15.9550   308.4610   -26.6100    16.4610    11.2020     2.4010 
  194.8750    70.1620    14.1720    13.3160    13.6370   306.4110   -26.5480    16.6320    11.3520     2.4030 
  195.0000    68.4240    13.8630    13.0820    12.6080   298.2840   -26.6070    17.0220    11.6480     2.4020 
  195.1250    66.0400    13.9430    13.1510    14.6050   286.8930   -26.5940    17.2910    11.9540     2.4050 
  195.2500    68.4630    14.4720    13.5790    16.7760   278.2350   -26.6760    17.6320    12.4190     2.4200 
  195.3750    71.4040    15.3280    14.3030    17.8210   271.0330   -26.7990    18.1930    12.8490     2.4380 
  195.5000    74.7810    16.4460    15.2790    18.3670   268.2680   -26.9110    18.9810    13.2230     2.4460 
  195.6250    78.1590    17.6690    16.3600    19.4180   271.7030   -26.9790    19.9190    13.5320     2.4350 
  195.7500    76.1720    18.6040    17.1690    20.8040   276.4110   -27.0010    20.8890    13.6160     2.4050 
  195.8750    77.9110    19.0020    17.4120    20.7000   283.0940   -27.0260    21.5410    13.4620     2.3750 
  196.0000    77.6620    18.1800    16.5860    20.2960   290.3840   -27.0510    22.1620    13.0210     2.3640 
  196.1250    76.6490    16.6410    15.2040    17.6740   292.0870   -27.0590    22.2760    12.7220     2.3690 
  196.2500    73.7490    14.9940    13.8010    14.1260   291.2660   -27.1070    21.7040    12.5150     2.3800 
  196.3750    68.5330    13.7660    12.7850    12.3270   291.3120   -27.2050    20.5280    12.2180     2.3920 
  196.5000    64.3110    13.2120    12.2860    14.5140   286.9820   -27.1920    19.0590    11.8690     2.4010 
  196.6250    66.2980    13.6000    12.5680    17.3550   288.0450   -27.2680    18.1870    12.3450     2.4060 
  196.7500    68.0860    14.6030    13.3760    18.5330   287.8940   -27.2530    17.3900    12.9110     2.4090 
  196.8750    69.9730    16.1310    14.6670    18.2260   285.7510   -27.1520    16.6910    13.3230     2.4080 
  197.0000    71.3240    17.6220    15.9850    18.4560   283.4280   -27.0310    16.4140    13.6490     2.4020 
  197.1250    71.9900    18.5060    16.8390    20.5360   281.7130   -26.9580    16.8050    14.0980     2.3920 
  197.2500    73.7280    18.6710    17.0760    22.5220   276.7750   -26.9450    17.6460    14.8620     2.3780 
  197.3750    75.9640    18.4520    16.9660    19.7630   283.9530   -26.8610    17.9460    14.9000     2.3740 
  197.5000    77.1260    18.3370    16.9320    19.1290   283.0770   -26.7500    18.1180    15.1210     2.3790 
  197.6250    77.5430    18.4100    17.0220    19.8270   285.8890   -26.7480    18.4820    15.4570     2.3810 
  197.7500    76.1130    18.7280    17.2760    20.6060   289.0490   -26.7400    18.9460    15.8520     2.3760 
  197.8750    73.1820    19.2880    17.6990    20.7540   288.9040   -26.6120    19.3310    16.1840     2.3650 
  198.0000    73.4300    19.9920    18.2380    21.0950   296.2340   -26.5110    19.7030    16.1940     2.3620 
  198.1250    71.5930    20.3490    18.5220    21.9230   295.7780   -26.5110    20.0900    16.4170     2.3650 
  198.2500    72.2980    20.1690    18.4180    22.1450   294.3500   -26.5240    20.6850    16.5580     2.3650 
  198.3750    70.1520    19.8130    18.1870    21.5640   296.2570   -26.5130    21.0550    16.6380     2.3620 
  198.5000    67.7680    19.4820    17.9820    20.9360   302.9000   -26.5510    21.1220    16.6320     2.3580 
  198.6250    68.2950    19.3050    17.9030    21.0170   312.6510   -26.6770    20.9890    16.5290     2.3600 
  198.7500    67.9470    19.4230    18.0440    21.6140   320.7020   -26.7480    20.7680    16.3860     2.3670 
  198.8750    69.4870    19.5360    18.1720    22.1960   314.7010   -26.7440    20.9170    16.1700     2.3740 
  199.0000    68.8010    19.4820    18.1280    24.0850   307.9430   -26.8440    20.7660    15.8800     2.3710 
  199.1250    68.9010    19.0450    17.7470    23.0580   305.0720   -26.8620    20.7210    15.5710     2.3620 
  199.2500    70.1720    18.3090    17.1130    19.6200   308.4150   -26.7950    20.8600    15.2730     2.3480 
  199.3750    71.0370    17.4880    16.4140    16.3460   316.0930   -26.7100    20.9800    15.0050     2.3300 
