~V
VERS. 2.00: Ver 2.00
~W
STRT.M 90.0000:
STOP.M 356.0000:
STEP.M 0.1250:
NULL. -999.2500:
UWI. ∑Á÷ÿ017:
~C
DEPT.M :
GR.API :
RML.OHMM :
RI. :
RXO.OHMM :
AC.US/MT :
SP.MV :
R2M. :
R025. :
DEN.GM/CC :
~A
# ...
  153.8750    70.9670     7.7720     6.7930    10.8570   427.9200   -37.3860     5.7820     5.2750     2.1060 
  154.0000    71.3440     7.8840     6.8660    11.3390   428.7570   -37.2270     5.8110     5.4120     2.1070 
  154.1250    68.1560     7.8430     6.8040    11.7380   431.2930   -37.0280     5.5870     5.4000     2.1060 
  154.2500    63.7350     7.5160     6.5490    11.9390   432.6150   -36.8820     5.3730     5.3120     2.1040 
  154.3750    62.0660     6.9110     6.1210    11.4900   428.3920   -36.8150     5.4100     5.3040     2.1090 
  154.5000    63.6560     6.3800     5.7300     9.3000   423.6840   -36.7300     5.3280     5.3630     2.1350 
  154.6250    72.3480     6.2370     5.6460     7.4330   410.3540   -36.7090     5.2810     5.5630     2.1940 
  154.7500    77.6620     6.7000     6.0980     9.1730   386.9130   -36.6750     5.5430     5.9680     2.2640 
  154.8750    77.3050     7.7480     6.9410    12.9170   362.8970   -36.5760     5.8590     6.3970     2.3250 
  155.0000    73.3710     8.9620     7.8350    16.9770   343.1200   -36.3840     6.2680     6.7710     2.3600 
  155.1250    69.6460     9.7670     8.4180    18.6700   331.7290   -36.1030     6.8560     7.0550     2.3610 
  155.2500    68.9010     9.6720     8.4790    13.4060   336.2860   -35.7960     7.5160     7.1930     2.3380 
  155.3750    76.0530     8.9750     8.0860     9.2170   335.6040   -35.3970     7.8040     7.2860     2.3230 
  155.5000    78.8740     8.7510     7.9680    12.0170   332.1260   -34.9600     7.9930     7.0000     2.3410 
  155.6250    81.6560     8.9590     8.0930    17.0500   320.7480   -34.5770     8.5900     6.6310     2.3890 
  155.7500    83.1850     9.3360     8.2920    18.0510   309.2810   -34.2730     9.3990     6.2740     2.4490 
  155.8750    83.1650     9.3790     8.2510    12.5810   306.9260   -34.0320     9.9730     5.9420     2.4920 
  156.0000    88.6290     8.3300     7.5120     7.3760   312.7720   -33.8170    10.0690     5.6920     2.4910 
  156.1250    92.1060     6.6790     6.2790     5.6580   335.2130   -33.5980     9.8380     5.0980     2.4340 
  156.2500    95.7020     5.4830     5.1840     5.4920   363.1560   -33.5310     9.1800     4.8290     2.3660 
  156.3750    96.4370     4.8560     4.5240     5.8230   384.9970   -33.5010     8.0610     4.6530     2.3100 
  156.5000    95.4240     4.7250     4.3340     5.9760   399.4720   -33.5240     6.6150     4.5260     2.2780 
  156.6250    94.8770     4.9440     4.5020     5.8960   407.3790   -33.6470     5.1230     4.4610     2.2700 
  156.7500    95.1260     5.4020     4.8800     6.3920   403.3170   -33.8570     4.0040     4.4060     2.2800 
  156.8750    90.3580     5.9360     5.3090     7.5420   404.6060   -34.1810     3.6650     4.7360     2.2840 
  157.0000    85.4310     6.2840     5.6240     7.9090   403.2840   -34.6100     3.8970     4.8080     2.2730 
  157.1250    80.1660     6.4880     5.8610     8.0250   405.3870   -35.0740     4.2900     5.0030     2.2670 
  157.2500    77.3840     6.7340     6.1660     8.0700   408.6480   -35.5340     4.6170     5.4150     2.2540 
  157.3750    78.1590     7.1990     6.6560     8.4100   404.0750   -35.9930     4.8590     5.8600     2.2270 
  157.5000    77.0660     7.8910     7.2880    10.1350   377.5720   -36.5230     5.2220     5.8830     2.2190 
  157.6250    75.3280     8.9110     8.0340    11.9910   357.5950   -37.1170     6.2680     6.0500     2.2650 
  157.7500    71.4040     9.5630     8.4720    11.4690   336.5580   -37.6800     6.6320     6.0210     2.3290 
  157.8750    67.4400     9.4760     8.3510    10.4850   339.5670   -38.2810     6.8830     5.9430     2.3770 
  158.0000    66.1190     8.7570     7.7630     9.8220   358.1730   -38.9170     7.1560     5.8620     2.3850 
  158.1250    67.8280     7.8030     6.9850     9.5960   376.9230   -39.5470     7.2850     5.7790     2.3600 
  158.2500    67.8280     7.1190     6.3250     9.7110   399.8980   -40.1240     6.9340     5.7160     2.3600 
  158.3750    70.3110     7.0570     6.1820    10.1970   410.0000   -40.6710     6.7960     5.7790     2.2950 
  158.5000    66.5170     7.3740     6.3710    11.4620   417.8510   -41.2340     6.8360     5.7650     2.2360 
  158.6250    64.9970     7.8470     6.7100    12.4500   424.8690   -41.7650     6.7960     5.9230     2.1880 
  158.7500    65.3250     8.3290     7.0850    12.8610   429.5180   -42.4190     6.6180     6.2220     2.1520 
  158.8750    64.6790     8.7100     7.4130    13.0380   431.4760   -43.1910     6.4370     6.4800     2.1310 
  159.0000    64.4300     8.8900     7.6020    13.8630   435.8040   -43.5320     6.5740     6.5120     2.1220 
  159.1250    62.8910     8.8160     7.5840    14.6230   429.0450   -43.6750     6.5410     6.6480     2.1240 
  159.2500    61.3910     8.6790     7.4740    14.2020   435.9880   -43.8280     6.5890     6.9980     2.1230 
  159.3750    61.0930     8.5490     7.3480    13.2690   438.0840   -43.9080     6.7460     7.1240     2.1160 
  159.5000    62.0860     8.4490     7.2330    12.4660   437.3980   -43.9830     7.0090     7.0100     2.1060 
  159.6250    64.3510     8.3760     7.1190    12.1530   438.4780   -44.1120     7.2850     6.8910     2.0950 
  159.7500    68.7220     8.3230     6.9780    12.1600   430.2000   -44.1880     7.3460     7.0830     2.0910 
  159.8750    71.4540     8.3520     6.9660    12.2280   430.8070   -44.1800     7.6100     7.1600     2.0970 
  160.0000    73.2710     8.3800     6.9670    12.1640   431.2340   -44.0700     7.6450     7.0440     2.1100 
  160.1250    73.9970     8.4040     6.9730    12.1480   431.4530   -43.8520     7.6630     6.9470     2.1150 
  160.2500    73.2910     8.4140     6.9740    12.2420   431.9030   -43.5540     7.6630     6.9010     2.1140 
  160.3750    71.5030     8.4080     6.9650    12.4050   433.1170   -43.1940     7.6080     6.8510     2.1130 
  160.5000    70.5100     8.4020     6.9550    12.5130   435.3940   -42.7390     7.6070     6.7580     2.1160 
  160.6250    71.6030     8.3990     6.9590    12.5060   430.7610   -42.4610     7.1790     6.5360     2.1170 
  160.7500    69.9540     8.3950     6.9610    12.9080   428.9240   -42.1630     6.9630     6.5080     2.1150 
  160.8750    68.2750     8.3730     6.9510    13.0720   427.7850   -41.9870     6.7920     6.4500     2.1120 
  161.0000    66.1390     8.3440     6.9330    12.7240   426.4930   -41.8470     6.7200     6.3290     2.1120 
  161.1250    63.5260     8.3200     6.9140    12.1060   424.6650   -41.6490     6.8130     6.1880     2.1180 
  161.2500    64.3710     8.3000     6.8910    12.1090   421.5880   -41.5020     6.9350     6.0330     2.1230 
  161.3750    67.2020     8.2520     6.8430    12.3590   414.5240   -41.2450     7.1390     5.8010     2.1220 
  161.5000    68.1660     8.1500     6.7500    12.7220   414.5700   -41.0460     7.0280     5.5300     2.1120 
  161.6250    68.5130     8.0300     6.6460    13.0210   413.2020   -40.8280     6.9960     5.4140     2.0920 
  161.7500    67.6290     7.9180     6.5540    13.2200   414.3900   -40.5880     7.0030     5.3500     2.0780 
  161.8750    65.2250     7.8500     6.4990    13.3740   421.1780   -40.3310     6.8780     5.2480     2.0850 
  162.0000    63.5360     7.8990     6.5120    13.5800   422.3160   -40.0020     6.6100     5.3340     2.1010 
  162.1250    61.3010     8.0360     6.6160    14.2360   425.9610   -39.6320     6.5460     5.5900     2.1210 
  162.2500    59.8610     8.2690     6.7510    15.5070   422.9560   -39.2350     6.7250     5.8280     2.1400 
  162.3750    61.6290     8.4260     6.8810    16.3690   415.7550   -38.7750     6.9000     5.9110     2.1510 
  162.5000    64.6890     8.4620     6.9620    15.9220   409.1800   -38.3380     6.9790     5.9540     2.1500 
  162.6250    66.1790     8.3820     6.9650    14.3080   407.2410   -37.9890     7.0320     6.0950     2.1370 
  162.7500    65.6820     8.1640     6.8980    13.6230   410.0130   -37.6440     7.3000     6.2580     2.1160 
  162.8750    60.8640     8.1160     6.8780    13.8560   420.3810   -37.3410     7.4570     6.1120     2.1030 
