~V
VERS. 2.00: Ver 2.00
~W
STRT.M 90.0000:
STOP.M 356.0000:
STEP.M 0.1250:
NULL. -999.2500:
UWI. ∑Á÷ÿ017:
~C
DEPT.M :
GR.API :
RML.OHMM :
RI. :
RXO.OHMM :
AC.US/MT :
SP.MV :
R2M. :
R025. :
DEN.GM/CC :
~A
# ...
  327.2500    78.0200    18.8660    17.0830    20.2650   330.9380   -19.4010    14.2210    14.6490     2.2540 
  327.3750    82.3110    21.4680    19.3830    23.0470   328.9500   -19.4980    13.9840    15.4110     2.2430 
  327.5000    87.2780    23.1320    20.9190    25.2490   324.2590   -19.5790    14.1310    15.9580     2.2380 
  327.6250    89.7520    23.2160    21.0900    25.3250   316.8310   -19.6180    14.7220    16.0710     2.2360 
  327.7500    88.2120    21.2840    19.5950    22.6710   310.6790   -19.6090    15.7350    15.6960     2.2350 
  327.8750    87.3180    17.8200    16.7620    20.4090   305.6660   -19.4120    16.4790    15.0850     2.2420 
  328.0000    82.9670    15.2030    14.5500    19.9940   304.6030   -19.1300    17.1790    14.4240     2.2500 
  328.1250    79.3910    13.7930    13.2740    17.8790   306.9390   -18.8740    17.7390    13.6880     2.2640 
  328.2500    74.2850    13.6410    12.9680    17.8820   308.6420   -18.6240    18.1600    12.9740     2.2990 
  328.3750    65.7420    14.6220    13.5080    25.5860   305.1510   -18.3300    18.5090    12.3820     2.3660 
  328.5000    59.1860    16.5520    14.7280    42.7480   294.3640   -18.0230    18.9070    11.8830     2.4630 
  328.6250    57.4470    16.4320    14.3450    42.8940   272.7990   -17.7580    19.9750    10.8920     2.5400 
  328.7500    58.6890    12.9570    11.7320    25.7980   258.9440   -17.5630    21.0320     9.5050     2.5560 
  328.8750    59.2450     8.9170     8.6430    11.4550   253.1730   -17.3140    21.6780     7.9560     2.5150 
  329.0000    56.6230     5.8970     6.0670     5.0960   263.4060   -17.0370    21.4780     6.4910     2.4420 
  329.1250    50.2850     4.3610     4.3770     3.9150   293.4940   -16.8000    20.1990     5.2180     2.3660 
  329.2500    42.4380     3.7210     3.4810     3.8160   331.5450   -16.5940    18.0370     3.9550     2.2910 
  329.3750    38.2160     3.7080     3.4080     3.7130   367.8840   -16.4430    14.8250     3.1230     2.2740 
  329.5000    40.3510     4.1130     3.7350     3.9260   390.1610   -16.2540    11.4910     3.0140     2.2630 
  329.6250    44.4630     4.7110     4.2040     4.3600   396.2530   -16.0940     8.6450     3.1540     2.2590 
  329.7500    48.7750     5.2480     4.6160     4.9630   393.7010   -15.9860     6.7230     3.2460     2.2620 
  329.8750    51.4870     5.5140     4.8370     5.3710   389.6520   -15.9250     5.8640     3.2020     2.2700 
  330.0000    48.1590     5.4120     4.8020     4.5530   380.8070   -15.8870     5.7890     3.1790     2.2760 
  330.1250    45.1790     5.1580     4.6330     4.1590   378.6780   -15.8320     5.6720     3.2120     2.2600 
  330.2500    43.5900     4.9360     4.4790     4.7280   377.8580   -15.8150     5.5440     3.3960     2.2360 
  330.3750    43.4500     4.8300     4.4250     5.6070   378.6420   -15.8520     5.4960     3.5510     2.2170 
  330.5000    44.8010     4.9480     4.5960     6.1770   376.7650   -15.9390     5.4820     3.7910     2.2130 
  330.6250    47.8700     5.4000     5.0960     6.4020   370.2490   -16.0520     5.3970     4.2620     2.2270 
  330.7500    53.2840     6.2610     5.9410     7.3740   366.2240   -16.1450     5.1770     4.8740     2.2510 
  330.8750    62.2240     7.9470     7.3180    11.8110   356.0860   -16.1660     5.4470     5.7530     2.2580 
  331.0000    71.5620    10.4890     9.2570    15.4910   345.0070   -16.2970     6.2590     6.5860     2.2460 
  331.1250    78.4960    13.5560    11.6160    16.7440   331.9130   -16.3940     7.1670     7.3520     2.2190 
  331.2500    81.6560    15.5150    13.1050    16.2370   322.1620   -16.4380     8.1070     7.8180     2.1860 
  331.3750    81.3580    14.8830    12.5540    14.8190   321.4010   -16.4770     9.0990     7.9020     2.1560 
  331.5000    79.8680    11.7760    10.1920    11.3590   329.4490   -16.5530     9.9560     8.0400     2.1300 
  331.6250    72.9140     9.1100     8.1970     7.1840   344.5640   -16.6870    10.2550     7.7470     2.1350 
  331.7500    68.1860     7.4380     6.7860     6.1270   352.8710   -16.7320     9.8400     7.1830     2.1690 
  331.8750    64.2820     6.7330     6.1140     6.3820   355.7870   -16.7530     9.1380     6.8570     2.2130 
  332.0000    62.4440     6.8860     6.2150     7.7460   355.4560   -16.7550     8.2710     6.9720     2.2480 
  332.1250    62.9800     7.8600     7.0210    11.1230   352.5230   -16.7290     7.2900     7.4010     2.2610 
  332.2500    61.6890     9.8520     8.3830    18.0340   343.9440   -16.7040     6.4160     7.6740     2.2540 
  332.3750    60.5460    12.1180     9.9870    18.8580   337.0310   -16.6160     6.7260     8.1570     2.2410 
  332.5000    62.1060    12.9200    10.7680    16.6550   323.6810   -16.4970     7.0970     8.2670     2.2350 
  332.6250    64.3410    12.3740    10.5300    13.8870   317.0110   -16.3620     7.6610     8.0740     2.2340 
  332.7500    65.9400    11.0170     9.5520    11.0430   317.7850   -16.2590     8.3380     7.6110     2.2370 
  332.8750    65.6130     9.4350     8.2860     8.3320   323.8680   -16.1870     8.9210     6.9300     2.2410 
  333.0000    61.3910     7.8790     7.0440     7.3890   339.7010   -16.0120     9.1550     6.1490     2.2410 
  333.1250    57.4180     6.6630     5.9580     6.2150   356.1060   -15.8750     8.7830     5.2720     2.2290 
  333.2500    52.8480     5.6650     5.0040     4.7270   371.0530   -15.7370     8.8250     4.6690     2.2100 
  333.3750    46.9380     4.8800     4.2640     3.8040   387.3880   -15.7180     8.4910     3.9780     2.1900 
  333.5000    39.9140     4.3340     3.7480     3.4830   399.8230   -15.7420     7.8010     3.3490     2.1760 
  333.6250    33.1200     4.0390     3.4300     3.4720   405.2760   -15.7150     7.0890     2.9870     2.1750 
  333.7500    29.1460     3.9490     3.2880     3.6600   413.2480   -15.7110     6.5010     2.6920     2.1890 
  333.8750    30.3870     4.0790     3.3390     3.9700   407.6310   -15.6610     5.5800     2.7390     2.2210 
  334.0000    33.8540     4.2520     3.4550     4.2140   404.5930   -15.6170     4.5270     2.8370     2.2590 
  334.1250    37.9960     4.3640     3.5700     4.3040   396.5720   -15.5080     3.8720     3.1540     2.2890 
  334.2500    41.8210     4.4600     3.7230     4.5170   385.0130   -15.3760     3.5630     3.5540     2.3070 
  334.3750    44.9500     4.6580     4.0190     5.1650   372.4970   -15.2840     3.3510     3.9470     2.3160 
  334.5000    47.6820     5.0840     4.5960     6.2670   354.8790   -15.2340     3.1890     4.6450     2.3300 
  334.6250    48.9240     6.2390     5.8350    10.3420   335.5120   -15.1820     3.5470     5.6450     2.3810 
  334.7500    48.9740     8.5270     7.7420    18.6210   311.9550   -15.1440     4.3890     6.8680     2.4610 
  334.8750    48.5760    12.4000    10.6280    27.7250   284.8430   -15.1060     5.5180     8.1480     2.5360 
  335.0000    47.6820    17.3520    14.2430    34.6510   261.0560   -15.0520     6.8190     9.2120     2.5760 
  335.1250    46.9370    21.3910    17.2100    35.9300   246.1550   -14.9950     8.2640     9.8150     2.5640 
  335.2500    49.1720    20.5250    16.4510    26.7680   236.8140   -15.0180     9.9100     9.8610     2.5060 
  335.3750    55.1320    14.4390    12.0470    15.3190   245.6990   -15.0980    10.7720     9.0020     2.4330 
  335.5000    58.9470    10.1910     8.8360     9.7910   258.6840   -15.2550    11.0040     7.9470     2.3730 
  335.6250    60.4070     7.4780     6.5700     6.8120   275.0430   -15.3760    10.6450     6.7980     2.3180 
  335.7500    57.7750     5.9030     5.0630     5.2050   297.6440   -15.4520     9.6640     5.7480     2.2710 
  335.8750    51.7220     5.0840     4.1680     4.6960   324.9840   -15.4900     8.1660     4.9480     2.2380 
  336.0000    49.2720     4.7720     3.7510     4.6180   343.2120   -15.4230     6.5880     4.3660     2.2190 
  336.1250    47.7820     4.8370     3.7180     4.6320   364.7410   -15.3640     5.6170     4.2330     2.2060 
  336.2500    49.3110     5.1480     3.8960     4.6850   369.6550   -15.2340     4.6020     4.0580     2.1940 
